{
"type": "FeatureCollection",
"name": "ms:ETABLISSEMENTS_POLLUEURS",
"crs": { "type": "name", "properties": { "name": "urn:ogc:def:crs:OGC:1.3:CRS84" } },
"features": [
{ "type": "Feature", "properties": { "gml_id": "ETABLISSEMENTS_POLLUEURS.8702", "identifiant": "0010004440", "idetab": "8702", "nom": "LOCHES SUD TOURAINE", "codeape": "8411Z", "cp": "37350" }, "geometry": { "type": "Point", "coordinates": [ 0.89475, 46.94711 ] } },
{ "type": "Feature", "properties": { "gml_id": "ETABLISSEMENTS_POLLUEURS.5382", "identifiant": "0007203701", "idetab": "5382", "nom": "SVDM DE LA CHARENTE - CET DE RUFFEC", "codeape": "3811Z", "cp": "16700" }, "geometry": { "type": "Point", "coordinates": [ 0.197025, 46.026949 ] } },
{ "type": "Feature", "properties": { "gml_id": "ETABLISSEMENTS_POLLUEURS.11071", "identifiant": "0007203659", "idetab": "11071", "nom": "SARL ABCR", "codeape": "7010Z", "cp": "16700" }, "geometry": { "type": "Point", "coordinates": [ 0.197025, 46.026949 ] } },
{ "type": "Feature", "properties": { "gml_id": "ETABLISSEMENTS_POLLUEURS.8140", "identifiant": "0007201983", "idetab": "8140", "nom": "SNRI", "codeape": "2814Z", "cp": "16700" }, "geometry": { "type": "Point", "coordinates": [ 0.197025, 46.026949 ] } },
{ "type": "Feature", "properties": { "gml_id": "ETABLISSEMENTS_POLLUEURS.599237", "identifiant": "0007209999", "idetab": "599237", "nom": "SYNDICAT VALORISATION DECHETS MENAGERS DE LA CHARENTE CALITOM", "codeape": "3811Z", "cp": "16700" }, "geometry": { "type": "Point", "coordinates": [ 0.19342, 46.03473 ] } },
{ "type": "Feature", "properties": { "gml_id": "ETABLISSEMENTS_POLLUEURS.597077", "identifiant": "0003102506", "idetab": "597077", "nom": "SOCIETE DE TRAVAUX PUBLICS ET RURAUX", "codeape": "4312A", "cp": "16490" }, "geometry": { "type": "Point", "coordinates": [ 0.45967, 46.10153 ] } },
{ "type": "Feature", "properties": { "gml_id": "ETABLISSEMENTS_POLLUEURS.8136", "identifiant": "0007201774", "idetab": "8136", "nom": "S.I.B. THEBAULT", "codeape": "1621Z", "cp": "79190" }, "geometry": { "type": "Point", "coordinates": [ 0.10604, 46.12857 ] } },
{ "type": "Feature", "properties": { "gml_id": "ETABLISSEMENTS_POLLUEURS.593865", "identifiant": "0007200728", "idetab": "593865", "nom": "CARRIÈRES KLÉBER MOREAU SA", "codeape": "0812Z", "cp": "79190" }, "geometry": { "type": "Point", "coordinates": [ 0.212038, 46.1451 ] } },
{ "type": "Feature", "properties": { "gml_id": "ETABLISSEMENTS_POLLUEURS.12462", "identifiant": "0007207967", "idetab": "12462", "nom": "ALICOOP USINE DE CIVRAY", "codeape": "1091Z", "cp": "86400" }, "geometry": { "type": "Point", "coordinates": [ 0.293724, 46.146309 ] } },
{ "type": "Feature", "properties": { "gml_id": "ETABLISSEMENTS_POLLUEURS.597346", "identifiant": "0007202717", "idetab": "597346", "nom": "CHEMET-GLI", "codeape": "2529Z", "cp": "86400" }, "geometry": { "type": "Point", "coordinates": [ 0.28097, 46.14977 ] } },
{ "type": "Feature", "properties": { "gml_id": "ETABLISSEMENTS_POLLUEURS.9247", "identifiant": "0007202719", "idetab": "9247", "nom": "CHEMET-GLI", "codeape": "2529Z", "cp": "86400" }, "geometry": { "type": "Point", "coordinates": [ 0.28399, 46.15055 ] } },
{ "type": "Feature", "properties": { "gml_id": "ETABLISSEMENTS_POLLUEURS.590233", "identifiant": "0003102817", "idetab": "590233", "nom": "CC MELLOIS EN POITOU", "codeape": "3821Z", "cp": "79190" }, "geometry": { "type": "Point", "coordinates": [ 0.03683, 46.17559 ] } },
{ "type": "Feature", "properties": { "gml_id": "ETABLISSEMENTS_POLLUEURS.589888", "identifiant": "0007201625", "idetab": "589888", "nom": "BARRE FILS", "codeape": "4312A", "cp": "86400" }, "geometry": { "type": "Point", "coordinates": [ 0.25826, 46.1883 ] } },
{ "type": "Feature", "properties": { "gml_id": "ETABLISSEMENTS_POLLUEURS.596899", "identifiant": "0007207985", "idetab": "596899", "nom": "SOCIETE DE TRAVAUX PUBLICS ET RURAUX", "codeape": "4312A", "cp": "86400" }, "geometry": { "type": "Point", "coordinates": [ 0.24803, 46.20229 ] } },
{ "type": "Feature", "properties": { "gml_id": "ETABLISSEMENTS_POLLUEURS.591235", "identifiant": "0058600274", "idetab": "591235", "nom": "SCEA DE PORC BEL AIR", "codeape": "0146Z", "cp": "86400" }, "geometry": { "type": "Point", "coordinates": [ 0.1723, 46.17106 ] } },
{ "type": "Feature", "properties": { "gml_id": "ETABLISSEMENTS_POLLUEURS.591239", "identifiant": "0058600464", "idetab": "591239", "nom": "LES FROMAGERIES SAINT-SAVIOL", "codeape": "1051C", "cp": "86400" }, "geometry": { "type": "Point", "coordinates": [ 0.240225, 46.139411 ] } },
{ "type": "Feature", "properties": { "gml_id": "ETABLISSEMENTS_POLLUEURS.596827", "identifiant": "0058600766", "idetab": "596827", "nom": "METHA BEL AIR", "codeape": "3511Z", "cp": "86400" }, "geometry": { "type": "Point", "coordinates": [ 0.20965, 46.17085 ] } },
{ "type": "Feature", "properties": { "gml_id": "ETABLISSEMENTS_POLLUEURS.13523", "identifiant": "0058600770", "idetab": "13523", "nom": "SAS METHA BEL AIR", "codeape": "3511Z", "cp": "86400" }, "geometry": { "type": "Point", "coordinates": [ 0.180357, 46.164337 ] } },
{ "type": "Feature", "properties": { "gml_id": "ETABLISSEMENTS_POLLUEURS.7618", "identifiant": "86134734", "idetab": "7618", "nom": "SCEA PORC BELAIR", "codeape": "0146Z", "cp": "86400" }, "geometry": { "type": "Point", "coordinates": [ 0.185298, 46.172653 ] } },
{ "type": "Feature", "properties": { "gml_id": "ETABLISSEMENTS_POLLUEURS.12084", "identifiant": "86247001", "idetab": "12084", "nom": "LES FROMAGERIES SAINT-SAVIOL", "codeape": "1051C", "cp": "86400" }, "geometry": { "type": "Point", "coordinates": [ 0.242572, 46.142034 ] } },
{ "type": "Feature", "properties": { "gml_id": "ETABLISSEMENTS_POLLUEURS.599236", "identifiant": "0003107122", "idetab": "599236", "nom": "GRAND POITIERS COMMUNAUTE URBAINE", "codeape": "3811Z", "cp": "86000" }, "geometry": { "type": "Point", "coordinates": [ 0.12841, 46.42694 ] } },
{ "type": "Feature", "properties": { "gml_id": "ETABLISSEMENTS_POLLUEURS.11066", "identifiant": "0007203100", "idetab": "11066", "nom": "CENTRE DE DEPOLLUTION ET DE DECONSTRUCTION AUTOMOBILES SA", "codeape": "4677Z", "cp": "86700" }, "geometry": { "type": "Point", "coordinates": [ 0.17769, 46.2834 ] } },
{ "type": "Feature", "properties": { "gml_id": "ETABLISSEMENTS_POLLUEURS.597512", "identifiant": "0007203703", "idetab": "597512", "nom": "EUROFINS CEREP", "codeape": "7219Z", "cp": "86600" }, "geometry": { "type": "Point", "coordinates": [ 0.18299, 46.418 ] } },
{ "type": "Feature", "properties": { "gml_id": "ETABLISSEMENTS_POLLUEURS.599198", "identifiant": "0003103749", "idetab": "599198", "nom": "PJF BIOENERGIE", "codeape": "3521Z", "cp": "86190" }, "geometry": { "type": "Point", "coordinates": [ 0.20695, 46.66026 ] } },
{ "type": "Feature", "properties": { "gml_id": "ETABLISSEMENTS_POLLUEURS.10234", "identifiant": "0007202738", "idetab": "10234", "nom": "AFM RECYCLAGE", "codeape": "3832Z", "cp": "86600" }, "geometry": { "type": "Point", "coordinates": [ 0.20769, 46.49679 ] } },
{ "type": "Feature", "properties": { "gml_id": "ETABLISSEMENTS_POLLUEURS.589186", "identifiant": "0007200968", "idetab": "589186", "nom": "SPIE BATIGNOLLES TP POITOU-CHARENTES", "codeape": "0811Z", "cp": "86700" }, "geometry": { "type": "Point", "coordinates": [ 0.21839, 46.36335 ] } },
{ "type": "Feature", "properties": { "gml_id": "ETABLISSEMENTS_POLLUEURS.7071", "identifiant": "0007205703", "idetab": "7071", "nom": "VALTERRA MATIERES ORGANIQUES", "codeape": "3821Z", "cp": "86370" }, "geometry": { "type": "Point", "coordinates": [ 0.22536, 46.46464 ] } },
{ "type": "Feature", "properties": { "gml_id": "ETABLISSEMENTS_POLLUEURS.12463", "identifiant": "0007208606", "idetab": "12463", "nom": "TERRENA", "codeape": "4623Z", "cp": "86700" }, "geometry": { "type": "Point", "coordinates": [ 0.24641, 46.30783 ] } },
{ "type": "Feature", "properties": { "gml_id": "ETABLISSEMENTS_POLLUEURS.12153", "identifiant": "0007202648", "idetab": "12153", "nom": "AUBIN IMPRIMEUR", "codeape": "1812Z", "cp": "86240" }, "geometry": { "type": "Point", "coordinates": [ 0.30678, 46.52413 ] } },
{ "type": "Feature", "properties": { "gml_id": "ETABLISSEMENTS_POLLUEURS.11048", "identifiant": "0007201730", "idetab": "11048", "nom": "AFM RECYCLAGE", "codeape": "3811Z", "cp": "86240" }, "geometry": { "type": "Point", "coordinates": [ 0.30763, 46.48878 ] } },
{ "type": "Feature", "properties": { "gml_id": "ETABLISSEMENTS_POLLUEURS.5346", "identifiant": "0007201479", "idetab": "5346", "nom": "RICHARD-LALEU", "codeape": "1721C", "cp": "86240" }, "geometry": { "type": "Point", "coordinates": [ 0.31001, 46.48881 ] } },
{ "type": "Feature", "properties": { "gml_id": "ETABLISSEMENTS_POLLUEURS.3216", "identifiant": "0007201366", "idetab": "3216", "nom": "PAPETERIE D'ITEUIL", "codeape": "211C", "cp": "86140" }, "geometry": { "type": "Point", "coordinates": [ 0.312208, 46.485939 ] } },
{ "type": "Feature", "properties": { "gml_id": "ETABLISSEMENTS_POLLUEURS.5348", "identifiant": "0007201506", "idetab": "5348", "nom": "DASSAULT AVIATION", "codeape": "3030Z", "cp": "86580" }, "geometry": { "type": "Point", "coordinates": [ 0.312314, 46.57215 ] } },
{ "type": "Feature", "properties": { "gml_id": "ETABLISSEMENTS_POLLUEURS.3207", "identifiant": "0007201120", "idetab": "3207", "nom": "SAFT", "codeape": "2720Z", "cp": "86000" }, "geometry": { "type": "Point", "coordinates": [ 0.31441, 46.56024 ] } },
{ "type": "Feature", "properties": { "gml_id": "ETABLISSEMENTS_POLLUEURS.597404", "identifiant": "0009000373", "idetab": "597404", "nom": "RICM", "codeape": "8422Z", "cp": "86000" }, "geometry": { "type": "Point", "coordinates": [ 0.32593, 46.58509 ] } },
{ "type": "Feature", "properties": { "gml_id": "ETABLISSEMENTS_POLLUEURS.7054", "identifiant": "0007201789", "idetab": "7054", "nom": "QUADRIPACK", "codeape": "8292Z", "cp": "86280" }, "geometry": { "type": "Point", "coordinates": [ 0.33196, 46.54046 ] } },
{ "type": "Feature", "properties": { "gml_id": "ETABLISSEMENTS_POLLUEURS.3227", "identifiant": "0007202157", "idetab": "3227", "nom": "SUEZ RV SUD OUEST", "codeape": "3811Z", "cp": "86160" }, "geometry": { "type": "Point", "coordinates": [ 0.33201, 46.28278 ] } },
{ "type": "Feature", "properties": { "gml_id": "ETABLISSEMENTS_POLLUEURS.7184", "identifiant": "0009000112", "idetab": "7184", "nom": "14E BSMAT DETACHEMENT DE POITIERS", "codeape": "8422Z", "cp": "86023" }, "geometry": { "type": "Point", "coordinates": [ 0.33231, 46.5699 ] } },
{ "type": "Feature", "properties": { "gml_id": "ETABLISSEMENTS_POLLUEURS.3217", "identifiant": "0007201374", "idetab": "3217", "nom": "MFP MICHELIN - SITE DE POITIERS", "codeape": "251A", "cp": "86034" }, "geometry": { "type": "Point", "coordinates": [ 0.333333, 46.5833 ] } },
{ "type": "Feature", "properties": { "gml_id": "ETABLISSEMENTS_POLLUEURS.588165", "identifiant": "0007208084", "idetab": "588165", "nom": "COLAS FRANCE", "codeape": "4211Z", "cp": "86240" }, "geometry": { "type": "Point", "coordinates": [ 0.33573, 46.49468 ] } },
{ "type": "Feature", "properties": { "gml_id": "ETABLISSEMENTS_POLLUEURS.589198", "identifiant": "0007211486", "idetab": "589198", "nom": "ENTREPRISE MALET - GRANDS CHANTIERS - PE 15", "codeape": "4211Z", "cp": "86000" }, "geometry": { "type": "Point", "coordinates": [ 0.349672, 46.579756 ] } },
{ "type": "Feature", "properties": { "gml_id": "ETABLISSEMENTS_POLLUEURS.588175", "identifiant": "0007211740", "idetab": "588175", "nom": "SARL CLAIMO", "codeape": "4110A", "cp": "86280" }, "geometry": { "type": "Point", "coordinates": [ 0.351479, 46.548955 ] } },
{ "type": "Feature", "properties": { "gml_id": "ETABLISSEMENTS_POLLUEURS.7065", "identifiant": "0007202948", "idetab": "7065", "nom": "SAGEM DEFENSE SECURITE", "codeape": "2651A", "cp": "86281" }, "geometry": { "type": "Point", "coordinates": [ 0.351479, 46.548955 ] } },
{ "type": "Feature", "properties": { "gml_id": "ETABLISSEMENTS_POLLUEURS.5387", "identifiant": "0007204930", "idetab": "5387", "nom": "DALKIA", "codeape": "3530Z", "cp": "86000" }, "geometry": { "type": "Point", "coordinates": [ 0.35785, 46.59274 ] } },
{ "type": "Feature", "properties": { "gml_id": "ETABLISSEMENTS_POLLUEURS.592541", "identifiant": "0009078601", "idetab": "592541", "nom": "GRAND POITIERS", "codeape": "3700Z", "cp": "86000" }, "geometry": { "type": "Point", "coordinates": [ 0.36114, 46.57456 ] } },
{ "type": "Feature", "properties": { "gml_id": "ETABLISSEMENTS_POLLUEURS.8698", "identifiant": "0007203119", "idetab": "8698", "nom": "ECOSYS", "codeape": "3821Z", "cp": "86340" }, "geometry": { "type": "Point", "coordinates": [ 0.366639, 46.458096 ] } },
{ "type": "Feature", "properties": { "gml_id": "ETABLISSEMENTS_POLLUEURS.599246", "identifiant": "0003105363", "idetab": "599246", "nom": "CC DES VALLEES DU CLAIN", "codeape": "8411Z", "cp": "86340" }, "geometry": { "type": "Point", "coordinates": [ 0.3687, 46.49521 ] } },
{ "type": "Feature", "properties": { "gml_id": "ETABLISSEMENTS_POLLUEURS.5375", "identifiant": "0007203207", "idetab": "5375", "nom": "CENTRE HOSPITALIER UNIVERSITAIRE DE POITIERS", "codeape": "8610Z", "cp": "86000" }, "geometry": { "type": "Point", "coordinates": [ 0.38479, 46.56145 ] } },
{ "type": "Feature", "properties": { "gml_id": "ETABLISSEMENTS_POLLUEURS.5331", "identifiant": "0007201205", "idetab": "5331", "nom": "GRAND POITIERS COMMUNAUTE URBAINE", "codeape": "3811Z", "cp": "86000" }, "geometry": { "type": "Point", "coordinates": [ 0.38953, 46.59406 ] } },
{ "type": "Feature", "properties": { "gml_id": "ETABLISSEMENTS_POLLUEURS.590608", "identifiant": "0007202619", "idetab": "590608", "nom": "SUEZ RV SUD OUEST", "codeape": "3811Z", "cp": "86000" }, "geometry": { "type": "Point", "coordinates": [ 0.39016, 46.59003 ] } },
{ "type": "Feature", "properties": { "gml_id": "ETABLISSEMENTS_POLLUEURS.5347", "identifiant": "0007201482", "idetab": "5347", "nom": "SOVAL NORD", "codeape": "3821Z", "cp": "86340" }, "geometry": { "type": "Point", "coordinates": [ 0.41792, 46.45611 ] } },
{ "type": "Feature", "properties": { "gml_id": "ETABLISSEMENTS_POLLUEURS.594785", "identifiant": "0007201028", "idetab": "594785", "nom": "HEIDELBERG MATERIALS FRANCE GRANULATS", "codeape": "0812Z", "cp": "86160" }, "geometry": { "type": "Point", "coordinates": [ 0.46524, 46.38266 ] } },
{ "type": "Feature", "properties": { "gml_id": "ETABLISSEMENTS_POLLUEURS.591188", "identifiant": "0057900585", "idetab": "591188", "nom": "SCEA L'AUBERGERE", "codeape": "0146Z", "cp": "79120" }, "geometry": { "type": "Point", "coordinates": [ 0.106251, 46.314741 ] } },
{ "type": "Feature", "properties": { "gml_id": "ETABLISSEMENTS_POLLUEURS.591234", "identifiant": "0058600184", "idetab": "591234", "nom": "SCEA VALLVONNE / M. CHAUVINEAU", "codeape": "0150Z", "cp": "86600" }, "geometry": { "type": "Point", "coordinates": [ 0.168649, 46.432697 ] } },
{ "type": "Feature", "properties": { "gml_id": "ETABLISSEMENTS_POLLUEURS.11449", "identifiant": "0058600494", "idetab": "11449", "nom": "SCEA BAIE DES CHAMPS", "codeape": "3821Z", "cp": "86800" }, "geometry": { "type": "Point", "coordinates": [ 0.46601, 46.5708 ] } },
{ "type": "Feature", "properties": { "gml_id": "ETABLISSEMENTS_POLLUEURS.5952", "identifiant": "79230418", "idetab": "5952", "nom": "SCEA L'AUBERGERE", "codeape": "0150Z", "cp": "79120" }, "geometry": { "type": "Point", "coordinates": [ 0.120505, 46.300677 ] } },
{ "type": "Feature", "properties": { "gml_id": "ETABLISSEMENTS_POLLUEURS.11451", "identifiant": "86052002", "idetab": "11451", "nom": "SARL VALOR LISE", "codeape": "3821Z", "cp": "86160" }, "geometry": { "type": "Point", "coordinates": [ 0.323256, 46.328637 ] } },
{ "type": "Feature", "properties": { "gml_id": "ETABLISSEMENTS_POLLUEURS.8466", "identifiant": "86080358", "idetab": "8466", "nom": "GAEC DU GABOURET", "codeape": "0150Z", "cp": "86600" }, "geometry": { "type": "Point", "coordinates": [ 0.162467, 46.450873 ] } },
{ "type": "Feature", "properties": { "gml_id": "ETABLISSEMENTS_POLLUEURS.8148", "identifiant": "0007202771", "idetab": "8148", "nom": "SOCIETE CONFOLENTAISE DE METALLURGIE", "codeape": "2453Z", "cp": "16500" }, "geometry": { "type": "Point", "coordinates": [ 0.65849, 46.01886 ] } },
{ "type": "Feature", "properties": { "gml_id": "ETABLISSEMENTS_POLLUEURS.593236", "identifiant": "0007200124", "idetab": "593236", "nom": "CARRIERES DU CONFOLENTAIS", "codeape": "0811Z", "cp": "16500" }, "geometry": { "type": "Point", "coordinates": [ 0.68799, 46.05925 ] } },
{ "type": "Feature", "properties": { "gml_id": "ETABLISSEMENTS_POLLUEURS.590610", "identifiant": "0007202978", "idetab": "590610", "nom": "TUILERIE DE CHARDAT", "codeape": "2332Z", "cp": "16500" }, "geometry": { "type": "Point", "coordinates": [ 0.743328, 46.123757 ] } },
{ "type": "Feature", "properties": { "gml_id": "ETABLISSEMENTS_POLLUEURS.7052", "identifiant": "0007201636", "idetab": "7052", "nom": "ETABLISSEMENTS DECONS", "codeape": "3831Z", "cp": "86150" }, "geometry": { "type": "Point", "coordinates": [ 0.6248, 46.18754 ] } },
{ "type": "Feature", "properties": { "gml_id": "ETABLISSEMENTS_POLLUEURS.8119", "identifiant": "0007201195", "idetab": "8119", "nom": "SODEM", "codeape": "1011Z", "cp": "86150" }, "geometry": { "type": "Point", "coordinates": [ 0.647484, 46.224142 ] } },
{ "type": "Feature", "properties": { "gml_id": "ETABLISSEMENTS_POLLUEURS.13718", "identifiant": "0007200962", "idetab": "13718", "nom": "CARRIERES IRIBARREN", "codeape": "0812Z", "cp": "86430" }, "geometry": { "type": "Point", "coordinates": [ 0.75125, 46.23025 ] } },
{ "type": "Feature", "properties": { "gml_id": "ETABLISSEMENTS_POLLUEURS.3229", "identifiant": "0007202617", "idetab": "3229", "nom": "SECHE ECO INDUSTRIES", "codeape": "3821Z", "cp": "86150" }, "geometry": { "type": "Point", "coordinates": [ 0.60773, 46.23825 ] } },
{ "type": "Feature", "properties": { "gml_id": "ETABLISSEMENTS_POLLUEURS.591624", "identifiant": "0007203025", "idetab": "591624", "nom": "ADIAL", "codeape": "2442Z", "cp": "86430" }, "geometry": { "type": "Point", "coordinates": [ 0.80619, 46.26431 ] } },
{ "type": "Feature", "properties": { "gml_id": "ETABLISSEMENTS_POLLUEURS.1232", "identifiant": "0006000354", "idetab": "1232", "nom": "FRECHIN", "codeape": "2561Z", "cp": "87320" }, "geometry": { "type": "Point", "coordinates": [ 0.94109, 46.26881 ] } },
{ "type": "Feature", "properties": { "gml_id": "ETABLISSEMENTS_POLLUEURS.592218", "identifiant": "0058600546", "idetab": "592218", "nom": "SAS BICHON G.L", "codeape": "1011Z", "cp": "86150" }, "geometry": { "type": "Point", "coordinates": [ 0.635395, 46.189892 ] } },
{ "type": "Feature", "properties": { "gml_id": "ETABLISSEMENTS_POLLUEURS.595390", "identifiant": "0058601002", "idetab": "595390", "nom": "EARL FAISANDERIE DU BOIS PRIEUR", "codeape": "0149Z", "cp": "86150" }, "geometry": { "type": "Point", "coordinates": [ 0.64481, 46.21675 ] } },
{ "type": "Feature", "properties": { "gml_id": "ETABLISSEMENTS_POLLUEURS.591232", "identifiant": "0058600072", "idetab": "591232", "nom": "SCEA DU RIVAULT", "codeape": "0146Z", "cp": "86410" }, "geometry": { "type": "Point", "coordinates": [ 0.59459, 46.33713 ] } },
{ "type": "Feature", "properties": { "gml_id": "ETABLISSEMENTS_POLLUEURS.594135", "identifiant": "0007200972", "idetab": "594135", "nom": "CARRIERES IRIBARREN", "codeape": "0811Z", "cp": "86320" }, "geometry": { "type": "Point", "coordinates": [ 0.73914, 46.38169 ] } },
{ "type": "Feature", "properties": { "gml_id": "ETABLISSEMENTS_POLLUEURS.590613", "identifiant": "0007206660", "idetab": "590613", "nom": "SAS SABLIERES DE GOUEX", "codeape": "7010Z", "cp": "86320" }, "geometry": { "type": "Point", "coordinates": [ 0.68755, 46.38486 ] } },
{ "type": "Feature", "properties": { "gml_id": "ETABLISSEMENTS_POLLUEURS.599289", "identifiant": "0007204245", "idetab": "599289", "nom": "EASYDIS", "codeape": "5210B", "cp": "86500" }, "geometry": { "type": "Point", "coordinates": [ 0.88864, 46.40171 ] } },
{ "type": "Feature", "properties": { "gml_id": "ETABLISSEMENTS_POLLUEURS.592092", "identifiant": "0007202562", "idetab": "592092", "nom": "SIMER", "codeape": "3811Z", "cp": "86320" }, "geometry": { "type": "Point", "coordinates": [ 0.683395, 46.404646 ] } },
{ "type": "Feature", "properties": { "gml_id": "ETABLISSEMENTS_POLLUEURS.8599", "identifiant": "0007204044", "idetab": "8599", "nom": "SYNDICAT INTERDEPARTEMENTAL MIXTE POUR L EQUIPEMENT RURAL", "codeape": "8411Z", "cp": "86320" }, "geometry": { "type": "Point", "coordinates": [ 0.78571, 46.41564 ] } },
{ "type": "Feature", "properties": { "gml_id": "ETABLISSEMENTS_POLLUEURS.8164", "identifiant": "0007206467", "idetab": "8164", "nom": "SAS ABATTOIR DE MONTMORILLON", "codeape": "1011Z", "cp": "86500" }, "geometry": { "type": "Point", "coordinates": [ 0.870136, 46.426113 ] } },
{ "type": "Feature", "properties": { "gml_id": "ETABLISSEMENTS_POLLUEURS.589187", "identifiant": "0007201047", "idetab": "589187", "nom": "GROUPE MEAC S.A.S.", "codeape": "2399Z", "cp": "86320" }, "geometry": { "type": "Point", "coordinates": [ 0.76219, 46.4294 ] } },
{ "type": "Feature", "properties": { "gml_id": "ETABLISSEMENTS_POLLUEURS.589889", "identifiant": "0007201712", "idetab": "589889", "nom": "PICOTY CENTRE", "codeape": "4671Z", "cp": "86500" }, "geometry": { "type": "Point", "coordinates": [ 0.89997, 46.43164 ] } },
{ "type": "Feature", "properties": { "gml_id": "ETABLISSEMENTS_POLLUEURS.13285", "identifiant": "0007203121", "idetab": "13285", "nom": "DODY PLAST", "codeape": "2222Z", "cp": "86500" }, "geometry": { "type": "Point", "coordinates": [ 0.89048, 46.43182 ] } },
{ "type": "Feature", "properties": { "gml_id": "ETABLISSEMENTS_POLLUEURS.592422", "identifiant": "0009069902", "idetab": "592422", "nom": "ELECTRICITE DE FRANCE", "codeape": "3511Z", "cp": "86320" }, "geometry": { "type": "Point", "coordinates": [ 0.65248, 46.45434 ] } },
{ "type": "Feature", "properties": { "gml_id": "ETABLISSEMENTS_POLLUEURS.589890", "identifiant": "0007201717", "idetab": "589890", "nom": "CARRIERES ET MATERIAUX DU GRAND OUEST", "codeape": "0812Z", "cp": "86320" }, "geometry": { "type": "Point", "coordinates": [ 0.65451, 46.46379 ] } },
{ "type": "Feature", "properties": { "gml_id": "ETABLISSEMENTS_POLLUEURS.590617", "identifiant": "0007209712", "idetab": "590617", "nom": "SECHE HEALTHCARE", "codeape": "3811Z", "cp": "86340" }, "geometry": { "type": "Point", "coordinates": [ 0.50175, 46.49142 ] } },
{ "type": "Feature", "properties": { "gml_id": "ETABLISSEMENTS_POLLUEURS.598747", "identifiant": "0003107163", "idetab": "598747", "nom": "COLAS FRANCE", "codeape": "4211Z", "cp": "86300" }, "geometry": { "type": "Point", "coordinates": [ 0.63693, 46.5008 ] } },
{ "type": "Feature", "properties": { "gml_id": "ETABLISSEMENTS_POLLUEURS.8152", "identifiant": "0007203264", "idetab": "8152", "nom": "PAPREC D3E (EX VALDELEC)", "codeape": "3831Z", "cp": "86300" }, "geometry": { "type": "Point", "coordinates": [ 0.630022, 46.560525 ] } },
{ "type": "Feature", "properties": { "gml_id": "ETABLISSEMENTS_POLLUEURS.595028", "identifiant": "0010007057", "idetab": "595028", "nom": "ORBELLO GRANULATS TOURAINE", "codeape": "0812Z", "cp": "37290" }, "geometry": { "type": "Point", "coordinates": [ 0.9166, 46.76683 ] } },
{ "type": "Feature", "properties": { "gml_id": "ETABLISSEMENTS_POLLUEURS.597583", "identifiant": "0003102025", "idetab": "597583", "nom": "IRIS", "codeape": "2030Z", "cp": "86100" }, "geometry": { "type": "Point", "coordinates": [ 0.5344, 46.8295 ] } },
{ "type": "Feature", "properties": { "gml_id": "ETABLISSEMENTS_POLLUEURS.598935", "identifiant": "0003106320", "idetab": "598935", "nom": "SJS.TP", "codeape": "4312A", "cp": "86100" }, "geometry": { "type": "Point", "coordinates": [ 0.55368, 46.84435 ] } },
{ "type": "Feature", "properties": { "gml_id": "ETABLISSEMENTS_POLLUEURS.599241", "identifiant": "0003104848", "idetab": "599241", "nom": "CA GRAND CHATELLERAULT", "codeape": "8411Z", "cp": "86100" }, "geometry": { "type": "Point", "coordinates": [ 0.61003, 46.92768 ] } },
{ "type": "Feature", "properties": { "gml_id": "ETABLISSEMENTS_POLLUEURS.591233", "identifiant": "0058600167", "idetab": "591233", "nom": "LES ELEVAGES DU MAS LONG", "codeape": "0146Z", "cp": "86300" }, "geometry": { "type": "Point", "coordinates": [ 0.72071, 46.50567 ] } },
{ "type": "Feature", "properties": { "gml_id": "ETABLISSEMENTS_POLLUEURS.591236", "identifiant": "0058600345", "idetab": "591236", "nom": "DE LA JOUBERTIERE", "codeape": "0150Z", "cp": "86300" }, "geometry": { "type": "Point", "coordinates": [ 0.77329, 46.58374 ] } },
{ "type": "Feature", "properties": { "gml_id": "ETABLISSEMENTS_POLLUEURS.591240", "identifiant": "0058600522", "idetab": "591240", "nom": "AXIOM", "codeape": "0146Z", "cp": "86350" }, "geometry": { "type": "Point", "coordinates": [ 0.54924, 46.3029 ] } },
{ "type": "Feature", "properties": { "gml_id": "ETABLISSEMENTS_POLLUEURS.595165", "identifiant": "0058600818", "idetab": "595165", "nom": "ABATTOIR DE MONTMORILLON SAS", "codeape": "1011Z", "cp": "86500" }, "geometry": { "type": "Point", "coordinates": [ 0.893204, 46.402272 ] } },
{ "type": "Feature", "properties": { "gml_id": "ETABLISSEMENTS_POLLUEURS.591257", "identifiant": "0069901002", "idetab": "591257", "nom": "EDF - CNPE DE CIVAUX", "codeape": "3511Z", "cp": "86320" }, "geometry": { "type": "Point", "coordinates": [ 0.664156, 46.445692 ] } },
{ "type": "Feature", "properties": { "gml_id": "ETABLISSEMENTS_POLLUEURS.10472", "identifiant": "86034754", "idetab": "10472", "nom": "SCEA LE RIVAULT", "codeape": "0146Z", "cp": "86410" }, "geometry": { "type": "Point", "coordinates": [ 0.613626, 46.368603 ] } },
{ "type": "Feature", "properties": { "gml_id": "ETABLISSEMENTS_POLLUEURS.589452", "identifiant": "86070907", "idetab": "589452", "nom": "SAS LES ELEVAGES DU MAS LONG", "codeape": "0146Z", "cp": "86300" }, "geometry": { "type": "Point", "coordinates": [ 0.641948, 46.578719 ] } },
{ "type": "Feature", "properties": { "gml_id": "ETABLISSEMENTS_POLLUEURS.8467", "identifiant": "86187693", "idetab": "8467", "nom": "EARL DE LA JOUBERTIÈRE", "codeape": "0146Z", "cp": "86300" }, "geometry": { "type": "Point", "coordinates": [ 0.781907, 46.585138 ] } },
{ "type": "Feature", "properties": { "gml_id": "ETABLISSEMENTS_POLLUEURS.5971", "identifiant": "86276745", "idetab": "5971", "nom": "AXIOM", "codeape": "0146Z", "cp": "86350" }, "geometry": { "type": "Point", "coordinates": [ 0.532606, 46.286386 ] } },
{ "type": "Feature", "properties": { "gml_id": "ETABLISSEMENTS_POLLUEURS.597327", "identifiant": "0003106283", "idetab": "597327", "nom": "BIOENERGIES 123", "codeape": "3511Z", "cp": "87300" }, "geometry": { "type": "Point", "coordinates": [ 0.98557, 46.12768 ] } },
{ "type": "Feature", "properties": { "gml_id": "ETABLISSEMENTS_POLLUEURS.589439", "identifiant": "0058600181", "idetab": "589439", "nom": "SCEA DE GENESTON", "codeape": "0111Z", "cp": "86200" }, "geometry": { "type": "Point", "coordinates": [ 0.218114, 46.981351 ] } },
{ "type": "Feature", "properties": { "gml_id": "ETABLISSEMENTS_POLLUEURS.596548", "identifiant": "0007206814", "idetab": "596548", "nom": "ETABLISSEMENTS J. MENUT", "codeape": "3831Z", "cp": "86440" }, "geometry": { "type": "Point", "coordinates": [ 0.3112, 46.61355 ] } },
{ "type": "Feature", "properties": { "gml_id": "ETABLISSEMENTS_POLLUEURS.7066", "identifiant": "0007203027", "idetab": "7066", "nom": "GRAND POITIERS", "codeape": "8411Z", "cp": "86440" }, "geometry": { "type": "Point", "coordinates": [ 0.30977, 46.61585 ] } },
{ "type": "Feature", "properties": { "gml_id": "ETABLISSEMENTS_POLLUEURS.11070", "identifiant": "0007203389", "idetab": "11070", "nom": "MOREAU.C.", "codeape": "4677Z", "cp": "86440" }, "geometry": { "type": "Point", "coordinates": [ 0.31834, 46.61936 ] } },
{ "type": "Feature", "properties": { "gml_id": "ETABLISSEMENTS_POLLUEURS.11065", "identifiant": "0007203090", "idetab": "11065", "nom": "BONNIN SAS", "codeape": "4677Z", "cp": "86440" }, "geometry": { "type": "Point", "coordinates": [ 0.30985, 46.62184 ] } },
{ "type": "Feature", "properties": { "gml_id": "ETABLISSEMENTS_POLLUEURS.8130", "identifiant": "0007201405", "idetab": "8130", "nom": "AUTOLIV-ISODELTA", "codeape": "2932Z", "cp": "86190" }, "geometry": { "type": "Point", "coordinates": [ 0.14389, 46.63562 ] } },
{ "type": "Feature", "properties": { "gml_id": "ETABLISSEMENTS_POLLUEURS.8593", "identifiant": "0007201509", "idetab": "8593", "nom": "PLATE-FORME DE COMPOSTAGE DES DÉCHETS VERTS", "codeape": "8411Z", "cp": "86170" }, "geometry": { "type": "Point", "coordinates": [ 0.231703, 46.645344 ] } },
{ "type": "Feature", "properties": { "gml_id": "ETABLISSEMENTS_POLLUEURS.596593", "identifiant": "0007201783", "idetab": "596593", "nom": "CERIENCE", "codeape": "4621Z", "cp": "86170" }, "geometry": { "type": "Point", "coordinates": [ 0.28333, 46.65395 ] } },
{ "type": "Feature", "properties": { "gml_id": "ETABLISSEMENTS_POLLUEURS.588156", "identifiant": "0007206903", "idetab": "588156", "nom": "COMMUNAUTE DE COMMUNES DU HAUT-POITOU", "codeape": "8411Z", "cp": "86170" }, "geometry": { "type": "Point", "coordinates": [ 0.20881, 46.66161 ] } },
{ "type": "Feature", "properties": { "gml_id": "ETABLISSEMENTS_POLLUEURS.9251", "identifiant": "0007203745", "idetab": "9251", "nom": "SARP SUD-OUEST", "codeape": "3700Z", "cp": "86170" }, "geometry": { "type": "Point", "coordinates": [ 0.21284, 46.68028 ] } },
{ "type": "Feature", "properties": { "gml_id": "ETABLISSEMENTS_POLLUEURS.8153", "identifiant": "0007203380", "idetab": "8153", "nom": "SAMO", "codeape": "1089Z", "cp": "86110" }, "geometry": { "type": "Point", "coordinates": [ 0.185032, 46.784442 ] } },
{ "type": "Feature", "properties": { "gml_id": "ETABLISSEMENTS_POLLUEURS.5376", "identifiant": "0007203390", "idetab": "5376", "nom": "MAIRIE DE MIREBEAU - STATION D'EPURATION", "codeape": "3900Z", "cp": "86110" }, "geometry": { "type": "Point", "coordinates": [ 0.185032, 46.784442 ] } },
{ "type": "Feature", "properties": { "gml_id": "ETABLISSEMENTS_POLLUEURS.3206", "identifiant": "0007201117", "idetab": "3206", "nom": "MARIE SURGELES", "codeape": "1085Z", "cp": "86110" }, "geometry": { "type": "Point", "coordinates": [ 0.185032, 46.784442 ] } },
{ "type": "Feature", "properties": { "gml_id": "ETABLISSEMENTS_POLLUEURS.11076", "identifiant": "0007204856", "idetab": "11076", "nom": "SATECO", "codeape": "2892Z", "cp": "86110" }, "geometry": { "type": "Point", "coordinates": [ 0.17683, 46.78589 ] } },
{ "type": "Feature", "properties": { "gml_id": "ETABLISSEMENTS_POLLUEURS.599230", "identifiant": "0007204739", "idetab": "599230", "nom": "CA GRAND CHATELLERAULT", "codeape": "8411Z", "cp": "86100" }, "geometry": { "type": "Point", "coordinates": [ 0.30578, 46.81709 ] } },
{ "type": "Feature", "properties": { "gml_id": "ETABLISSEMENTS_POLLUEURS.588176", "identifiant": "0007211741", "idetab": "588176", "nom": "CC DU MIREBALAIS", "codeape": "3811Z", "cp": "86110" }, "geometry": { "type": "Point", "coordinates": [ 0.16778, 46.786 ] } },
{ "type": "Feature", "properties": { "gml_id": "ETABLISSEMENTS_POLLUEURS.591231", "identifiant": "0058600003", "idetab": "591231", "nom": "SCEA SOUS LE MOULIN", "codeape": "0147Z", "cp": "86110" }, "geometry": { "type": "Point", "coordinates": [ 0.16221, 46.76611 ] } },
{ "type": "Feature", "properties": { "gml_id": "ETABLISSEMENTS_POLLUEURS.592801", "identifiant": "0058600114", "idetab": "592801", "nom": "EARL DES ROSIERS", "codeape": "0111Z", "cp": "86170" }, "geometry": { "type": "Point", "coordinates": [ 0.17622, 46.74904 ] } },
{ "type": "Feature", "properties": { "gml_id": "ETABLISSEMENTS_POLLUEURS.11450", "identifiant": "0058600597", "idetab": "11450", "nom": "SARL ENERGIE VERTE 86", "codeape": "3821Z", "cp": "86330" }, "geometry": { "type": "Point", "coordinates": [ 0.091648, 46.840914 ] } },
{ "type": "Feature", "properties": { "gml_id": "ETABLISSEMENTS_POLLUEURS.592019", "identifiant": "0058600811", "idetab": "592019", "nom": "MIREBEAU OVOPRODUITS S.A.M.O.", "codeape": "1089Z", "cp": "86110" }, "geometry": { "type": "Point", "coordinates": [ 0.17013, 46.78776 ] } },
{ "type": "Feature", "properties": { "gml_id": "ETABLISSEMENTS_POLLUEURS.592192", "identifiant": "0058601079", "idetab": "592192", "nom": "MARIE SURGELES", "codeape": "1085Z", "cp": "86110" }, "geometry": { "type": "Point", "coordinates": [ 0.17346, 46.78663 ] } },
{ "type": "Feature", "properties": { "gml_id": "ETABLISSEMENTS_POLLUEURS.589451", "identifiant": "86002567", "idetab": "589451", "nom": "EARL SOUS LE MOULIN", "codeape": "0147Z", "cp": "86110" }, "geometry": { "type": "Point", "coordinates": [ 0.170744, 46.77506 ] } },
{ "type": "Feature", "properties": { "gml_id": "ETABLISSEMENTS_POLLUEURS.591237", "identifiant": "0058600371", "idetab": "591237", "nom": "SCEA ELIPORC", "codeape": "0146Z", "cp": "86200" }, "geometry": { "type": "Point", "coordinates": [ 0.29401, 46.99548 ] } },
{ "type": "Feature", "properties": { "gml_id": "ETABLISSEMENTS_POLLUEURS.7047", "identifiant": "0007201495", "idetab": "7047", "nom": "FDG GROUP", "codeape": "4778C", "cp": "86360" }, "geometry": { "type": "Point", "coordinates": [ 0.372, 46.66339 ] } },
{ "type": "Feature", "properties": { "gml_id": "ETABLISSEMENTS_POLLUEURS.5332", "identifiant": "0007201267", "idetab": "5332", "nom": "BONILAIT PROTEINES", "codeape": "1051D", "cp": "86361" }, "geometry": { "type": "Point", "coordinates": [ 0.374154, 46.651889 ] } },
{ "type": "Feature", "properties": { "gml_id": "ETABLISSEMENTS_POLLUEURS.8117", "identifiant": "0007201101", "idetab": "8117", "nom": "FEDERAL MOGUL CHASSENEUIL", "codeape": "2932Z", "cp": "86361" }, "geometry": { "type": "Point", "coordinates": [ 0.374154, 46.651889 ] } },
{ "type": "Feature", "properties": { "gml_id": "ETABLISSEMENTS_POLLUEURS.5344", "identifiant": "0007201443", "idetab": "5344", "nom": "BOLLORE ENERGY", "codeape": "5210B", "cp": "86360" }, "geometry": { "type": "Point", "coordinates": [ 0.37612, 46.66485 ] } },
{ "type": "Feature", "properties": { "gml_id": "ETABLISSEMENTS_POLLUEURS.7067", "identifiant": "0007203048", "idetab": "7067", "nom": "CPK PRODUCTION FRANCE", "codeape": "1082Z", "cp": "86140" }, "geometry": { "type": "Point", "coordinates": [ 0.37683, 46.81802 ] } },
{ "type": "Feature", "properties": { "gml_id": "ETABLISSEMENTS_POLLUEURS.7048", "identifiant": "0007201504", "idetab": "7048", "nom": "CHIMIREC DELVERT", "codeape": "3812Z", "cp": "86130" }, "geometry": { "type": "Point", "coordinates": [ 0.38084, 46.68876 ] } },
{ "type": "Feature", "properties": { "gml_id": "ETABLISSEMENTS_POLLUEURS.599239", "identifiant": "0007204974", "idetab": "599239", "nom": "CA GRAND CHATELLERAULT", "codeape": "8411Z", "cp": "86100" }, "geometry": { "type": "Point", "coordinates": [ 0.39131, 46.92024 ] } },
{ "type": "Feature", "properties": { "gml_id": "ETABLISSEMENTS_POLLUEURS.5366", "identifiant": "0007202575", "idetab": "5366", "nom": "C.C. VAL VERT DU CLAIN - CET DE ST GEORGES LES BAILLARGEAUX", "codeape": "8411Z", "cp": "86130" }, "geometry": { "type": "Point", "coordinates": [ 0.403761, 46.66709 ] } },
{ "type": "Feature", "properties": { "gml_id": "ETABLISSEMENTS_POLLUEURS.13727", "identifiant": "0007203106", "idetab": "13727", "nom": "TRANSPORTS CHAVENEAU BERNIS", "codeape": "5229A", "cp": "86130" }, "geometry": { "type": "Point", "coordinates": [ 0.40449, 46.70164 ] } },
{ "type": "Feature", "properties": { "gml_id": "ETABLISSEMENTS_POLLUEURS.588157", "identifiant": "0007207047", "idetab": "588157", "nom": "SARP SUD-OUEST", "codeape": "3700Z", "cp": "86540" }, "geometry": { "type": "Point", "coordinates": [ 0.40943, 46.88029 ] } },
{ "type": "Feature", "properties": { "gml_id": "ETABLISSEMENTS_POLLUEURS.11063", "identifiant": "0007203003", "idetab": "11063", "nom": "BOISSEAU PIECES AUTO", "codeape": "4532Z", "cp": "86230" }, "geometry": { "type": "Point", "coordinates": [ 0.41018, 46.89757 ] } },
{ "type": "Feature", "properties": { "gml_id": "ETABLISSEMENTS_POLLUEURS.5359", "identifiant": "0007201731", "idetab": "5359", "nom": "PAPETERIE DU POITOU", "codeape": "1712Z", "cp": "86490" }, "geometry": { "type": "Point", "coordinates": [ 0.43116, 46.72719 ] } },
{ "type": "Feature", "properties": { "gml_id": "ETABLISSEMENTS_POLLUEURS.12448", "identifiant": "0007201687", "idetab": "12448", "nom": "ANDRITZ EUROSLOT SAS", "codeape": "2829B", "cp": "86140" }, "geometry": { "type": "Point", "coordinates": [ 0.43327, 46.81321 ] } },
{ "type": "Feature", "properties": { "gml_id": "ETABLISSEMENTS_POLLUEURS.11064", "identifiant": "0007203045", "idetab": "11064", "nom": "AUTO CASSE", "codeape": "4677Z", "cp": "86540" }, "geometry": { "type": "Point", "coordinates": [ 0.457891, 46.831644 ] } },
{ "type": "Feature", "properties": { "gml_id": "ETABLISSEMENTS_POLLUEURS.599231", "identifiant": "0007203384", "idetab": "599231", "nom": "CA GRAND CHATELLERAULT", "codeape": "8411Z", "cp": "86100" }, "geometry": { "type": "Point", "coordinates": [ 0.48633, 46.7509 ] } },
{ "type": "Feature", "properties": { "gml_id": "ETABLISSEMENTS_POLLUEURS.599057", "identifiant": "0007204073", "idetab": "599057", "nom": "CA GRAND CHATELLERAULT", "codeape": "3811Z", "cp": "86100" }, "geometry": { "type": "Point", "coordinates": [ 0.52808, 46.83108 ] } },
{ "type": "Feature", "properties": { "gml_id": "ETABLISSEMENTS_POLLUEURS.588142", "identifiant": "0007201693", "idetab": "588142", "nom": "COLAS FRANCE", "codeape": "4211Z", "cp": "86100" }, "geometry": { "type": "Point", "coordinates": [ 0.52944, 46.78552 ] } },
{ "type": "Feature", "properties": { "gml_id": "ETABLISSEMENTS_POLLUEURS.8118", "identifiant": "0007201170", "idetab": "8118", "nom": "MILLEMIUM COMPAGNY", "codeape": "1011Z", "cp": "86100" }, "geometry": { "type": "Point", "coordinates": [ 0.52976, 46.831402 ] } },
{ "type": "Feature", "properties": { "gml_id": "ETABLISSEMENTS_POLLUEURS.590616", "identifiant": "0007209644", "idetab": "590616", "nom": "GSM SAS", "codeape": "4312A", "cp": "86130" }, "geometry": { "type": "Point", "coordinates": [ 0.411679, 46.682202 ] } },
{ "type": "Feature", "properties": { "gml_id": "ETABLISSEMENTS_POLLUEURS.588173", "identifiant": "0007211732", "idetab": "588173", "nom": "SARL LES REMBLAIS DE SAINT GEORGES LES BAILLARGEAUX", "codeape": "3821Z", "cp": "86130" }, "geometry": { "type": "Point", "coordinates": [ 0.40555, 46.6677 ] } },
{ "type": "Feature", "properties": { "gml_id": "ETABLISSEMENTS_POLLUEURS.588174", "identifiant": "0007211738", "idetab": "588174", "nom": "HEIDELBERG MATERIALS FRANCE GRANULATS", "codeape": "0812Z", "cp": "86130" }, "geometry": { "type": "Point", "coordinates": [ 0.41233, 46.67964 ] } },
{ "type": "Feature", "properties": { "gml_id": "ETABLISSEMENTS_POLLUEURS.592094", "identifiant": "0058600141", "idetab": "592094", "nom": "BONILAIT PROTEINES", "codeape": "1051D", "cp": "86360" }, "geometry": { "type": "Point", "coordinates": [ 0.36554, 46.62559 ] } },
{ "type": "Feature", "properties": { "gml_id": "ETABLISSEMENTS_POLLUEURS.12067", "identifiant": "0058600210", "idetab": "12067", "nom": "EURIAL SAS", "codeape": "1051A", "cp": "86130" }, "geometry": { "type": "Point", "coordinates": [ 0.427256, 46.696977 ] } },
{ "type": "Feature", "properties": { "gml_id": "ETABLISSEMENTS_POLLUEURS.9554", "identifiant": "0078619405", "idetab": "9554", "nom": "UNITÉS DE TRAITEMENT DES EAUX USÉES", "codeape": "3700Z", "cp": "86000" }, "geometry": { "type": "Point", "coordinates": [ 0.353674, 46.615878 ] } },
{ "type": "Feature", "properties": { "gml_id": "ETABLISSEMENTS_POLLUEURS.598900", "identifiant": "0007204674", "idetab": "598900", "nom": "CA GRAND CHATELLERAULT", "codeape": "3811Z", "cp": "86100" }, "geometry": { "type": "Point", "coordinates": [ 0.53358, 46.79108 ] } },
{ "type": "Feature", "properties": { "gml_id": "ETABLISSEMENTS_POLLUEURS.588163", "identifiant": "0007207948", "idetab": "588163", "nom": "ARI", "codeape": "2599B", "cp": "86100" }, "geometry": { "type": "Point", "coordinates": [ 0.53449, 46.82963 ] } },
{ "type": "Feature", "properties": { "gml_id": "ETABLISSEMENTS_POLLUEURS.597561", "identifiant": "0007208604", "idetab": "597561", "nom": "CA GRAND CHATELLERAULT", "codeape": "8411Z", "cp": "86100" }, "geometry": { "type": "Point", "coordinates": [ 0.5353, 46.78214 ] } },
{ "type": "Feature", "properties": { "gml_id": "ETABLISSEMENTS_POLLUEURS.588164", "identifiant": "0007207949", "idetab": "588164", "nom": "SERI", "codeape": "2511Z", "cp": "86100" }, "geometry": { "type": "Point", "coordinates": [ 0.536031, 46.822238 ] } },
{ "type": "Feature", "properties": { "gml_id": "ETABLISSEMENTS_POLLUEURS.10233", "identifiant": "0007202736", "idetab": "10233", "nom": "AFM RECYCLAGE", "codeape": "3832Z", "cp": "86100" }, "geometry": { "type": "Point", "coordinates": [ 0.53624, 46.82115 ] } },
{ "type": "Feature", "properties": { "gml_id": "ETABLISSEMENTS_POLLUEURS.588147", "identifiant": "0007203085", "idetab": "588147", "nom": "MONSIEUR PASCAL BOHAN", "codeape": "4520A", "cp": "86100" }, "geometry": { "type": "Point", "coordinates": [ 0.53676, 46.79319 ] } },
{ "type": "Feature", "properties": { "gml_id": "ETABLISSEMENTS_POLLUEURS.5342", "identifiant": "0007201438", "idetab": "5342", "nom": "FENWICK-LINDE OPERATIONS", "codeape": "2822Z", "cp": "86530" }, "geometry": { "type": "Point", "coordinates": [ 0.53821, 46.75855 ] } },
{ "type": "Feature", "properties": { "gml_id": "ETABLISSEMENTS_POLLUEURS.7068", "identifiant": "0007203292", "idetab": "7068", "nom": "THALES LA BRELANDIERE", "codeape": "2651A", "cp": "86101" }, "geometry": { "type": "Point", "coordinates": [ 0.53974, 46.81622 ] } },
{ "type": "Feature", "properties": { "gml_id": "ETABLISSEMENTS_POLLUEURS.7061", "identifiant": "0007202297", "idetab": "7061", "nom": "THALES AVIONICS CSC-FRANCE", "codeape": "3313Z", "cp": "86101" }, "geometry": { "type": "Point", "coordinates": [ 0.53974, 46.81622 ] } },
{ "type": "Feature", "properties": { "gml_id": "ETABLISSEMENTS_POLLUEURS.3235", "identifiant": "0007203086", "idetab": "3235", "nom": "FRANCE CHAMPIGNON", "codeape": "153E", "cp": "86100" }, "geometry": { "type": "Point", "coordinates": [ 0.53974, 46.81622 ] } },
{ "type": "Feature", "properties": { "gml_id": "ETABLISSEMENTS_POLLUEURS.10236", "identifiant": "0007203030", "idetab": "10236", "nom": "NEW FABRIS", "codeape": "2932Z", "cp": "86100" }, "geometry": { "type": "Point", "coordinates": [ 0.53974, 46.81622 ] } },
{ "type": "Feature", "properties": { "gml_id": "ETABLISSEMENTS_POLLUEURS.591625", "identifiant": "0007203617", "idetab": "591625", "nom": "NEXTEAM CHATELLERAULT MACHINING", "codeape": "2562B", "cp": "86100" }, "geometry": { "type": "Point", "coordinates": [ 0.53986, 46.83913 ] } },
{ "type": "Feature", "properties": { "gml_id": "ETABLISSEMENTS_POLLUEURS.591630", "identifiant": "0007209006", "idetab": "591630", "nom": "NEXTEAM CHATELLERAULT MACHINING", "codeape": "2562B", "cp": "86100" }, "geometry": { "type": "Point", "coordinates": [ 0.54329, 46.84092 ] } },
{ "type": "Feature", "properties": { "gml_id": "ETABLISSEMENTS_POLLUEURS.8135", "identifiant": "0007201734", "idetab": "8135", "nom": "SPIRAX SARCO", "codeape": "2814Z", "cp": "86100" }, "geometry": { "type": "Point", "coordinates": [ 0.54745, 46.8453 ] } },
{ "type": "Feature", "properties": { "gml_id": "ETABLISSEMENTS_POLLUEURS.5367", "identifiant": "0007202625", "idetab": "5367", "nom": "SAFRAN AIRCRAFT ENGINES", "codeape": "3316Z", "cp": "86100" }, "geometry": { "type": "Point", "coordinates": [ 0.54774, 46.84931 ] } },
{ "type": "Feature", "properties": { "gml_id": "ETABLISSEMENTS_POLLUEURS.591629", "identifiant": "0007208775", "idetab": "591629", "nom": "COLAS FRANCE", "codeape": "4211Z", "cp": "86530" }, "geometry": { "type": "Point", "coordinates": [ 0.54931, 46.7726 ] } },
{ "type": "Feature", "properties": { "gml_id": "ETABLISSEMENTS_POLLUEURS.12446", "identifiant": "0007201378", "idetab": "12446", "nom": "ETABLISSEMENTS E. MARZET ET COMPAGNIE", "codeape": "2561Z", "cp": "86100" }, "geometry": { "type": "Point", "coordinates": [ 0.55264, 46.81531 ] } },
{ "type": "Feature", "properties": { "gml_id": "ETABLISSEMENTS_POLLUEURS.11047", "identifiant": "0007201578", "idetab": "11047", "nom": "AQSEPTENCE GROUP SAS (EX BILFINGER)", "codeape": "2829B", "cp": "86530" }, "geometry": { "type": "Point", "coordinates": [ 0.555797, 46.759052 ] } },
{ "type": "Feature", "properties": { "gml_id": "ETABLISSEMENTS_POLLUEURS.12453", "identifiant": "0007203669", "idetab": "12453", "nom": "SCA", "codeape": "1610A", "cp": "86210" }, "geometry": { "type": "Point", "coordinates": [ 0.569622, 46.682342 ] } },
{ "type": "Feature", "properties": { "gml_id": "ETABLISSEMENTS_POLLUEURS.7046", "identifiant": "0007201494", "idetab": "7046", "nom": "AIGLE INTERNATIONAL", "codeape": "1520Z", "cp": "86220" }, "geometry": { "type": "Point", "coordinates": [ 0.57816, 46.89041 ] } },
{ "type": "Feature", "properties": { "gml_id": "ETABLISSEMENTS_POLLUEURS.3220", "identifiant": "0007201406", "idetab": "3220", "nom": "HUTCHINSON SNC", "codeape": "2229A", "cp": "86220" }, "geometry": { "type": "Point", "coordinates": [ 0.58196, 46.90385 ] } },
{ "type": "Feature", "properties": { "gml_id": "ETABLISSEMENTS_POLLUEURS.5384", "identifiant": "0007204027", "idetab": "5384", "nom": "LIBERTY ALUMINIUM POITOU", "codeape": "2453Z", "cp": "86220" }, "geometry": { "type": "Point", "coordinates": [ 0.582786, 46.906725 ] } },
{ "type": "Feature", "properties": { "gml_id": "ETABLISSEMENTS_POLLUEURS.590603", "identifiant": "0007201055", "idetab": "590603", "nom": "RAGONNEAU SEE", "codeape": "0812Z", "cp": "86220" }, "geometry": { "type": "Point", "coordinates": [ 0.583485, 46.921386 ] } },
{ "type": "Feature", "properties": { "gml_id": "ETABLISSEMENTS_POLLUEURS.13725", "identifiant": "0007203080", "idetab": "13725", "nom": "METAL-FER RECYCLAGE", "codeape": "3832Z", "cp": "86210" }, "geometry": { "type": "Point", "coordinates": [ 0.5885, 46.6904 ] } },
{ "type": "Feature", "properties": { "gml_id": "ETABLISSEMENTS_POLLUEURS.7075", "identifiant": "0007206396", "idetab": "7075", "nom": "VEOLIA AGRICULTURE FRANCE", "codeape": "3700Z", "cp": "86220" }, "geometry": { "type": "Point", "coordinates": [ 0.58965, 46.8567 ] } },
{ "type": "Feature", "properties": { "gml_id": "ETABLISSEMENTS_POLLUEURS.11068", "identifiant": "0007203141", "idetab": "11068", "nom": "LOSTIS RECYCLAGE", "codeape": "3832Z", "cp": "86220" }, "geometry": { "type": "Point", "coordinates": [ 0.5927, 46.8735 ] } },
{ "type": "Feature", "properties": { "gml_id": "ETABLISSEMENTS_POLLUEURS.8166", "identifiant": "0007206633", "idetab": "8166", "nom": "EURIAL", "codeape": "1051C", "cp": "86220" }, "geometry": { "type": "Point", "coordinates": [ 0.605321, 46.93622 ] } },
{ "type": "Feature", "properties": { "gml_id": "ETABLISSEMENTS_POLLUEURS.5371", "identifiant": "0007203105", "idetab": "5371", "nom": "DANISCO", "codeape": "1089Z", "cp": "86220" }, "geometry": { "type": "Point", "coordinates": [ 0.605321, 46.93622 ] } },
{ "type": "Feature", "properties": { "gml_id": "ETABLISSEMENTS_POLLUEURS.594921", "identifiant": "0007205780", "idetab": "594921", "nom": "CARRIERES MORIN", "codeape": "0812Z", "cp": "86220" }, "geometry": { "type": "Point", "coordinates": [ 0.60674, 46.92658 ] } },
{ "type": "Feature", "properties": { "gml_id": "ETABLISSEMENTS_POLLUEURS.5365", "identifiant": "0007202158", "idetab": "5365", "nom": "SUEZ RV CENTRE OUEST", "codeape": "3811Z", "cp": "86100" }, "geometry": { "type": "Point", "coordinates": [ 0.64349, 46.78986 ] } },
{ "type": "Feature", "properties": { "gml_id": "ETABLISSEMENTS_POLLUEURS.8600", "identifiant": "0007204446", "idetab": "8600", "nom": "LIBERTY ALUMINIUM POITOU", "codeape": "2453Z", "cp": "86220" }, "geometry": { "type": "Point", "coordinates": [ 0.651819, 46.840649 ] } },
{ "type": "Feature", "properties": { "gml_id": "ETABLISSEMENTS_POLLUEURS.8592", "identifiant": "0007201159", "idetab": "8592", "nom": "ALVANCE FOUNDRY POITOU", "codeape": "2451Z", "cp": "86220" }, "geometry": { "type": "Point", "coordinates": [ 0.660369, 46.84176 ] } },
{ "type": "Feature", "properties": { "gml_id": "ETABLISSEMENTS_POLLUEURS.11067", "identifiant": "0007203103", "idetab": "11067", "nom": "SARL AUGUSTIN", "codeape": "4677Z", "cp": "86270" }, "geometry": { "type": "Point", "coordinates": [ 0.67855, 46.82612 ] } },
{ "type": "Feature", "properties": { "gml_id": "ETABLISSEMENTS_POLLUEURS.8598", "identifiant": "0007203892", "idetab": "8598", "nom": "SITA CENTRE OUEST -SITE DE COUSSAY LES BOIS", "codeape": "900E", "cp": "86270" }, "geometry": { "type": "Point", "coordinates": [ 0.743158, 46.806582 ] } },
{ "type": "Feature", "properties": { "gml_id": "ETABLISSEMENTS_POLLUEURS.599242", "identifiant": "0007210459", "idetab": "599242", "nom": "CA GRAND CHATELLERAULT", "codeape": "8411Z", "cp": "86100" }, "geometry": { "type": "Point", "coordinates": [ 0.58759, 46.68906 ] } },
{ "type": "Feature", "properties": { "gml_id": "ETABLISSEMENTS_POLLUEURS.591632", "identifiant": "0007211243", "idetab": "591632", "nom": "NEXTEAM CHATELLERAULT MACHINING", "codeape": "2562B", "cp": "86100" }, "geometry": { "type": "Point", "coordinates": [ 0.53171, 46.83874 ] } },
{ "type": "Feature", "properties": { "gml_id": "ETABLISSEMENTS_POLLUEURS.588185", "identifiant": "0007211839", "idetab": "588185", "nom": "PIGEON TP LOIRE ANJOU", "codeape": "4312A", "cp": "86210" }, "geometry": { "type": "Point", "coordinates": [ 0.536075, 46.718282 ] } },
{ "type": "Feature", "properties": { "gml_id": "ETABLISSEMENTS_POLLUEURS.591238", "identifiant": "0058600460", "idetab": "591238", "nom": "SARL GERVAL", "codeape": "0146Z", "cp": "86100" }, "geometry": { "type": "Point", "coordinates": [ 0.63885, 46.78108 ] } },
{ "type": "Feature", "properties": { "gml_id": "ETABLISSEMENTS_POLLUEURS.10387", "identifiant": "37048039", "idetab": "10387", "nom": "GAEC DE LA SALVARDERIE", "codeape": "0111Z", "cp": "37290" }, "geometry": { "type": "Point", "coordinates": [ 0.812306, 46.849866 ] } },
{ "type": "Feature", "properties": { "gml_id": "ETABLISSEMENTS_POLLUEURS.7617", "identifiant": "86007132", "idetab": "7617", "nom": "SCEA CHOISY", "codeape": "", "cp": "86100" }, "geometry": { "type": "Point", "coordinates": [ 0.547457, 46.861664 ] } },
{ "type": "Feature", "properties": { "gml_id": "ETABLISSEMENTS_POLLUEURS.589454", "identifiant": "86245700", "idetab": "589454", "nom": "SARL GERVAL", "codeape": "0146Z", "cp": "86100" }, "geometry": { "type": "Point", "coordinates": [ 0.628927, 46.816115 ] } },
{ "type": "Feature", "properties": { "gml_id": "ETABLISSEMENTS_POLLUEURS.588148", "identifiant": "0007203197", "idetab": "588148", "nom": "TDCI (TRAITEMENT DECOUPE CONCEPTION INDUSTRIEL)", "codeape": "2561Z", "cp": "86220" }, "geometry": { "type": "Point", "coordinates": [ 0.60246, 46.95616 ] } },
{ "type": "Feature", "properties": { "gml_id": "ETABLISSEMENTS_POLLUEURS.589981", "identifiant": "0010006403", "idetab": "589981", "nom": "PASCAULT", "codeape": "3832Z", "cp": "37160" }, "geometry": { "type": "Point", "coordinates": [ 0.67344, 46.98274 ] } },
{ "type": "Feature", "properties": { "gml_id": "ETABLISSEMENTS_POLLUEURS.3320", "identifiant": "0010000728", "idetab": "3320", "nom": "BAUGE IMPRIMEUR (EX-ROTOTECHNIQUES)", "codeape": "1812Z", "cp": "37160" }, "geometry": { "type": "Point", "coordinates": [ 0.685285, 46.978773 ] } },
{ "type": "Feature", "properties": { "gml_id": "ETABLISSEMENTS_POLLUEURS.3311", "identifiant": "0010000663", "idetab": "3311", "nom": "PAPETERIES PALM SAS", "codeape": "1712Z", "cp": "37160" }, "geometry": { "type": "Point", "coordinates": [ 0.6891, 46.97714 ] } },
{ "type": "Feature", "properties": { "gml_id": "ETABLISSEMENTS_POLLUEURS.598083", "identifiant": "0010003928", "idetab": "598083", "nom": "COC", "codeape": "4621Z", "cp": "37160" }, "geometry": { "type": "Point", "coordinates": [ 0.69302, 46.97542 ] } },
{ "type": "Feature", "properties": { "gml_id": "ETABLISSEMENTS_POLLUEURS.3422", "identifiant": "0010004212", "idetab": "3422", "nom": "DESCARTES ENERGIES", "codeape": "3530Z", "cp": "37160" }, "geometry": { "type": "Point", "coordinates": [ 0.696846, 46.975069 ] } },
{ "type": "Feature", "properties": { "gml_id": "ETABLISSEMENTS_POLLUEURS.11326", "identifiant": "0010000636", "idetab": "11326", "nom": "BARBOT CM", "codeape": "2511Z", "cp": "37160" }, "geometry": { "type": "Point", "coordinates": [ 0.696846, 46.975069 ] } },
{ "type": "Feature", "properties": { "gml_id": "ETABLISSEMENTS_POLLUEURS.11122", "identifiant": "0010008392", "idetab": "11122", "nom": "COMPOGREEN SARL", "codeape": "0891Z", "cp": "37160" }, "geometry": { "type": "Point", "coordinates": [ 0.696846, 46.975069 ] } },
{ "type": "Feature", "properties": { "gml_id": "ETABLISSEMENTS_POLLUEURS.590679", "identifiant": "0010013142", "idetab": "590679", "nom": "DESCARTES BIOMASSE INDUSTRIE", "codeape": "3511Z", "cp": "37160" }, "geometry": { "type": "Point", "coordinates": [ 0.68739, 46.97689 ] } }
]
}
