{
"type": "FeatureCollection",
"name": "ms:ETABLISSEMENTS_POLLUEURS",
"crs": { "type": "name", "properties": { "name": "urn:ogc:def:crs:OGC:1.3:CRS84" } },
"features": [
{ "type": "Feature", "properties": { "gml_id": "ETABLISSEMENTS_POLLUEURS.11432", "identifiant": "0010008720", "idetab": "11432", "nom": "SETRAD - COGNY", "codeape": "3821Z", "cp": "18130" }, "geometry": { "type": "Point", "coordinates": [ 2.635646, 46.845775 ] } },
{ "type": "Feature", "properties": { "gml_id": "ETABLISSEMENTS_POLLUEURS.3268", "identifiant": "0010000037", "idetab": "3268", "nom": "DOM RONIS", "codeape": "2572Z", "cp": "18600" }, "geometry": { "type": "Point", "coordinates": [ 2.90759, 46.83317 ] } },
{ "type": "Feature", "properties": { "gml_id": "ETABLISSEMENTS_POLLUEURS.3433", "identifiant": "0010005631", "idetab": "3433", "nom": "EDILIANS", "codeape": "2332Z", "cp": "18600" }, "geometry": { "type": "Point", "coordinates": [ 2.93745, 46.87771 ] } },
{ "type": "Feature", "properties": { "gml_id": "ETABLISSEMENTS_POLLUEURS.591650", "identifiant": "0010001986", "idetab": "591650", "nom": "GKN- STROMAG FRANCE", "codeape": "2815Z", "cp": "18150" }, "geometry": { "type": "Point", "coordinates": [ 2.94146, 46.941968 ] } },
{ "type": "Feature", "properties": { "gml_id": "ETABLISSEMENTS_POLLUEURS.596307", "identifiant": "0051800560", "idetab": "596307", "nom": "SCEA LES ANDINS", "codeape": "0111Z", "cp": "18600" }, "geometry": { "type": "Point", "coordinates": [ 2.882973, 46.863339 ] } },
{ "type": "Feature", "properties": { "gml_id": "ETABLISSEMENTS_POLLUEURS.589611", "identifiant": "0005603238", "idetab": "589611", "nom": "COMMUNE DE SAINT DESIRE", "codeape": "8411Z", "cp": "03370" }, "geometry": { "type": "Point", "coordinates": [ 2.432619, 46.497781 ] } },
{ "type": "Feature", "properties": { "gml_id": "ETABLISSEMENTS_POLLUEURS.10598", "identifiant": "0005600555", "idetab": "10598", "nom": "CARRIERES DU MONTLUCONNAIS", "codeape": "0812Z", "cp": "03380" }, "geometry": { "type": "Point", "coordinates": [ 2.480825, 46.361795 ] } },
{ "type": "Feature", "properties": { "gml_id": "ETABLISSEMENTS_POLLUEURS.10582", "identifiant": "0005600082", "idetab": "10582", "nom": "F 1", "codeape": "4532Z", "cp": "03380" }, "geometry": { "type": "Point", "coordinates": [ 2.50425, 46.2959 ] } },
{ "type": "Feature", "properties": { "gml_id": "ETABLISSEMENTS_POLLUEURS.10575", "identifiant": "0005600014", "idetab": "10575", "nom": "CALARD RECYCLAGE", "codeape": "3832Z", "cp": "03380" }, "geometry": { "type": "Point", "coordinates": [ 2.50621, 46.4291 ] } },
{ "type": "Feature", "properties": { "gml_id": "ETABLISSEMENTS_POLLUEURS.595134", "identifiant": "0005602186", "idetab": "595134", "nom": "ENVIRONNEMENT RECYCLING", "codeape": "3831Z", "cp": "03410" }, "geometry": { "type": "Point", "coordinates": [ 2.51345, 46.35276 ] } },
{ "type": "Feature", "properties": { "gml_id": "ETABLISSEMENTS_POLLUEURS.10581", "identifiant": "0005600081", "idetab": "10581", "nom": "VALRECY", "codeape": "3832Z", "cp": "03410" }, "geometry": { "type": "Point", "coordinates": [ 2.535919, 46.313048 ] } },
{ "type": "Feature", "properties": { "gml_id": "ETABLISSEMENTS_POLLUEURS.588583", "identifiant": "0005600080", "idetab": "588583", "nom": "GABILLAT DIDIER", "codeape": "3831Z", "cp": "03410" }, "geometry": { "type": "Point", "coordinates": [ 2.535919, 46.313048 ] } },
{ "type": "Feature", "properties": { "gml_id": "ETABLISSEMENTS_POLLUEURS.588622", "identifiant": "0005603228", "idetab": "588622", "nom": "MAIRIE DE MAZIRAT", "codeape": "8411Z", "cp": "03420" }, "geometry": { "type": "Point", "coordinates": [ 2.541015, 46.224409 ] } },
{ "type": "Feature", "properties": { "gml_id": "ETABLISSEMENTS_POLLUEURS.671", "identifiant": "0005600040", "idetab": "671", "nom": "SAFRAN ELECTRONICS & DEFENSE", "codeape": "2651A", "cp": "03410" }, "geometry": { "type": "Point", "coordinates": [ 2.55103, 46.3439 ] } },
{ "type": "Feature", "properties": { "gml_id": "ETABLISSEMENTS_POLLUEURS.676", "identifiant": "0005600074", "idetab": "676", "nom": "GOODYEAR FRANCE", "codeape": "2211Z", "cp": "03106" }, "geometry": { "type": "Point", "coordinates": [ 2.58881, 46.37037 ] } },
{ "type": "Feature", "properties": { "gml_id": "ETABLISSEMENTS_POLLUEURS.599203", "identifiant": "0003204442", "idetab": "599203", "nom": "CENTRALE BIOMETHANE DU VAL DE CHER", "codeape": "3511Z", "cp": "03190" }, "geometry": { "type": "Point", "coordinates": [ 2.59279, 46.49568 ] } },
{ "type": "Feature", "properties": { "gml_id": "ETABLISSEMENTS_POLLUEURS.675", "identifiant": "0005600069", "idetab": "675", "nom": "ATELIERS MECANIQUES INDUSTRIES SPECIALES", "codeape": "2550A", "cp": "03100" }, "geometry": { "type": "Point", "coordinates": [ 2.59593, 46.35972 ] } },
{ "type": "Feature", "properties": { "gml_id": "ETABLISSEMENTS_POLLUEURS.6381", "identifiant": "0005600104", "idetab": "6381", "nom": "FONDERIE CAST'AL", "codeape": "2442Z", "cp": "03190" }, "geometry": { "type": "Point", "coordinates": [ 2.59953, 46.41399 ] } },
{ "type": "Feature", "properties": { "gml_id": "ETABLISSEMENTS_POLLUEURS.4212", "identifiant": "0005600068", "idetab": "4212", "nom": "ALL'CHEM", "codeape": "2014Z", "cp": "03108" }, "geometry": { "type": "Point", "coordinates": [ 2.60106, 46.35188 ] } },
{ "type": "Feature", "properties": { "gml_id": "ETABLISSEMENTS_POLLUEURS.10601", "identifiant": "0005601398", "idetab": "10601", "nom": "BERRY WOOD", "codeape": "1622Z", "cp": "03360" }, "geometry": { "type": "Point", "coordinates": [ 2.604223, 46.611214 ] } },
{ "type": "Feature", "properties": { "gml_id": "ETABLISSEMENTS_POLLUEURS.588631", "identifiant": "0005603243", "idetab": "588631", "nom": "COMMUNE DE VALLON EN SULLY - ISDI", "codeape": "3811Z", "cp": "03190" }, "geometry": { "type": "Point", "coordinates": [ 2.605103, 46.536031 ] } },
{ "type": "Feature", "properties": { "gml_id": "ETABLISSEMENTS_POLLUEURS.14026", "identifiant": "0005601436", "idetab": "14026", "nom": "PUIGRENIER ABATTOIR BOVIN", "codeape": "1011Z", "cp": "03100" }, "geometry": { "type": "Point", "coordinates": [ 2.60819, 46.339772 ] } },
{ "type": "Feature", "properties": { "gml_id": "ETABLISSEMENTS_POLLUEURS.4213", "identifiant": "0005600072", "idetab": "4213", "nom": "CHAUFFERIE DE FONTBOUILLANT", "codeape": "3530Z", "cp": "03100" }, "geometry": { "type": "Point", "coordinates": [ 2.60819, 46.339772 ] } },
{ "type": "Feature", "properties": { "gml_id": "ETABLISSEMENTS_POLLUEURS.9691", "identifiant": "0005600065", "idetab": "9691", "nom": "LE RESERVOIR", "codeape": "2529Z", "cp": "03185" }, "geometry": { "type": "Point", "coordinates": [ 2.60819, 46.339772 ] } },
{ "type": "Feature", "properties": { "gml_id": "ETABLISSEMENTS_POLLUEURS.10599", "identifiant": "0005601304", "idetab": "10599", "nom": "PUIGRENIER ABATTOIR BOVIN", "codeape": "1011Z", "cp": "03100" }, "geometry": { "type": "Point", "coordinates": [ 2.60819, 46.339772 ] } },
{ "type": "Feature", "properties": { "gml_id": "ETABLISSEMENTS_POLLUEURS.9701", "identifiant": "0005601756", "idetab": "9701", "nom": "LARDET", "codeape": "3832Z", "cp": "03100" }, "geometry": { "type": "Point", "coordinates": [ 2.60819, 46.339772 ] } },
{ "type": "Feature", "properties": { "gml_id": "ETABLISSEMENTS_POLLUEURS.6405", "identifiant": "0005601445", "idetab": "6405", "nom": "STATION DE TRAITEMENT DES EAUX USÉES", "codeape": "900A", "cp": "03100" }, "geometry": { "type": "Point", "coordinates": [ 2.60819, 46.339772 ] } },
{ "type": "Feature", "properties": { "gml_id": "ETABLISSEMENTS_POLLUEURS.12801", "identifiant": "0005601999", "idetab": "12801", "nom": "STATION DE COMPRESSION DE ST VICTOR", "codeape": "4950Z", "cp": "03410" }, "geometry": { "type": "Point", "coordinates": [ 2.609364, 46.395227 ] } },
{ "type": "Feature", "properties": { "gml_id": "ETABLISSEMENTS_POLLUEURS.680", "identifiant": "0005600097", "idetab": "680", "nom": "BRIVADOISE DE TRAITEMENT DE SURFACES", "codeape": "2561Z", "cp": "03410" }, "geometry": { "type": "Point", "coordinates": [ 2.61041, 46.38141 ] } },
{ "type": "Feature", "properties": { "gml_id": "ETABLISSEMENTS_POLLUEURS.593131", "identifiant": "0005600649", "idetab": "593131", "nom": "CARRIERES & MATERIAUX SUD-EST - CMSE", "codeape": "0812Z", "cp": "03410" }, "geometry": { "type": "Point", "coordinates": [ 2.62733, 46.38662 ] } },
{ "type": "Feature", "properties": { "gml_id": "ETABLISSEMENTS_POLLUEURS.674", "identifiant": "0005600060", "idetab": "674", "nom": "COVED SA - ISDND DE MAILLET", "codeape": "3811Z", "cp": "03190" }, "geometry": { "type": "Point", "coordinates": [ 2.651703, 46.478331 ] } },
{ "type": "Feature", "properties": { "gml_id": "ETABLISSEMENTS_POLLUEURS.593998", "identifiant": "0005600667", "idetab": "593998", "nom": "CARRIERES & MATERIAUX SUD-EST - CMSE", "codeape": "0812Z", "cp": "03190" }, "geometry": { "type": "Point", "coordinates": [ 2.65868, 46.39934 ] } },
{ "type": "Feature", "properties": { "gml_id": "ETABLISSEMENTS_POLLUEURS.10578", "identifiant": "0005600037", "idetab": "10578", "nom": "TILT AUTO", "codeape": "4511Z", "cp": "03310" }, "geometry": { "type": "Point", "coordinates": [ 2.68677, 46.26862 ] } },
{ "type": "Feature", "properties": { "gml_id": "ETABLISSEMENTS_POLLUEURS.12813", "identifiant": "0005602724", "idetab": "12813", "nom": "ENTREPRISE LAUVERGNE COLLINET", "codeape": "4221Z", "cp": "03310" }, "geometry": { "type": "Point", "coordinates": [ 2.73065, 46.3041 ] } },
{ "type": "Feature", "properties": { "gml_id": "ETABLISSEMENTS_POLLUEURS.10604", "identifiant": "0005601778", "idetab": "10604", "nom": "COLLECTES VALORISATION ENERGIE DECHETS - COVED", "codeape": "3811Z", "cp": "03190" }, "geometry": { "type": "Point", "coordinates": [ 2.73241, 46.465 ] } },
{ "type": "Feature", "properties": { "gml_id": "ETABLISSEMENTS_POLLUEURS.4369", "identifiant": "0006000536", "idetab": "4369", "nom": "SIVOM AUZANCES BELLEGARDE (CET)", "codeape": "751A", "cp": "23700" }, "geometry": { "type": "Point", "coordinates": [ 2.425651, 46.018987 ] } },
{ "type": "Feature", "properties": { "gml_id": "ETABLISSEMENTS_POLLUEURS.595107", "identifiant": "0009070301", "idetab": "595107", "nom": "CA MONTLUCON COMMUNAUTE", "codeape": "3700Z", "cp": "03100" }, "geometry": { "type": "Point", "coordinates": [ 2.59467, 46.36824 ] } },
{ "type": "Feature", "properties": { "gml_id": "ETABLISSEMENTS_POLLUEURS.5605", "identifiant": "0016400059", "idetab": "5605", "nom": "GRTGAZ - STATION DE COMPRESSION DE ST VICTOR", "codeape": "4950Z", "cp": "03410" }, "geometry": { "type": "Point", "coordinates": [ 2.579289, 46.38996 ] } },
{ "type": "Feature", "properties": { "gml_id": "ETABLISSEMENTS_POLLUEURS.589457", "identifiant": "0016400112", "idetab": "589457", "nom": "SICTOM RÉGION MONTLUÇONNAISE", "codeape": "3811Z", "cp": "03170" }, "geometry": { "type": "Point", "coordinates": [ 2.701044, 46.333782 ] } },
{ "type": "Feature", "properties": { "gml_id": "ETABLISSEMENTS_POLLUEURS.8269", "identifiant": "0016400343", "idetab": "8269", "nom": "BREA SYSTEM", "codeape": "2453Z", "cp": "03100" }, "geometry": { "type": "Point", "coordinates": [ 2.59467, 46.36824 ] } },
{ "type": "Feature", "properties": { "gml_id": "ETABLISSEMENTS_POLLUEURS.5607", "identifiant": "0016400365", "idetab": "5607", "nom": "SICTOM DE LA RÉGION MONTLUÇONNAISE", "codeape": "3811Z", "cp": "03410" }, "geometry": { "type": "Point", "coordinates": [ 2.534063, 46.36006 ] } },
{ "type": "Feature", "properties": { "gml_id": "ETABLISSEMENTS_POLLUEURS.11164", "identifiant": "0016400388", "idetab": "11164", "nom": "REVIVAL", "codeape": "3832Z", "cp": "03100" }, "geometry": { "type": "Point", "coordinates": [ 2.60049, 46.36041 ] } },
{ "type": "Feature", "properties": { "gml_id": "ETABLISSEMENTS_POLLUEURS.13429", "identifiant": "0016400389", "idetab": "13429", "nom": "ENVIRONNEMENT RECYCLING", "codeape": "3831Z", "cp": "03410" }, "geometry": { "type": "Point", "coordinates": [ 2.534063, 46.36006 ] } },
{ "type": "Feature", "properties": { "gml_id": "ETABLISSEMENTS_POLLUEURS.11168", "identifiant": "0016600032", "idetab": "11168", "nom": "S.I.C.T.O.M. DE LA RÉGION MONTLUÇONNAISE", "codeape": "3811Z", "cp": "03410" }, "geometry": { "type": "Point", "coordinates": [ 2.534063, 46.36006 ] } },
{ "type": "Feature", "properties": { "gml_id": "ETABLISSEMENTS_POLLUEURS.595723", "identifiant": "0051800516", "idetab": "595723", "nom": "SAS PASCAL BONHEUR", "codeape": "0146Z", "cp": "18360" }, "geometry": { "type": "Point", "coordinates": [ 2.52476, 46.59508 ] } },
{ "type": "Feature", "properties": { "gml_id": "ETABLISSEMENTS_POLLUEURS.589365", "identifiant": "0052300038", "idetab": "589365", "nom": "SAS LES MONTAGNES D'AUZANCES", "codeape": "1051A", "cp": "23700" }, "geometry": { "type": "Point", "coordinates": [ 2.497127, 46.022001 ] } },
{ "type": "Feature", "properties": { "gml_id": "ETABLISSEMENTS_POLLUEURS.10418", "identifiant": "0070318501", "idetab": "10418", "nom": "STATION DE TRAITEMENT DES EAUX USÉES DE MONTLUÇON COMMUNAUTÉ", "codeape": "8411Z", "cp": "03100" }, "geometry": { "type": "Point", "coordinates": [ 2.603569, 46.369855 ] } },
{ "type": "Feature", "properties": { "gml_id": "ETABLISSEMENTS_POLLUEURS.598769", "identifiant": "0100019427", "idetab": "598769", "nom": "EUROVIA GRANDS TRAVAUX - RF500 REUGNY", "codeape": "4211Z", "cp": "03190" }, "geometry": { "type": "Point", "coordinates": [ 2.616572, 46.477575 ] } },
{ "type": "Feature", "properties": { "gml_id": "ETABLISSEMENTS_POLLUEURS.10477", "identifiant": "02301303", "idetab": "10477", "nom": "SAS LES MONTAGNES D'AUZANCES", "codeape": "1051A", "cp": "23700" }, "geometry": { "type": "Point", "coordinates": [ 2.499314, 46.036899 ] } },
{ "type": "Feature", "properties": { "gml_id": "ETABLISSEMENTS_POLLUEURS.1248", "identifiant": "0006000521", "idetab": "1248", "nom": "SUEZ RV SUD OUEST", "codeape": "3811Z", "cp": "23150" }, "geometry": { "type": "Point", "coordinates": [ 2.1279, 46.08808 ] } },
{ "type": "Feature", "properties": { "gml_id": "ETABLISSEMENTS_POLLUEURS.590228", "identifiant": "0003100190", "idetab": "590228", "nom": "SOTRAMAT", "codeape": "0812Z", "cp": "23270" }, "geometry": { "type": "Point", "coordinates": [ 2.03907, 46.32723 ] } },
{ "type": "Feature", "properties": { "gml_id": "ETABLISSEMENTS_POLLUEURS.4368", "identifiant": "0006000527", "idetab": "4368", "nom": "SUEZ RV SUD OUEST", "codeape": "3811Z", "cp": "23600" }, "geometry": { "type": "Point", "coordinates": [ 2.22676, 46.3334 ] } },
{ "type": "Feature", "properties": { "gml_id": "ETABLISSEMENTS_POLLUEURS.1239", "identifiant": "0006000364", "idetab": "1239", "nom": "DAGARD", "codeape": "2825Z", "cp": "23600" }, "geometry": { "type": "Point", "coordinates": [ 2.22719, 46.35001 ] } },
{ "type": "Feature", "properties": { "gml_id": "ETABLISSEMENTS_POLLUEURS.594770", "identifiant": "0006002211", "idetab": "594770", "nom": "IMERYS CERAMICS FRANCE", "codeape": "0812Z", "cp": "23600" }, "geometry": { "type": "Point", "coordinates": [ 2.30716, 46.32456 ] } },
{ "type": "Feature", "properties": { "gml_id": "ETABLISSEMENTS_POLLUEURS.588595", "identifiant": "0005603152", "idetab": "588595", "nom": "COLAS FRANCE", "codeape": "4312A", "cp": "63700" }, "geometry": { "type": "Point", "coordinates": [ 2.84517, 46.14571 ] } },
{ "type": "Feature", "properties": { "gml_id": "ETABLISSEMENTS_POLLUEURS.710", "identifiant": "0005600419", "idetab": "710", "nom": "ROCKWOOL FRANCE SAS", "codeape": "2399Z", "cp": "63700" }, "geometry": { "type": "Point", "coordinates": [ 2.84582, 46.16742 ] } },
{ "type": "Feature", "properties": { "gml_id": "ETABLISSEMENTS_POLLUEURS.6411", "identifiant": "0005601637", "idetab": "6411", "nom": "VALTOM SYNDICAT POUR LA VALORISATION ET LE TRAITEMENT DES DECHETS MENAGERS ET ASSIMILES DU PUY-DE-DOME ET DE HTE-LOIRE", "codeape": "3821Z", "cp": "63700" }, "geometry": { "type": "Point", "coordinates": [ 2.8494, 46.1679 ] } },
{ "type": "Feature", "properties": { "gml_id": "ETABLISSEMENTS_POLLUEURS.12231", "identifiant": "0005601670", "idetab": "12231", "nom": "AUVERGNE CAOUTCHOUC", "codeape": "2219Z", "cp": "63700" }, "geometry": { "type": "Point", "coordinates": [ 2.81576, 46.17513 ] } },
{ "type": "Feature", "properties": { "gml_id": "ETABLISSEMENTS_POLLUEURS.596311", "identifiant": "0005601141", "idetab": "596311", "nom": "CARRIERES & MATERIAUX SUD-EST - CMSE", "codeape": "0812Z", "cp": "63700" }, "geometry": { "type": "Point", "coordinates": [ 2.79353, 46.17575 ] } },
{ "type": "Feature", "properties": { "gml_id": "ETABLISSEMENTS_POLLUEURS.10596", "identifiant": "0005600543", "idetab": "10596", "nom": "IMERYS CERAMICS FRANCE", "codeape": "0812Z", "cp": "03330" }, "geometry": { "type": "Point", "coordinates": [ 2.95494, 46.17875 ] } },
{ "type": "Feature", "properties": { "gml_id": "ETABLISSEMENTS_POLLUEURS.588616", "identifiant": "0005603222", "idetab": "588616", "nom": "COMMUNE D ECHASSIERES", "codeape": "8411Z", "cp": "03330" }, "geometry": { "type": "Point", "coordinates": [ 2.95478, 46.17911 ] } },
{ "type": "Feature", "properties": { "gml_id": "ETABLISSEMENTS_POLLUEURS.14022", "identifiant": "0005600375", "idetab": "14022", "nom": "TELLUS", "codeape": "1091Z", "cp": "63700" }, "geometry": { "type": "Point", "coordinates": [ 2.89398, 46.22876 ] } },
{ "type": "Feature", "properties": { "gml_id": "ETABLISSEMENTS_POLLUEURS.599156", "identifiant": "0005600054", "idetab": "599156", "nom": "CALARD RECYCLAGE", "codeape": "3832Z", "cp": "03600" }, "geometry": { "type": "Point", "coordinates": [ 2.81106, 46.27365 ] } },
{ "type": "Feature", "properties": { "gml_id": "ETABLISSEMENTS_POLLUEURS.669", "identifiant": "0005600023", "idetab": "669", "nom": "ERASTEEL", "codeape": "2410Z", "cp": "03600" }, "geometry": { "type": "Point", "coordinates": [ 2.74414, 46.28759 ] } },
{ "type": "Feature", "properties": { "gml_id": "ETABLISSEMENTS_POLLUEURS.4210", "identifiant": "0005600022", "idetab": "4210", "nom": "ADISSEO FRANCE S.A.S.", "codeape": "2014Z", "cp": "03600" }, "geometry": { "type": "Point", "coordinates": [ 2.74843, 46.2952 ] } },
{ "type": "Feature", "properties": { "gml_id": "ETABLISSEMENTS_POLLUEURS.589606", "identifiant": "0005602623", "idetab": "589606", "nom": "BIOMASSE ENERGIE DE COMMENTRY", "codeape": "3511Z", "cp": "03600" }, "geometry": { "type": "Point", "coordinates": [ 2.74897, 46.29535 ] } },
{ "type": "Feature", "properties": { "gml_id": "ETABLISSEMENTS_POLLUEURS.7806", "identifiant": "0005601442", "idetab": "7806", "nom": "SAINT-REMY INDUSTRIE", "codeape": "2454Z", "cp": "03600" }, "geometry": { "type": "Point", "coordinates": [ 2.74159, 46.29703 ] } },
{ "type": "Feature", "properties": { "gml_id": "ETABLISSEMENTS_POLLUEURS.677", "identifiant": "0005600075", "idetab": "677", "nom": "SADILLEK SA", "codeape": "2442Z", "cp": "03390" }, "geometry": { "type": "Point", "coordinates": [ 2.9543, 46.32041 ] } },
{ "type": "Feature", "properties": { "gml_id": "ETABLISSEMENTS_POLLUEURS.597902", "identifiant": "0005601393", "idetab": "597902", "nom": "LA FRANCAISE DES TUILES ET BRIQUES", "codeape": "2332Z", "cp": "03170" }, "geometry": { "type": "Point", "coordinates": [ 2.81915, 46.34827 ] } },
{ "type": "Feature", "properties": { "gml_id": "ETABLISSEMENTS_POLLUEURS.588615", "identifiant": "0005603221", "idetab": "588615", "nom": "SICTOM DE LA RÉGION MONTLUÇONNAISE", "codeape": "8411Z", "cp": "03170" }, "geometry": { "type": "Point", "coordinates": [ 2.813194, 46.367101 ] } },
{ "type": "Feature", "properties": { "gml_id": "ETABLISSEMENTS_POLLUEURS.588587", "identifiant": "0005601962", "idetab": "588587", "nom": "ALEX LAFFONT SA/RAB", "codeape": "4661Z", "cp": "03430" }, "geometry": { "type": "Point", "coordinates": [ 2.845702, 46.398999 ] } },
{ "type": "Feature", "properties": { "gml_id": "ETABLISSEMENTS_POLLUEURS.4230", "identifiant": "0005601311", "idetab": "4230", "nom": "SOCOPA VIANDES", "codeape": "1011Z", "cp": "03430" }, "geometry": { "type": "Point", "coordinates": [ 2.85078, 46.40268 ] } },
{ "type": "Feature", "properties": { "gml_id": "ETABLISSEMENTS_POLLUEURS.588620", "identifiant": "0005603226", "idetab": "588620", "nom": "COMMUNE DE LOUROUX DE BOUBLE - ISDI", "codeape": "8411Z", "cp": "03330" }, "geometry": { "type": "Point", "coordinates": [ 2.97982, 46.224245 ] } },
{ "type": "Feature", "properties": { "gml_id": "ETABLISSEMENTS_POLLUEURS.588624", "identifiant": "0005603230", "idetab": "588624", "nom": "COMMUNE DE NADES", "codeape": "8411Z", "cp": "03450" }, "geometry": { "type": "Point", "coordinates": [ 2.962588, 46.159769 ] } },
{ "type": "Feature", "properties": { "gml_id": "ETABLISSEMENTS_POLLUEURS.13428", "identifiant": "0016300368", "idetab": "13428", "nom": "SOC CAOUTCHOUTIERE DE MONTAIGUT", "codeape": "2219Z", "cp": "63700" }, "geometry": { "type": "Point", "coordinates": [ 2.81576, 46.17513 ] } },
{ "type": "Feature", "properties": { "gml_id": "ETABLISSEMENTS_POLLUEURS.9343", "identifiant": "0016400415", "idetab": "9343", "nom": "FORECREU", "codeape": "2431Z", "cp": "03600" }, "geometry": { "type": "Point", "coordinates": [ 2.749299, 46.289937 ] } },
{ "type": "Feature", "properties": { "gml_id": "ETABLISSEMENTS_POLLUEURS.593000", "identifiant": "0056301067", "idetab": "593000", "nom": "COOP ELEVAGE DE LA BASSE TERRE", "codeape": "0146Z", "cp": "63700" }, "geometry": { "type": "Point", "coordinates": [ 2.92513, 46.24102 ] } },
{ "type": "Feature", "properties": { "gml_id": "ETABLISSEMENTS_POLLUEURS.589995", "identifiant": "0010008296", "idetab": "589995", "nom": "RECUP AUTO", "codeape": "4677Z", "cp": "36400" }, "geometry": { "type": "Point", "coordinates": [ 2.0026, 46.579362 ] } },
{ "type": "Feature", "properties": { "gml_id": "ETABLISSEMENTS_POLLUEURS.589968", "identifiant": "0010005154", "idetab": "589968", "nom": "TELLUS", "codeape": "1091Z", "cp": "36160" }, "geometry": { "type": "Point", "coordinates": [ 2.00436, 46.48059 ] } },
{ "type": "Feature", "properties": { "gml_id": "ETABLISSEMENTS_POLLUEURS.13784", "identifiant": "0010008017", "idetab": "13784", "nom": "LEVY BAMBOKA", "codeape": "1512Z", "cp": "36100" }, "geometry": { "type": "Point", "coordinates": [ 2.005496, 46.958421 ] } },
{ "type": "Feature", "properties": { "gml_id": "ETABLISSEMENTS_POLLUEURS.589260", "identifiant": "0010005979", "idetab": "589260", "nom": "SAFRAN SEATS", "codeape": "3030Z", "cp": "36100" }, "geometry": { "type": "Point", "coordinates": [ 2.007902, 46.957794 ] } },
{ "type": "Feature", "properties": { "gml_id": "ETABLISSEMENTS_POLLUEURS.588196", "identifiant": "0010000598", "idetab": "588196", "nom": "PAPREC CRV", "codeape": "3811Z", "cp": "36400" }, "geometry": { "type": "Point", "coordinates": [ 2.0381, 46.65675 ] } },
{ "type": "Feature", "properties": { "gml_id": "ETABLISSEMENTS_POLLUEURS.598150", "identifiant": "0053600686", "idetab": "598150", "nom": "EARL VAN DEN BROEK", "codeape": "0150Z", "cp": "36160" }, "geometry": { "type": "Point", "coordinates": [ 2.12234, 46.49619 ] } },
{ "type": "Feature", "properties": { "gml_id": "ETABLISSEMENTS_POLLUEURS.3270", "identifiant": "0010000039", "idetab": "3270", "nom": "SANDVIK MATERIALS TECHNOLOGY FRANCE SAS DIVISION PRECITUBE", "codeape": "2420Z", "cp": "18290" }, "geometry": { "type": "Point", "coordinates": [ 2.125334, 46.993283 ] } },
{ "type": "Feature", "properties": { "gml_id": "ETABLISSEMENTS_POLLUEURS.595823", "identifiant": "0051800171", "idetab": "595823", "nom": "QUEVILLON THOMAS", "codeape": "0147Z", "cp": "18160" }, "geometry": { "type": "Point", "coordinates": [ 2.13873, 46.82442 ] } },
{ "type": "Feature", "properties": { "gml_id": "ETABLISSEMENTS_POLLUEURS.590738", "identifiant": "0051800173", "idetab": "590738", "nom": "AIRPORC", "codeape": "0146Z", "cp": "18290" }, "geometry": { "type": "Point", "coordinates": [ 2.18235, 46.94893 ] } },
{ "type": "Feature", "properties": { "gml_id": "ETABLISSEMENTS_POLLUEURS.589984", "identifiant": "0010007050", "idetab": "589984", "nom": "D.R.N.S", "codeape": "3811Z", "cp": "18370" }, "geometry": { "type": "Point", "coordinates": [ 2.2111, 46.56149 ] } },
{ "type": "Feature", "properties": { "gml_id": "ETABLISSEMENTS_POLLUEURS.589250", "identifiant": "0010002321", "idetab": "589250", "nom": "SOCIETE DES CARRIERES DU BOISCHAUT", "codeape": "0812Z", "cp": "18370" }, "geometry": { "type": "Point", "coordinates": [ 2.2189, 46.54542 ] } },
{ "type": "Feature", "properties": { "gml_id": "ETABLISSEMENTS_POLLUEURS.3262", "identifiant": "0010000007", "idetab": "3262", "nom": "JELZA EMBOUTISSAGE", "codeape": "2932Z", "cp": "18400" }, "geometry": { "type": "Point", "coordinates": [ 2.240338, 46.992648 ] } },
{ "type": "Feature", "properties": { "gml_id": "ETABLISSEMENTS_POLLUEURS.598741", "identifiant": "0010006677", "idetab": "598741", "nom": "COLAS FRANCE", "codeape": "4211Z", "cp": "18400" }, "geometry": { "type": "Point", "coordinates": [ 2.24803, 46.994 ] } },
{ "type": "Feature", "properties": { "gml_id": "ETABLISSEMENTS_POLLUEURS.596460", "identifiant": "0010012824", "idetab": "596460", "nom": "AXIROUTE", "codeape": "4312A", "cp": "18400" }, "geometry": { "type": "Point", "coordinates": [ 2.25053, 46.9631 ] } },
{ "type": "Feature", "properties": { "gml_id": "ETABLISSEMENTS_POLLUEURS.8223", "identifiant": "0010002125", "idetab": "8223", "nom": "AFF ST FLO", "codeape": "2594Z", "cp": "18400" }, "geometry": { "type": "Point", "coordinates": [ 2.25538, 46.99372 ] } },
{ "type": "Feature", "properties": { "gml_id": "ETABLISSEMENTS_POLLUEURS.3269", "identifiant": "0010000038", "idetab": "3269", "nom": "USINES DE ROSIERES", "codeape": "2751Z", "cp": "18400" }, "geometry": { "type": "Point", "coordinates": [ 2.269221, 46.934983 ] } },
{ "type": "Feature", "properties": { "gml_id": "ETABLISSEMENTS_POLLUEURS.590741", "identifiant": "0051800558", "idetab": "590741", "nom": "SCEA DE CORTEUIL", "codeape": "0150Z", "cp": "18190" }, "geometry": { "type": "Point", "coordinates": [ 2.2707, 46.84779 ] } },
{ "type": "Feature", "properties": { "gml_id": "ETABLISSEMENTS_POLLUEURS.589271", "identifiant": "0010012735", "idetab": "589271", "nom": "COLAS FRANCE", "codeape": "4211Z", "cp": "18400" }, "geometry": { "type": "Point", "coordinates": [ 2.2732, 46.9318 ] } },
{ "type": "Feature", "properties": { "gml_id": "ETABLISSEMENTS_POLLUEURS.13772", "identifiant": "0010002019", "idetab": "13772", "nom": "SOCIETE FERROLAC", "codeape": "3832Z", "cp": "18400" }, "geometry": { "type": "Point", "coordinates": [ 2.27572, 46.93387 ] } },
{ "type": "Feature", "properties": { "gml_id": "ETABLISSEMENTS_POLLUEURS.596174", "identifiant": "0051800256", "idetab": "596174", "nom": "GAEC DESIRE", "codeape": "0142Z", "cp": "18170" }, "geometry": { "type": "Point", "coordinates": [ 2.27826, 46.72237 ] } },
{ "type": "Feature", "properties": { "gml_id": "ETABLISSEMENTS_POLLUEURS.8274", "identifiant": "18059001", "idetab": "8274", "nom": "SAS DOUX FRAIS ÉTABLISSEMENT DU CHATELET", "codeape": "1012Z", "cp": "18170" }, "geometry": { "type": "Point", "coordinates": [ 2.282003, 46.651131 ] } },
{ "type": "Feature", "properties": { "gml_id": "ETABLISSEMENTS_POLLUEURS.597302", "identifiant": "0010013642", "idetab": "597302", "nom": "SAS VERRIERES CEREALES", "codeape": "0163Z", "cp": "18570" }, "geometry": { "type": "Point", "coordinates": [ 2.36309, 46.99639 ] } },
{ "type": "Feature", "properties": { "gml_id": "ETABLISSEMENTS_POLLUEURS.595520", "identifiant": "0051800194", "idetab": "595520", "nom": "VERHAGRI", "codeape": "0111Z", "cp": "18270" }, "geometry": { "type": "Point", "coordinates": [ 2.36727, 46.55633 ] } },
{ "type": "Feature", "properties": { "gml_id": "ETABLISSEMENTS_POLLUEURS.3271", "identifiant": "0010000042", "idetab": "3271", "nom": "SMURFIT KAPPA PAPETERIE DE BIGNY", "codeape": "212L", "cp": "18190" }, "geometry": { "type": "Point", "coordinates": [ 2.37099, 46.801365 ] } },
{ "type": "Feature", "properties": { "gml_id": "ETABLISSEMENTS_POLLUEURS.3426", "identifiant": "0010004438", "idetab": "3426", "nom": "SMURFIT SOCAR", "codeape": "403Z", "cp": "18190" }, "geometry": { "type": "Point", "coordinates": [ 2.372041, 46.785144 ] } },
{ "type": "Feature", "properties": { "gml_id": "ETABLISSEMENTS_POLLUEURS.590008", "identifiant": "0010010255", "idetab": "590008", "nom": "ETS FAIVRE", "codeape": "5221Z", "cp": "18340" }, "geometry": { "type": "Point", "coordinates": [ 2.41154, 46.92739 ] } },
{ "type": "Feature", "properties": { "gml_id": "ETABLISSEMENTS_POLLUEURS.5621", "identifiant": "18066001", "idetab": "5621", "nom": "SCA DE CIVRAY", "codeape": "0147Z", "cp": "18290" }, "geometry": { "type": "Point", "coordinates": [ 2.180213, 46.974493 ] } },
{ "type": "Feature", "properties": { "gml_id": "ETABLISSEMENTS_POLLUEURS.5622", "identifiant": "18066017", "idetab": "5622", "nom": "HYPOR FRANCE", "codeape": "0162Z", "cp": "18290" }, "geometry": { "type": "Point", "coordinates": [ 2.180213, 46.974493 ] } },
{ "type": "Feature", "properties": { "gml_id": "ETABLISSEMENTS_POLLUEURS.8279", "identifiant": "18273003", "idetab": "8279", "nom": "SCEA DE CORTEUIL", "codeape": "0150Z", "cp": "18160" }, "geometry": { "type": "Point", "coordinates": [ 2.183884, 46.835895 ] } },
{ "type": "Feature", "properties": { "gml_id": "ETABLISSEMENTS_POLLUEURS.589946", "identifiant": "0010002403", "idetab": "589946", "nom": "SOCIETE D'EXPLOITATION DE TRAVAUX ET D'ENROBAGE DU CENTRE", "codeape": "4211Z", "cp": "18200" }, "geometry": { "type": "Point", "coordinates": [ 2.45655, 46.72972 ] } },
{ "type": "Feature", "properties": { "gml_id": "ETABLISSEMENTS_POLLUEURS.5556", "identifiant": "0010004362", "idetab": "5556", "nom": "SUEZ RV CENTRE OUEST", "codeape": "3811Z", "cp": "18200" }, "geometry": { "type": "Point", "coordinates": [ 2.47, 46.71954 ] } },
{ "type": "Feature", "properties": { "gml_id": "ETABLISSEMENTS_POLLUEURS.5423", "identifiant": "0010000006", "idetab": "5423", "nom": "INVEHO UFO", "codeape": "3020Z", "cp": "18200" }, "geometry": { "type": "Point", "coordinates": [ 2.47771, 46.72887 ] } },
{ "type": "Feature", "properties": { "gml_id": "ETABLISSEMENTS_POLLUEURS.590647", "identifiant": "0010002066", "idetab": "590647", "nom": "PAPREC GRAND EST", "codeape": "3832Z", "cp": "18200" }, "geometry": { "type": "Point", "coordinates": [ 2.48385, 46.72273 ] } },
{ "type": "Feature", "properties": { "gml_id": "ETABLISSEMENTS_POLLUEURS.599030", "identifiant": "0010014328", "idetab": "599030", "nom": "SAS LGENERGIE", "codeape": "3521Z", "cp": "18200" }, "geometry": { "type": "Point", "coordinates": [ 2.49818, 46.66073 ] } },
{ "type": "Feature", "properties": { "gml_id": "ETABLISSEMENTS_POLLUEURS.10298", "identifiant": "0010007187", "idetab": "10298", "nom": "INJECTION ZAMAK TRAITEMENT", "codeape": "2454Z", "cp": "18200" }, "geometry": { "type": "Point", "coordinates": [ 2.49985, 46.73636 ] } },
{ "type": "Feature", "properties": { "gml_id": "ETABLISSEMENTS_POLLUEURS.7238", "identifiant": "0010005110", "idetab": "7238", "nom": "BUSSIERE", "codeape": "1812Z", "cp": "18200" }, "geometry": { "type": "Point", "coordinates": [ 2.5006, 46.727419 ] } },
{ "type": "Feature", "properties": { "gml_id": "ETABLISSEMENTS_POLLUEURS.5537", "identifiant": "0010002086", "idetab": "5537", "nom": "DEPROMA SA", "codeape": "514J", "cp": "18200" }, "geometry": { "type": "Point", "coordinates": [ 2.5006, 46.727419 ] } },
{ "type": "Feature", "properties": { "gml_id": "ETABLISSEMENTS_POLLUEURS.590661", "identifiant": "0010005752", "idetab": "590661", "nom": "SYNERGIE", "codeape": "1610A", "cp": "18200" }, "geometry": { "type": "Point", "coordinates": [ 2.518572, 46.720605 ] } },
{ "type": "Feature", "properties": { "gml_id": "ETABLISSEMENTS_POLLUEURS.591667", "identifiant": "0010010222", "idetab": "591667", "nom": "SMIRTOM DU SAINT AMANDOIS", "codeape": "3811Z", "cp": "18200" }, "geometry": { "type": "Point", "coordinates": [ 2.52448, 46.72307 ] } },
{ "type": "Feature", "properties": { "gml_id": "ETABLISSEMENTS_POLLUEURS.590032", "identifiant": "0010012623", "idetab": "590032", "nom": "SMIRTOM ST AMANDOIS-DÉCHÈTERIE -DREVANT", "codeape": "3811Z", "cp": "18200" }, "geometry": { "type": "Point", "coordinates": [ 2.526122, 46.692733 ] } },
{ "type": "Feature", "properties": { "gml_id": "ETABLISSEMENTS_POLLUEURS.7226", "identifiant": "0010001943", "idetab": "7226", "nom": "LAUGERE", "codeape": "361C", "cp": "18210" }, "geometry": { "type": "Point", "coordinates": [ 2.642122, 46.729594 ] } },
{ "type": "Feature", "properties": { "gml_id": "ETABLISSEMENTS_POLLUEURS.11159", "identifiant": "0016400064", "idetab": "11159", "nom": "CARBO BRIQ", "codeape": "2014Z", "cp": "03360" }, "geometry": { "type": "Point", "coordinates": [ 2.653274, 46.665462 ] } },
{ "type": "Feature", "properties": { "gml_id": "ETABLISSEMENTS_POLLUEURS.588338", "identifiant": "03003065", "idetab": "588338", "nom": "SARL JEANDINET", "codeape": "0146Z", "cp": "03360" }, "geometry": { "type": "Point", "coordinates": [ 2.700615, 46.719594 ] } },
{ "type": "Feature", "properties": { "gml_id": "ETABLISSEMENTS_POLLUEURS.592976", "identifiant": "0050300007", "idetab": "592976", "nom": "SARL JEANDINET", "codeape": "0146Z", "cp": "03360" }, "geometry": { "type": "Point", "coordinates": [ 2.73155, 46.69862 ] } },
{ "type": "Feature", "properties": { "gml_id": "ETABLISSEMENTS_POLLUEURS.596189", "identifiant": "0005600491", "idetab": "596189", "nom": "CARRIERES & MATERIAUX SUD-EST - CMSE", "codeape": "0812Z", "cp": "03350" }, "geometry": { "type": "Point", "coordinates": [ 2.7913, 46.58531 ] } },
{ "type": "Feature", "properties": { "gml_id": "ETABLISSEMENTS_POLLUEURS.592974", "identifiant": "0050301177", "idetab": "592974", "nom": "ELEVAGE DE BALIVEAUX", "codeape": "7010Z", "cp": "03320" }, "geometry": { "type": "Point", "coordinates": [ 2.87083, 46.71154 ] } },
{ "type": "Feature", "properties": { "gml_id": "ETABLISSEMENTS_POLLUEURS.598415", "identifiant": "0050300276", "idetab": "598415", "nom": "EARL DU LIEU JAMET", "codeape": "0147Z", "cp": "03320" }, "geometry": { "type": "Point", "coordinates": [ 2.87161, 46.71064 ] } },
{ "type": "Feature", "properties": { "gml_id": "ETABLISSEMENTS_POLLUEURS.588585", "identifiant": "0005600559", "idetab": "588585", "nom": "EDILIANS", "codeape": "2332Z", "cp": "03350" }, "geometry": { "type": "Point", "coordinates": [ 2.89119, 46.52486 ] } },
{ "type": "Feature", "properties": { "gml_id": "ETABLISSEMENTS_POLLUEURS.588611", "identifiant": "0005603217", "idetab": "588611", "nom": "ISDI COMMUNE DE COULEUVRE", "codeape": "8411Z", "cp": "03320" }, "geometry": { "type": "Point", "coordinates": [ 2.896197, 46.689116 ] } },
{ "type": "Feature", "properties": { "gml_id": "ETABLISSEMENTS_POLLUEURS.588621", "identifiant": "0005603227", "idetab": "588621", "nom": "COMMUNE DE LURCY LEVIS - ISDI", "codeape": "8411Z", "cp": "03320" }, "geometry": { "type": "Point", "coordinates": [ 2.936468, 46.732586 ] } },
{ "type": "Feature", "properties": { "gml_id": "ETABLISSEMENTS_POLLUEURS.595161", "identifiant": "0005600562", "idetab": "595161", "nom": "GRANULATS VICAT", "codeape": "0812Z", "cp": "03320" }, "geometry": { "type": "Point", "coordinates": [ 2.94758, 46.74092 ] } }
]
}
