{
"type": "FeatureCollection",
"name": "ms:ETABLISSEMENTS_POLLUEURS",
"crs": { "type": "name", "properties": { "name": "urn:ogc:def:crs:OGC:1.3:CRS84" } },
"features": [
{ "type": "Feature", "properties": { "gml_id": "ETABLISSEMENTS_POLLUEURS.11389", "identifiant": "0006600253", "idetab": "11389", "nom": "LAFARGE CIMENTS", "codeape": "2351Z", "cp": "11210" }, "geometry": { "type": "Point", "coordinates": [ 3.00672, 43.01219 ] } },
{ "type": "Feature", "properties": { "gml_id": "ETABLISSEMENTS_POLLUEURS.5010", "identifiant": "0006600265", "idetab": "5010", "nom": "SOFT SA", "codeape": "2020Z", "cp": "11210" }, "geometry": { "type": "Point", "coordinates": [ 3.059365, 43.021114 ] } },
{ "type": "Feature", "properties": { "gml_id": "ETABLISSEMENTS_POLLUEURS.2628", "identifiant": "0006600264", "idetab": "2628", "nom": "J. DELPECH ET SES FILS", "codeape": "242Z", "cp": "11210" }, "geometry": { "type": "Point", "coordinates": [ 3.059365, 43.021114 ] } },
{ "type": "Feature", "properties": { "gml_id": "ETABLISSEMENTS_POLLUEURS.5007", "identifiant": "0006600260", "idetab": "5007", "nom": "DÉPÔT PÉTROLIER DE DYNEFF", "codeape": "4671Z", "cp": "11210" }, "geometry": { "type": "Point", "coordinates": [ 3.059365, 43.021114 ] } },
{ "type": "Feature", "properties": { "gml_id": "ETABLISSEMENTS_POLLUEURS.2626", "identifiant": "0006600257", "idetab": "2626", "nom": "DÉPÔT PÉTROLIER DE PORT LA NOUVELLE", "codeape": "5210B", "cp": "11210" }, "geometry": { "type": "Point", "coordinates": [ 3.059365, 43.021114 ] } },
{ "type": "Feature", "properties": { "gml_id": "ETABLISSEMENTS_POLLUEURS.2625", "identifiant": "0006600256", "idetab": "2625", "nom": "FOSELEV LOGISTIQUE", "codeape": "5210B", "cp": "11210" }, "geometry": { "type": "Point", "coordinates": [ 3.05849, 43.02203 ] } },
{ "type": "Feature", "properties": { "gml_id": "ETABLISSEMENTS_POLLUEURS.5008", "identifiant": "0006600262", "idetab": "5008", "nom": "LAFARGE CIMENTS", "codeape": "2351Z", "cp": "11210" }, "geometry": { "type": "Point", "coordinates": [ 3.0325, 43.02208 ] } },
{ "type": "Feature", "properties": { "gml_id": "ETABLISSEMENTS_POLLUEURS.2627", "identifiant": "0006600259", "idetab": "2627", "nom": "ENTREPOT PETROLIER DE PORT LA NOUVELLE", "codeape": "5210B", "cp": "11210" }, "geometry": { "type": "Point", "coordinates": [ 3.05688, 43.02429 ] } },
{ "type": "Feature", "properties": { "gml_id": "ETABLISSEMENTS_POLLUEURS.8037", "identifiant": "0006600261", "idetab": "8037", "nom": "FRANGAZ", "codeape": "515A", "cp": "11210" }, "geometry": { "type": "Point", "coordinates": [ 3.05501, 43.024402 ] } },
{ "type": "Feature", "properties": { "gml_id": "ETABLISSEMENTS_POLLUEURS.13125", "identifiant": "0006604819", "idetab": "13125", "nom": "CAMIDI", "codeape": "4941B", "cp": "11210" }, "geometry": { "type": "Point", "coordinates": [ 3.059365, 43.021114 ] } },
{ "type": "Feature", "properties": { "gml_id": "ETABLISSEMENTS_POLLUEURS.595146", "identifiant": "0009071102", "idetab": "595146", "nom": "VEOLIA EAU - COMPAGNIE GENERALE DES EAUX", "codeape": "3600Z", "cp": "11100" }, "geometry": { "type": "Point", "coordinates": [ 3.03, 43.172 ] } },
{ "type": "Feature", "properties": { "gml_id": "ETABLISSEMENTS_POLLUEURS.3507", "identifiant": "0018200019", "idetab": "3507", "nom": "Q.R.O.", "codeape": "4520A", "cp": "11100" }, "geometry": { "type": "Point", "coordinates": [ 3.01234, 43.18215 ] } },
{ "type": "Feature", "properties": { "gml_id": "ETABLISSEMENTS_POLLUEURS.13816", "identifiant": "0018300508", "idetab": "13816", "nom": "ORGA D'OC", "codeape": "3821Z", "cp": "34310" }, "geometry": { "type": "Point", "coordinates": [ 3.0294, 43.2941 ] } },
{ "type": "Feature", "properties": { "gml_id": "ETABLISSEMENTS_POLLUEURS.9441", "identifiant": "0071126201", "idetab": "9441", "nom": "STATION DE TRAITEMENT DES EAUX USEES - NARBONNE VILLE", "codeape": "3700Z", "cp": "11000" }, "geometry": { "type": "Point", "coordinates": [ 3.03, 43.172 ] } },
{ "type": "Feature", "properties": { "gml_id": "ETABLISSEMENTS_POLLUEURS.595003", "identifiant": "0009073401", "idetab": "595003", "nom": "SUEZ EAU FRANCE", "codeape": "3600Z", "cp": "34300" }, "geometry": { "type": "Point", "coordinates": [ 3.46851, 43.28312 ] } },
{ "type": "Feature", "properties": { "gml_id": "ETABLISSEMENTS_POLLUEURS.588078", "identifiant": "0006601140", "idetab": "588078", "nom": "TILT AUTO", "codeape": "4677Z", "cp": "34440" }, "geometry": { "type": "Point", "coordinates": [ 3.13596, 43.28387 ] } },
{ "type": "Feature", "properties": { "gml_id": "ETABLISSEMENTS_POLLUEURS.13107", "identifiant": "0006601323", "idetab": "13107", "nom": "RECUP'AUTO", "codeape": "4511Z", "cp": "34350" }, "geometry": { "type": "Point", "coordinates": [ 3.21695, 43.29371 ] } },
{ "type": "Feature", "properties": { "gml_id": "ETABLISSEMENTS_POLLUEURS.11855", "identifiant": "0006601143", "idetab": "11855", "nom": "J. & C.", "codeape": "1107B", "cp": "34440" }, "geometry": { "type": "Point", "coordinates": [ 3.116398, 43.29695 ] } },
{ "type": "Feature", "properties": { "gml_id": "ETABLISSEMENTS_POLLUEURS.591557", "identifiant": "0006605350", "idetab": "591557", "nom": "BOULANGERIE VIENNOISERIE FRANCAISE", "codeape": "1071A", "cp": "34440" }, "geometry": { "type": "Point", "coordinates": [ 3.16646, 43.30551 ] } },
{ "type": "Feature", "properties": { "gml_id": "ETABLISSEMENTS_POLLUEURS.13583", "identifiant": "0006604245", "idetab": "13583", "nom": "LEREAU", "codeape": "3831Z", "cp": "34440" }, "geometry": { "type": "Point", "coordinates": [ 3.16451, 43.30578 ] } },
{ "type": "Feature", "properties": { "gml_id": "ETABLISSEMENTS_POLLUEURS.13100", "identifiant": "0006600838", "idetab": "13100", "nom": "SOCIETE D'EXPLOITATION D'AGDE AUTO PIECES", "codeape": "4532Z", "cp": "34300" }, "geometry": { "type": "Point", "coordinates": [ 3.49431, 43.30948 ] } },
{ "type": "Feature", "properties": { "gml_id": "ETABLISSEMENTS_POLLUEURS.8045", "identifiant": "0006601334", "idetab": "8045", "nom": "CHROMENIC", "codeape": "2561Z", "cp": "34420" }, "geometry": { "type": "Point", "coordinates": [ 3.280435, 43.312512 ] } },
{ "type": "Feature", "properties": { "gml_id": "ETABLISSEMENTS_POLLUEURS.8038", "identifiant": "0006600842", "idetab": "8038", "nom": "LE RESERVOIR MASSAL", "codeape": "2529Z", "cp": "34301" }, "geometry": { "type": "Point", "coordinates": [ 3.48773, 43.31299 ] } },
{ "type": "Feature", "properties": { "gml_id": "ETABLISSEMENTS_POLLUEURS.589012", "identifiant": "0006600839", "idetab": "589012", "nom": "ACR 34 SARL", "codeape": "4511Z", "cp": "34300" }, "geometry": { "type": "Point", "coordinates": [ 3.468708, 43.314068 ] } },
{ "type": "Feature", "properties": { "gml_id": "ETABLISSEMENTS_POLLUEURS.594998", "identifiant": "0009073402", "idetab": "594998", "nom": "SUEZ EAU FRANCE", "codeape": "3600Z", "cp": "34500" }, "geometry": { "type": "Point", "coordinates": [ 3.24836, 43.31721 ] } },
{ "type": "Feature", "properties": { "gml_id": "ETABLISSEMENTS_POLLUEURS.8040", "identifiant": "0006600923", "idetab": "8040", "nom": "CAMERON FRANCE", "codeape": "2899B", "cp": "34500" }, "geometry": { "type": "Point", "coordinates": [ 3.24836, 43.31721 ] } },
{ "type": "Feature", "properties": { "gml_id": "ETABLISSEMENTS_POLLUEURS.9912", "identifiant": "0006600973", "idetab": "9912", "nom": "ETABLISSEMENTS CLAUDE", "codeape": "3317Z", "cp": "34440" }, "geometry": { "type": "Point", "coordinates": [ 3.13911, 43.31838 ] } },
{ "type": "Feature", "properties": { "gml_id": "ETABLISSEMENTS_POLLUEURS.592352", "identifiant": "0006606373", "idetab": "592352", "nom": "SUEZ EAU FRANCE", "codeape": "3600Z", "cp": "34500" }, "geometry": { "type": "Point", "coordinates": [ 3.23406, 43.32108 ] } },
{ "type": "Feature", "properties": { "gml_id": "ETABLISSEMENTS_POLLUEURS.9920", "identifiant": "0006603547", "idetab": "9920", "nom": "ACV INDUSTRIE", "codeape": "3317Z", "cp": "34500" }, "geometry": { "type": "Point", "coordinates": [ 3.25058, 43.32175 ] } },
{ "type": "Feature", "properties": { "gml_id": "ETABLISSEMENTS_POLLUEURS.590217", "identifiant": "0006606437", "idetab": "590217", "nom": "ISDI SICTOM PÉZÉNAS-AGDE", "codeape": "3811Z", "cp": "34420" }, "geometry": { "type": "Point", "coordinates": [ 3.306215, 43.32481 ] } },
{ "type": "Feature", "properties": { "gml_id": "ETABLISSEMENTS_POLLUEURS.6923", "identifiant": "0006600914", "idetab": "6923", "nom": "SOBAT", "codeape": "2599B", "cp": "34500" }, "geometry": { "type": "Point", "coordinates": [ 3.25473, 43.32508 ] } },
{ "type": "Feature", "properties": { "gml_id": "ETABLISSEMENTS_POLLUEURS.5018", "identifiant": "0006600891", "idetab": "5018", "nom": "GAZECHIM", "codeape": "2011Z", "cp": "34500" }, "geometry": { "type": "Point", "coordinates": [ 3.25947, 43.32548 ] } },
{ "type": "Feature", "properties": { "gml_id": "ETABLISSEMENTS_POLLUEURS.13117", "identifiant": "0006601985", "idetab": "13117", "nom": "PURFER", "codeape": "3832Z", "cp": "34500" }, "geometry": { "type": "Point", "coordinates": [ 3.25118, 43.32659 ] } },
{ "type": "Feature", "properties": { "gml_id": "ETABLISSEMENTS_POLLUEURS.8039", "identifiant": "0006600898", "idetab": "8039", "nom": "SOCIETE NOUVELLE GALVADOC", "codeape": "2561Z", "cp": "34500" }, "geometry": { "type": "Point", "coordinates": [ 3.2562, 43.32862 ] } },
{ "type": "Feature", "properties": { "gml_id": "ETABLISSEMENTS_POLLUEURS.13101", "identifiant": "0006600922", "idetab": "13101", "nom": "TRIADIS SERVICES", "codeape": "3812Z", "cp": "34420" }, "geometry": { "type": "Point", "coordinates": [ 3.27566, 43.33045 ] } },
{ "type": "Feature", "properties": { "gml_id": "ETABLISSEMENTS_POLLUEURS.2659", "identifiant": "0006600901", "idetab": "2659", "nom": "GRANDES HUILERIES DU MIDI", "codeape": "1041B", "cp": "34500" }, "geometry": { "type": "Point", "coordinates": [ 3.25973, 43.33132 ] } },
{ "type": "Feature", "properties": { "gml_id": "ETABLISSEMENTS_POLLUEURS.2658", "identifiant": "0006600896", "idetab": "2658", "nom": "SBM FORMULATION", "codeape": "2020Z", "cp": "34500" }, "geometry": { "type": "Point", "coordinates": [ 3.25513, 43.33149 ] } },
{ "type": "Feature", "properties": { "gml_id": "ETABLISSEMENTS_POLLUEURS.13573", "identifiant": "0006600911", "idetab": "13573", "nom": "SARP MEDITERRANEE", "codeape": "3700Z", "cp": "34515" }, "geometry": { "type": "Point", "coordinates": [ 3.26878, 43.33205 ] } },
{ "type": "Feature", "properties": { "gml_id": "ETABLISSEMENTS_POLLUEURS.2660", "identifiant": "0006600904", "idetab": "2660", "nom": "HIRSCH FRANCE", "codeape": "2016Z", "cp": "34500" }, "geometry": { "type": "Point", "coordinates": [ 3.22438, 43.33308 ] } },
{ "type": "Feature", "properties": { "gml_id": "ETABLISSEMENTS_POLLUEURS.2661", "identifiant": "0006600915", "idetab": "2661", "nom": "BREGER SUD", "codeape": "2222Z", "cp": "34500" }, "geometry": { "type": "Point", "coordinates": [ 3.210196, 43.338806 ] } },
{ "type": "Feature", "properties": { "gml_id": "ETABLISSEMENTS_POLLUEURS.9129", "identifiant": "0006600900", "idetab": "9129", "nom": "UNIVAR", "codeape": "4675Z", "cp": "34500" }, "geometry": { "type": "Point", "coordinates": [ 3.210196, 43.338806 ] } },
{ "type": "Feature", "properties": { "gml_id": "ETABLISSEMENTS_POLLUEURS.590526", "identifiant": "0006605295", "idetab": "590526", "nom": "EUREC SUD", "codeape": "3832Z", "cp": "34500" }, "geometry": { "type": "Point", "coordinates": [ 3.13183, 43.35057 ] } },
{ "type": "Feature", "properties": { "gml_id": "ETABLISSEMENTS_POLLUEURS.2657", "identifiant": "0006600893", "idetab": "2657", "nom": "O-I FRANCE SAS", "codeape": "2313Z", "cp": "34500" }, "geometry": { "type": "Point", "coordinates": [ 3.13343, 43.35064 ] } },
{ "type": "Feature", "properties": { "gml_id": "ETABLISSEMENTS_POLLUEURS.12392", "identifiant": "0006601565", "idetab": "12392", "nom": "COMMUNAUTE D AGGLOMERATION BEZIERS MEDITERRANEE", "codeape": "8411Z", "cp": "34500" }, "geometry": { "type": "Point", "coordinates": [ 3.21926, 43.36123 ] } },
{ "type": "Feature", "properties": { "gml_id": "ETABLISSEMENTS_POLLUEURS.588075", "identifiant": "0006600885", "idetab": "588075", "nom": "STE DES ENROBES MEDITERRANEENS", "codeape": "2014Z", "cp": "34550" }, "geometry": { "type": "Point", "coordinates": [ 3.42303, 43.37011 ] } },
{ "type": "Feature", "properties": { "gml_id": "ETABLISSEMENTS_POLLUEURS.10338", "identifiant": "0018300485", "idetab": "10338", "nom": "MECANIC SUD INDUSTRIE", "codeape": "2562B", "cp": "34500" }, "geometry": { "type": "Point", "coordinates": [ 3.26577, 43.32931 ] } },
{ "type": "Feature", "properties": { "gml_id": "ETABLISSEMENTS_POLLUEURS.8621", "identifiant": "0018300603", "idetab": "8621", "nom": "COMMUNAUTE D AGGLOMERATION BEZIERS MEDITERRANEE", "codeape": "8411Z", "cp": "34500" }, "geometry": { "type": "Point", "coordinates": [ 3.27732, 43.36167 ] } },
{ "type": "Feature", "properties": { "gml_id": "ETABLISSEMENTS_POLLUEURS.590697", "identifiant": "0018300692", "idetab": "590697", "nom": "CALCAIRES DU BITERROIS", "codeape": "0812Z", "cp": "34350" }, "geometry": { "type": "Point", "coordinates": [ 3.20872, 43.2965 ] } },
{ "type": "Feature", "properties": { "gml_id": "ETABLISSEMENTS_POLLUEURS.7317", "identifiant": "0018300699", "idetab": "7317", "nom": "COMMUNAUTE D AGGLOMERATION BEZIERS MEDITERRANEE", "codeape": "8411Z", "cp": "34350" }, "geometry": { "type": "Point", "coordinates": [ 3.22487, 43.26713 ] } },
{ "type": "Feature", "properties": { "gml_id": "ETABLISSEMENTS_POLLUEURS.8622", "identifiant": "0018300700", "idetab": "8622", "nom": "UVOM COMMUNE DE BEZIERS", "codeape": "3821Z", "cp": "34500" }, "geometry": { "type": "Point", "coordinates": [ 3.210196, 43.338806 ] } },
{ "type": "Feature", "properties": { "gml_id": "ETABLISSEMENTS_POLLUEURS.9464", "identifiant": "0073400301", "idetab": "9464", "nom": "STEP - AGDE", "codeape": "3700Z", "cp": "34300" }, "geometry": { "type": "Point", "coordinates": [ 3.465649, 43.295471 ] } },
{ "type": "Feature", "properties": { "gml_id": "ETABLISSEMENTS_POLLUEURS.9465", "identifiant": "0073403201", "idetab": "9465", "nom": "STEP - BEZIERS", "codeape": "3700Z", "cp": "34500" }, "geometry": { "type": "Point", "coordinates": [ 3.23441, 43.321291 ] } },
{ "type": "Feature", "properties": { "gml_id": "ETABLISSEMENTS_POLLUEURS.589014", "identifiant": "0006600888", "idetab": "589014", "nom": "MATERIAUX GRAND SUD", "codeape": "0812Z", "cp": "34550" }, "geometry": { "type": "Point", "coordinates": [ 3.42752, 43.38252 ] } },
{ "type": "Feature", "properties": { "gml_id": "ETABLISSEMENTS_POLLUEURS.595103", "identifiant": "0006603594", "idetab": "595103", "nom": "SOCIETE PUBLIQUE LOCALE (SPL) OEKOMED", "codeape": "3821Z", "cp": "34290" }, "geometry": { "type": "Point", "coordinates": [ 3.37131, 43.39125 ] } },
{ "type": "Feature", "properties": { "gml_id": "ETABLISSEMENTS_POLLUEURS.598000", "identifiant": "0003704120", "idetab": "598000", "nom": "SOCIETE PUBLIQUE LOCALE (SPL) OEKOMED", "codeape": "3821Z", "cp": "34630" }, "geometry": { "type": "Point", "coordinates": [ 3.40044, 43.39623 ] } },
{ "type": "Feature", "properties": { "gml_id": "ETABLISSEMENTS_POLLUEURS.590524", "identifiant": "0006603592", "idetab": "590524", "nom": "COLLECTES VALORISATION ENERGIE DECHETS - COVED", "codeape": "3821Z", "cp": "34290" }, "geometry": { "type": "Point", "coordinates": [ 3.36787, 43.39768 ] } },
{ "type": "Feature", "properties": { "gml_id": "ETABLISSEMENTS_POLLUEURS.590219", "identifiant": "0006606445", "idetab": "590219", "nom": "ISDI SICTOM PÉZÉNAS-AGDE", "codeape": "3811Z", "cp": "34630" }, "geometry": { "type": "Point", "coordinates": [ 3.416498, 43.398308 ] } },
{ "type": "Feature", "properties": { "gml_id": "ETABLISSEMENTS_POLLUEURS.588090", "identifiant": "0006606443", "idetab": "588090", "nom": "EIFFAGE ROUTE GRAND SUD", "codeape": "7010Z", "cp": "34490" }, "geometry": { "type": "Point", "coordinates": [ 3.14968, 43.41393 ] } },
{ "type": "Feature", "properties": { "gml_id": "ETABLISSEMENTS_POLLUEURS.589022", "identifiant": "0006604841", "idetab": "589022", "nom": "CARRIERES & MATERIAUX SUD-EST - CMSE", "codeape": "0812Z", "cp": "34490" }, "geometry": { "type": "Point", "coordinates": [ 3.14903, 43.41468 ] } },
{ "type": "Feature", "properties": { "gml_id": "ETABLISSEMENTS_POLLUEURS.590220", "identifiant": "0006606451", "idetab": "590220", "nom": "ISDI SICTOM PÉZÉNAS-AGDE", "codeape": "3811Z", "cp": "34530" }, "geometry": { "type": "Point", "coordinates": [ 3.482733, 43.480275 ] } },
{ "type": "Feature", "properties": { "gml_id": "ETABLISSEMENTS_POLLUEURS.590221", "identifiant": "0006606454", "idetab": "590221", "nom": "ISDI SICTOM PÉZÉNAS-AGDE", "codeape": "3811Z", "cp": "34320" }, "geometry": { "type": "Point", "coordinates": [ 3.309528, 43.5043 ] } },
{ "type": "Feature", "properties": { "gml_id": "ETABLISSEMENTS_POLLUEURS.590242", "identifiant": "0003700051", "idetab": "590242", "nom": "SMICTOM REGION PEZENAS _ ISDI CAUX", "codeape": "3811Z", "cp": "34720" }, "geometry": { "type": "Point", "coordinates": [ 3.367416, 43.506469 ] } },
{ "type": "Feature", "properties": { "gml_id": "ETABLISSEMENTS_POLLUEURS.8043", "identifiant": "0006601152", "idetab": "8043", "nom": "IRRIFRANCE", "codeape": "2830Z", "cp": "34230" }, "geometry": { "type": "Point", "coordinates": [ 3.458067, 43.538652 ] } },
{ "type": "Feature", "properties": { "gml_id": "ETABLISSEMENTS_POLLUEURS.596277", "identifiant": "0006600852", "idetab": "596277", "nom": "CARRIERES & MATERIAUX SUD-EST - CMSE", "codeape": "0812Z", "cp": "34600" }, "geometry": { "type": "Point", "coordinates": [ 3.09216, 43.56809 ] } },
{ "type": "Feature", "properties": { "gml_id": "ETABLISSEMENTS_POLLUEURS.13579", "identifiant": "0006601566", "idetab": "13579", "nom": "SYNDICAT DU CENTRE HERAULT", "codeape": "3811Z", "cp": "34800" }, "geometry": { "type": "Point", "coordinates": [ 3.47182, 43.58378 ] } },
{ "type": "Feature", "properties": { "gml_id": "ETABLISSEMENTS_POLLUEURS.599125", "identifiant": "0006600883", "idetab": "599125", "nom": "GARROT CHAILLAC INDUSTRIES", "codeape": "7010Z", "cp": "34600" }, "geometry": { "type": "Point", "coordinates": [ 3.15544, 43.61852 ] } },
{ "type": "Feature", "properties": { "gml_id": "ETABLISSEMENTS_POLLUEURS.13102", "identifiant": "0006600970", "idetab": "13102", "nom": "SAR FER", "codeape": "3831Z", "cp": "34800" }, "geometry": { "type": "Point", "coordinates": [ 3.44975, 43.63216 ] } },
{ "type": "Feature", "properties": { "gml_id": "ETABLISSEMENTS_POLLUEURS.588088", "identifiant": "0006605595", "idetab": "588088", "nom": "ENTREPRISE LOPEZ", "codeape": "3821Z", "cp": "34260" }, "geometry": { "type": "Point", "coordinates": [ 3.15058, 43.65798 ] } },
{ "type": "Feature", "properties": { "gml_id": "ETABLISSEMENTS_POLLUEURS.589025", "identifiant": "0006605597", "idetab": "589025", "nom": "SERVANT ET FILS - ISDIA", "codeape": "3821Z", "cp": "34260" }, "geometry": { "type": "Point", "coordinates": [ 3.106933, 43.663461 ] } },
{ "type": "Feature", "properties": { "gml_id": "ETABLISSEMENTS_POLLUEURS.588079", "identifiant": "0006602015", "idetab": "588079", "nom": "COMPOST ENVIRONNEMENT", "codeape": "3821Z", "cp": "34650" }, "geometry": { "type": "Point", "coordinates": [ 3.18396, 43.66612 ] } },
{ "type": "Feature", "properties": { "gml_id": "ETABLISSEMENTS_POLLUEURS.13106", "identifiant": "0006601223", "idetab": "13106", "nom": "RECUP'FER34", "codeape": "3832Z", "cp": "34700" }, "geometry": { "type": "Point", "coordinates": [ 3.421616, 43.713759 ] } },
{ "type": "Feature", "properties": { "gml_id": "ETABLISSEMENTS_POLLUEURS.588083", "identifiant": "0006603793", "idetab": "588083", "nom": "EURL VALORISATION MATERIAUX INERTES ET TRAVAUX PUBLICS", "codeape": "4312A", "cp": "34700" }, "geometry": { "type": "Point", "coordinates": [ 3.27118, 43.71953 ] } },
{ "type": "Feature", "properties": { "gml_id": "ETABLISSEMENTS_POLLUEURS.12400", "identifiant": "0006604226", "idetab": "12400", "nom": "PIERRE FABRE DERMO-COSMETIQUE", "codeape": "2042Z", "cp": "34260" }, "geometry": { "type": "Point", "coordinates": [ 3.09913, 43.75711 ] } },
{ "type": "Feature", "properties": { "gml_id": "ETABLISSEMENTS_POLLUEURS.13813", "identifiant": "0018100100", "idetab": "13813", "nom": "MATERIAUX GRAND SUD", "codeape": "0812Z", "cp": "34630" }, "geometry": { "type": "Point", "coordinates": [ 3.40864, 43.38122 ] } },
{ "type": "Feature", "properties": { "gml_id": "ETABLISSEMENTS_POLLUEURS.8280", "identifiant": "0018300581", "idetab": "8280", "nom": "SYNDICAT DU CENTRE HERAULT", "codeape": "3811Z", "cp": "34700" }, "geometry": { "type": "Point", "coordinates": [ 3.34242, 43.71008 ] } },
{ "type": "Feature", "properties": { "gml_id": "ETABLISSEMENTS_POLLUEURS.589312", "identifiant": "0018300697", "idetab": "589312", "nom": "LES SABLIERES DU LITTORAL", "codeape": "0812Z", "cp": "34370" }, "geometry": { "type": "Point", "coordinates": [ 3.14805, 43.3875 ] } },
{ "type": "Feature", "properties": { "gml_id": "ETABLISSEMENTS_POLLUEURS.589013", "identifiant": "0006600860", "idetab": "589013", "nom": "BIOCAMA INDUSTRIE (ANIANE)", "codeape": "0812Z", "cp": "34150" }, "geometry": { "type": "Point", "coordinates": [ 3.585259, 43.684849 ] } },
{ "type": "Feature", "properties": { "gml_id": "ETABLISSEMENTS_POLLUEURS.590522", "identifiant": "0006601174", "idetab": "590522", "nom": "HEIDELBERG MATERIALS FRANCE GRANULATS", "codeape": "0812Z", "cp": "34560" }, "geometry": { "type": "Point", "coordinates": [ 3.63975, 43.48328 ] } },
{ "type": "Feature", "properties": { "gml_id": "ETABLISSEMENTS_POLLUEURS.593892", "identifiant": "0006600863", "idetab": "593892", "nom": "BIOCAMA INDUSTRIE", "codeape": "0811Z", "cp": "34380" }, "geometry": { "type": "Point", "coordinates": [ 3.64507, 43.73022 ] } },
{ "type": "Feature", "properties": { "gml_id": "ETABLISSEMENTS_POLLUEURS.8044", "identifiant": "0006601173", "idetab": "8044", "nom": "SOC EXPL GENERAL PRODUITS INDUSTRIELS", "codeape": "2229A", "cp": "34560" }, "geometry": { "type": "Point", "coordinates": [ 3.68471, 43.48727 ] } },
{ "type": "Feature", "properties": { "gml_id": "ETABLISSEMENTS_POLLUEURS.2664", "identifiant": "0006601262", "idetab": "2664", "nom": "CENTRALE DE COGÉNÉRATION DE SÈTE", "codeape": "3511Z", "cp": "34200" }, "geometry": { "type": "Point", "coordinates": [ 3.69641, 43.406655 ] } },
{ "type": "Feature", "properties": { "gml_id": "ETABLISSEMENTS_POLLUEURS.2665", "identifiant": "0006601270", "idetab": "2665", "nom": "FLEXSYS", "codeape": "2013B", "cp": "34200" }, "geometry": { "type": "Point", "coordinates": [ 3.69641, 43.406655 ] } },
{ "type": "Feature", "properties": { "gml_id": "ETABLISSEMENTS_POLLUEURS.2666", "identifiant": "0006601278", "idetab": "2666", "nom": "TIMAC AGRO SETE", "codeape": "2015Z", "cp": "34200" }, "geometry": { "type": "Point", "coordinates": [ 3.69641, 43.406655 ] } },
{ "type": "Feature", "properties": { "gml_id": "ETABLISSEMENTS_POLLUEURS.594832", "identifiant": "0006601345", "idetab": "594832", "nom": "NOUVELLES CARRIERES DU PIC ST LOUP", "codeape": "0812Z", "cp": "34380" }, "geometry": { "type": "Point", "coordinates": [ 3.69875, 43.73222 ] } },
{ "type": "Feature", "properties": { "gml_id": "ETABLISSEMENTS_POLLUEURS.8041", "identifiant": "0006601016", "idetab": "8041", "nom": "HEXIS", "codeape": "2229B", "cp": "34110" }, "geometry": { "type": "Point", "coordinates": [ 3.71698, 43.42434 ] } },
{ "type": "Feature", "properties": { "gml_id": "ETABLISSEMENTS_POLLUEURS.588076", "identifiant": "0006600977", "idetab": "588076", "nom": "FERT RECYCLAGE", "codeape": "3831Z", "cp": "34660" }, "geometry": { "type": "Point", "coordinates": [ 3.71747, 43.52934 ] } },
{ "type": "Feature", "properties": { "gml_id": "ETABLISSEMENTS_POLLUEURS.2667", "identifiant": "0006601279", "idetab": "2667", "nom": "PAPREC ENERGIES ETANG DE THAU", "codeape": "3821Z", "cp": "34200" }, "geometry": { "type": "Point", "coordinates": [ 3.71861, 43.42088 ] } },
{ "type": "Feature", "properties": { "gml_id": "ETABLISSEMENTS_POLLUEURS.2668", "identifiant": "0006601281", "idetab": "2668", "nom": "SAIPOL", "codeape": "2059Z", "cp": "34204" }, "geometry": { "type": "Point", "coordinates": [ 3.72433, 43.4079 ] } },
{ "type": "Feature", "properties": { "gml_id": "ETABLISSEMENTS_POLLUEURS.595721", "identifiant": "0006600930", "idetab": "595721", "nom": "CARRIERES & MATERIAUX SUD-EST - CMSE", "codeape": "0812Z", "cp": "34190" }, "geometry": { "type": "Point", "coordinates": [ 3.72579, 43.84143 ] } },
{ "type": "Feature", "properties": { "gml_id": "ETABLISSEMENTS_POLLUEURS.5019", "identifiant": "0006601013", "idetab": "5019", "nom": "SCORI", "codeape": "3832Z", "cp": "34110" }, "geometry": { "type": "Point", "coordinates": [ 3.72681, 43.42352 ] } },
{ "type": "Feature", "properties": { "gml_id": "ETABLISSEMENTS_POLLUEURS.597341", "identifiant": "0003702629", "idetab": "597341", "nom": "ETABLISSEMENTS BALSALOBRE - SUD RECYCLAGE", "codeape": "3832Z", "cp": "34570" }, "geometry": { "type": "Point", "coordinates": [ 3.73309, 43.66088 ] } },
{ "type": "Feature", "properties": { "gml_id": "ETABLISSEMENTS_POLLUEURS.2662", "identifiant": "0006601003", "idetab": "2662", "nom": "SOCIETE DE GESTION DE DEPOTS D'HYDROCARBURES", "codeape": "4671Z", "cp": "34110" }, "geometry": { "type": "Point", "coordinates": [ 3.73824, 43.42238 ] } },
{ "type": "Feature", "properties": { "gml_id": "ETABLISSEMENTS_POLLUEURS.13577", "identifiant": "0006601168", "idetab": "13577", "nom": "BIOCAMA INDUSTRIE", "codeape": "0812Z", "cp": "34570" }, "geometry": { "type": "Point", "coordinates": [ 3.76344, 43.583125 ] } },
{ "type": "Feature", "properties": { "gml_id": "ETABLISSEMENTS_POLLUEURS.594416", "identifiant": "0006600974", "idetab": "594416", "nom": "LAFARGE GRANULATS", "codeape": "0812Z", "cp": "34980" }, "geometry": { "type": "Point", "coordinates": [ 3.77, 43.68572 ] } },
{ "type": "Feature", "properties": { "gml_id": "ETABLISSEMENTS_POLLUEURS.13105", "identifiant": "0006601133", "idetab": "13105", "nom": "LANGUEDOC GRANULATS", "codeape": "0812Z", "cp": "34980" }, "geometry": { "type": "Point", "coordinates": [ 3.77632, 43.72184 ] } },
{ "type": "Feature", "properties": { "gml_id": "ETABLISSEMENTS_POLLUEURS.6926", "identifiant": "0006601702", "idetab": "6926", "nom": "CARTE NOIRE OPERATION SAS", "codeape": "1083Z", "cp": "34880" }, "geometry": { "type": "Point", "coordinates": [ 3.80384, 43.58632 ] } },
{ "type": "Feature", "properties": { "gml_id": "ETABLISSEMENTS_POLLUEURS.9913", "identifiant": "0006601050", "idetab": "9913", "nom": "PURFER", "codeape": "3832Z", "cp": "34880" }, "geometry": { "type": "Point", "coordinates": [ 3.81467, 43.59674 ] } },
{ "type": "Feature", "properties": { "gml_id": "ETABLISSEMENTS_POLLUEURS.13108", "identifiant": "0006601339", "idetab": "13108", "nom": "LAFARGE GRANULATS", "codeape": "0812Z", "cp": "34750" }, "geometry": { "type": "Point", "coordinates": [ 3.81896, 43.53149 ] } },
{ "type": "Feature", "properties": { "gml_id": "ETABLISSEMENTS_POLLUEURS.6925", "identifiant": "0006601116", "idetab": "6925", "nom": "SANOFI-AVENTIS RECHERCHE ET DEVELOPPEMENT", "codeape": "7211Z", "cp": "34000" }, "geometry": { "type": "Point", "coordinates": [ 3.83121, 43.62311 ] } },
{ "type": "Feature", "properties": { "gml_id": "ETABLISSEMENTS_POLLUEURS.5020", "identifiant": "0006601105", "idetab": "5020", "nom": "DALKIA", "codeape": "3530Z", "cp": "34000" }, "geometry": { "type": "Point", "coordinates": [ 3.85813, 43.6278 ] } },
{ "type": "Feature", "properties": { "gml_id": "ETABLISSEMENTS_POLLUEURS.8573", "identifiant": "0006602144", "idetab": "8573", "nom": "CENTRE D'ENFOUISSEMENT TECHNIQUE - LE THÔT", "codeape": "900B", "cp": "34750" }, "geometry": { "type": "Point", "coordinates": [ 3.86268, 43.532743 ] } },
{ "type": "Feature", "properties": { "gml_id": "ETABLISSEMENTS_POLLUEURS.599217", "identifiant": "0006601121", "idetab": "599217", "nom": "SOCIETE MEDITERRANEENNE DE NETTOIEMENT", "codeape": "3811Z", "cp": "34000" }, "geometry": { "type": "Point", "coordinates": [ 3.86945, 43.58442 ] } },
{ "type": "Feature", "properties": { "gml_id": "ETABLISSEMENTS_POLLUEURS.13575", "identifiant": "0006601103", "idetab": "13575", "nom": "AUTO EXPRESS", "codeape": "4532Z", "cp": "34070" }, "geometry": { "type": "Point", "coordinates": [ 3.873555, 43.585215 ] } },
{ "type": "Feature", "properties": { "gml_id": "ETABLISSEMENTS_POLLUEURS.595076", "identifiant": "0006601108", "idetab": "595076", "nom": "SOCIETE MEDITERRANEENNE DE NETTOIEMENT", "codeape": "3811Z", "cp": "34000" }, "geometry": { "type": "Point", "coordinates": [ 3.87605, 43.58369 ] } },
{ "type": "Feature", "properties": { "gml_id": "ETABLISSEMENTS_POLLUEURS.13576", "identifiant": "0006601109", "idetab": "13576", "nom": "SARL ESPSOSITO PIERRE", "codeape": "4532Z", "cp": "34000" }, "geometry": { "type": "Point", "coordinates": [ 3.876222, 43.606668 ] } },
{ "type": "Feature", "properties": { "gml_id": "ETABLISSEMENTS_POLLUEURS.6924", "identifiant": "0006601111", "idetab": "6924", "nom": "IBM", "codeape": "6202A", "cp": "34060" }, "geometry": { "type": "Point", "coordinates": [ 3.876222, 43.606668 ] } },
{ "type": "Feature", "properties": { "gml_id": "ETABLISSEMENTS_POLLUEURS.13104", "identifiant": "0006601101", "idetab": "13104", "nom": "ARTISANS REUNIS 34", "codeape": "4520A", "cp": "34070" }, "geometry": { "type": "Point", "coordinates": [ 3.87652, 43.58507 ] } },
{ "type": "Feature", "properties": { "gml_id": "ETABLISSEMENTS_POLLUEURS.9130", "identifiant": "0006601123", "idetab": "9130", "nom": "EPUR LANGUEDOC ROUSSILLON (EX ST PIERRE)", "codeape": "3832Z", "cp": "34000" }, "geometry": { "type": "Point", "coordinates": [ 3.87691, 43.58779 ] } },
{ "type": "Feature", "properties": { "gml_id": "ETABLISSEMENTS_POLLUEURS.588085", "identifiant": "0006604098", "idetab": "588085", "nom": "COMPOST ENVIRONNEMENT", "codeape": "3821Z", "cp": "34150" }, "geometry": { "type": "Point", "coordinates": [ 3.54114, 43.65328 ] } },
{ "type": "Feature", "properties": { "gml_id": "ETABLISSEMENTS_POLLUEURS.13584", "identifiant": "0006604466", "idetab": "13584", "nom": "MB AUTO", "codeape": "4532Z", "cp": "34200" }, "geometry": { "type": "Point", "coordinates": [ 3.69641, 43.406655 ] } },
{ "type": "Feature", "properties": { "gml_id": "ETABLISSEMENTS_POLLUEURS.590525", "identifiant": "0006604484", "idetab": "590525", "nom": "CAR A BOSSES", "codeape": "4532Z", "cp": "34200" }, "geometry": { "type": "Point", "coordinates": [ 3.69641, 43.406655 ] } },
{ "type": "Feature", "properties": { "gml_id": "ETABLISSEMENTS_POLLUEURS.588089", "identifiant": "0006606441", "idetab": "588089", "nom": "COMMUNAUTE AGGLOMERATION BASSIN THAU", "codeape": "4939A", "cp": "34110" }, "geometry": { "type": "Point", "coordinates": [ 3.72877, 43.45929 ] } },
{ "type": "Feature", "properties": { "gml_id": "ETABLISSEMENTS_POLLUEURS.589807", "identifiant": "0006606448", "idetab": "589807", "nom": "MATERIAUX GRAND SUD", "codeape": "3832Z", "cp": "34790" }, "geometry": { "type": "Point", "coordinates": [ 3.7849, 43.65202 ] } },
{ "type": "Feature", "properties": { "gml_id": "ETABLISSEMENTS_POLLUEURS.588092", "identifiant": "0006606449", "idetab": "588092", "nom": "COMMUNE DE LA BOISSIERE", "codeape": "8411Z", "cp": "34150" }, "geometry": { "type": "Point", "coordinates": [ 3.65675, 43.64527 ] } },
{ "type": "Feature", "properties": { "gml_id": "ETABLISSEMENTS_POLLUEURS.589035", "identifiant": "0006606540", "idetab": "589035", "nom": "SYMTOMA ST LAURENT LE MINIER", "codeape": "3811Z", "cp": "30440" }, "geometry": { "type": "Point", "coordinates": [ 3.654967, 43.931091 ] } },
{ "type": "Feature", "properties": { "gml_id": "ETABLISSEMENTS_POLLUEURS.595004", "identifiant": "0009073404", "idetab": "595004", "nom": "SOC DISTRIBUTION D'EAU INTERCOMMUNALE", "codeape": "3600Z", "cp": "34200" }, "geometry": { "type": "Point", "coordinates": [ 3.71861, 43.42088 ] } },
{ "type": "Feature", "properties": { "gml_id": "ETABLISSEMENTS_POLLUEURS.7315", "identifiant": "0018100024", "idetab": "7315", "nom": "JALLATTE", "codeape": "1520Z", "cp": "30170" }, "geometry": { "type": "Point", "coordinates": [ 3.85771, 43.96238 ] } },
{ "type": "Feature", "properties": { "gml_id": "ETABLISSEMENTS_POLLUEURS.589310", "identifiant": "0018300074", "idetab": "589310", "nom": "STEFAN RECYCLAGE", "codeape": "3832Z", "cp": "34270" }, "geometry": { "type": "Point", "coordinates": [ 3.871978, 43.8009 ] } },
{ "type": "Feature", "properties": { "gml_id": "ETABLISSEMENTS_POLLUEURS.8715", "identifiant": "0018300518", "idetab": "8715", "nom": "CA SETE AGGLOPOLE MEDITERRANEE", "codeape": "8411Z", "cp": "34560" }, "geometry": { "type": "Point", "coordinates": [ 3.60366, 43.497 ] } },
{ "type": "Feature", "properties": { "gml_id": "ETABLISSEMENTS_POLLUEURS.13817", "identifiant": "0018300615", "idetab": "13817", "nom": "REMONDIS FRANCE SAS", "codeape": "3822Z", "cp": "34770" }, "geometry": { "type": "Point", "coordinates": [ 3.69998, 43.4894 ] } },
{ "type": "Feature", "properties": { "gml_id": "ETABLISSEMENTS_POLLUEURS.589311", "identifiant": "0018300679", "idetab": "589311", "nom": "ONYX LANGUEDOC ROUSSILLON", "codeape": "3811Z", "cp": "34570" }, "geometry": { "type": "Point", "coordinates": [ 3.75523, 43.56829 ] } },
{ "type": "Feature", "properties": { "gml_id": "ETABLISSEMENTS_POLLUEURS.9346", "identifiant": "0018300683", "idetab": "9346", "nom": "APF ENTREPRISES 34", "codeape": "8810C", "cp": "34000" }, "geometry": { "type": "Point", "coordinates": [ 3.876222, 43.606668 ] } },
{ "type": "Feature", "properties": { "gml_id": "ETABLISSEMENTS_POLLUEURS.10339", "identifiant": "0018300685", "idetab": "10339", "nom": "AMETYST", "codeape": "3821Z", "cp": "34078" }, "geometry": { "type": "Point", "coordinates": [ 3.86131, 43.57612 ] } },
{ "type": "Feature", "properties": { "gml_id": "ETABLISSEMENTS_POLLUEURS.588274", "identifiant": "0053400803", "idetab": "588274", "nom": "AUCHAN SÈTE", "codeape": "4711F", "cp": "34200" }, "geometry": { "type": "Point", "coordinates": [ 3.69641, 43.406655 ] } },
{ "type": "Feature", "properties": { "gml_id": "ETABLISSEMENTS_POLLUEURS.9467", "identifiant": "0073430101", "idetab": "9467", "nom": "STEP - SETE", "codeape": "3700Z", "cp": "34200" }, "geometry": { "type": "Point", "coordinates": [ 3.718346, 43.419729 ] } },
{ "type": "Feature", "properties": { "gml_id": "ETABLISSEMENTS_POLLUEURS.13827", "identifiant": "34301135", "idetab": "13827", "nom": "AUCHAN SÈTE", "codeape": "4711F", "cp": "34200" }, "geometry": { "type": "Point", "coordinates": [ 3.696624, 43.41564 ] } },
{ "type": "Feature", "properties": { "gml_id": "ETABLISSEMENTS_POLLUEURS.3651", "identifiant": "75100174", "idetab": "3651", "nom": "FERMIERE DU LANGUEDOC", "codeape": "0147Z", "cp": "34560" }, "geometry": { "type": "Point", "coordinates": [ 3.697138, 43.523687 ] } },
{ "type": "Feature", "properties": { "gml_id": "ETABLISSEMENTS_POLLUEURS.10924", "identifiant": "0006600948", "idetab": "10924", "nom": "TRIADE ELECTRONIQUE", "codeape": "3832Z", "cp": "34170" }, "geometry": { "type": "Point", "coordinates": [ 3.92419, 43.6312 ] } },
{ "type": "Feature", "properties": { "gml_id": "ETABLISSEMENTS_POLLUEURS.8042", "identifiant": "0006601043", "idetab": "8042", "nom": "SOCIÉTÉ ELECTRIQUE D'AUBENAS", "codeape": "2712Z", "cp": "34970" }, "geometry": { "type": "Point", "coordinates": [ 3.9351, 43.5912 ] } },
{ "type": "Feature", "properties": { "gml_id": "ETABLISSEMENTS_POLLUEURS.592585", "identifiant": "0006600949", "idetab": "592585", "nom": "HEIDELBERG MATERIALS FRANCE GRANULATS", "codeape": "0812Z", "cp": "34160" }, "geometry": { "type": "Point", "coordinates": [ 3.94348, 43.71745 ] } },
{ "type": "Feature", "properties": { "gml_id": "ETABLISSEMENTS_POLLUEURS.2669", "identifiant": "0006601317", "idetab": "2669", "nom": "KNAUF INDUSTRIES EST", "codeape": "2222Z", "cp": "34740" }, "geometry": { "type": "Point", "coordinates": [ 3.949844, 43.656292 ] } },
{ "type": "Feature", "properties": { "gml_id": "ETABLISSEMENTS_POLLUEURS.13578", "identifiant": "0006601316", "idetab": "13578", "nom": "MATERIAUX ROUTIERS DE L'HERAULT", "codeape": "2399Z", "cp": "34161" }, "geometry": { "type": "Point", "coordinates": [ 3.9521, 43.65116 ] } },
{ "type": "Feature", "properties": { "gml_id": "ETABLISSEMENTS_POLLUEURS.590243", "identifiant": "0003700172", "idetab": "590243", "nom": "SURFATECH", "codeape": "2561Z", "cp": "34740" }, "geometry": { "type": "Point", "coordinates": [ 3.956374, 43.651727 ] } },
{ "type": "Feature", "properties": { "gml_id": "ETABLISSEMENTS_POLLUEURS.597384", "identifiant": "0003703802", "idetab": "597384", "nom": "SUEZ RV MEDITERRANEE", "codeape": "3811Z", "cp": "34740" }, "geometry": { "type": "Point", "coordinates": [ 3.95772, 43.65284 ] } },
{ "type": "Feature", "properties": { "gml_id": "ETABLISSEMENTS_POLLUEURS.5024", "identifiant": "0006601703", "idetab": "5024", "nom": "AUXEL SITE DE VENDARGUES", "codeape": "2712Z", "cp": "34740" }, "geometry": { "type": "Point", "coordinates": [ 3.968345, 43.656642 ] } },
{ "type": "Feature", "properties": { "gml_id": "ETABLISSEMENTS_POLLUEURS.6928", "identifiant": "0006601800", "idetab": "6928", "nom": "PROFILS SYSTEMES", "codeape": "2442Z", "cp": "34670" }, "geometry": { "type": "Point", "coordinates": [ 3.99742, 43.65159 ] } },
{ "type": "Feature", "properties": { "gml_id": "ETABLISSEMENTS_POLLUEURS.10930", "identifiant": "0006603588", "idetab": "10930", "nom": "MONTPELLIER MEDITERRANEE METROPOLE", "codeape": "8411Z", "cp": "34160" }, "geometry": { "type": "Point", "coordinates": [ 3.97768, 43.68498 ] } },
{ "type": "Feature", "properties": { "gml_id": "ETABLISSEMENTS_POLLUEURS.598699", "identifiant": "0006603852", "idetab": "598699", "nom": "MIDI UTILITES ET SERVICES ENERGETIQUES", "codeape": "3511Z", "cp": "34000" }, "geometry": { "type": "Point", "coordinates": [ 3.90918, 43.61928 ] } },
{ "type": "Feature", "properties": { "gml_id": "ETABLISSEMENTS_POLLUEURS.588091", "identifiant": "0006606444", "idetab": "588091", "nom": "REGIONALE DE CANALISATIONS", "codeape": "4221Z", "cp": "34820" }, "geometry": { "type": "Point", "coordinates": [ 3.9338, 43.6842 ] } },
{ "type": "Feature", "properties": { "gml_id": "ETABLISSEMENTS_POLLUEURS.592693", "identifiant": "0009073403", "idetab": "592693", "nom": "REGIE DES EAUX DE MONTPELLIER MEDITERRANEE METROPOLE", "codeape": "3600Z", "cp": "34871" }, "geometry": { "type": "Point", "coordinates": [ 3.90187, 43.58345 ] } },
{ "type": "Feature", "properties": { "gml_id": "ETABLISSEMENTS_POLLUEURS.591696", "identifiant": "0018300742", "idetab": "591696", "nom": "PPSB", "codeape": "4677Z", "cp": "34270" }, "geometry": { "type": "Point", "coordinates": [ 3.89443, 43.81609 ] } },
{ "type": "Feature", "properties": { "gml_id": "ETABLISSEMENTS_POLLUEURS.13818", "identifiant": "0018300758", "idetab": "13818", "nom": "REGIE DES EAUX DE MONTPELLIER MEDITERRANEE METROPOLE", "codeape": "3600Z", "cp": "34871" }, "geometry": { "type": "Point", "coordinates": [ 3.90187, 43.58345 ] } },
{ "type": "Feature", "properties": { "gml_id": "ETABLISSEMENTS_POLLUEURS.9466", "identifiant": "0073412901", "idetab": "9466", "nom": "STEP - MAERA", "codeape": "3700Z", "cp": "34970" }, "geometry": { "type": "Point", "coordinates": [ 3.90523, 43.582769 ] } },
{ "type": "Feature", "properties": { "gml_id": "ETABLISSEMENTS_POLLUEURS.598934", "identifiant": "0100003502", "idetab": "598934", "nom": "PLASTICLEAN", "codeape": "3832Z", "cp": "34740" }, "geometry": { "type": "Point", "coordinates": [ 3.95304, 43.6583 ] } },
{ "type": "Feature", "properties": { "gml_id": "ETABLISSEMENTS_POLLUEURS.9911", "identifiant": "0006600827", "idetab": "9911", "nom": "CSP PARIS FASHION GROUP", "codeape": "1431Z", "cp": "30120" }, "geometry": { "type": "Point", "coordinates": [ 3.61254, 43.98908 ] } }
]
}
