{
"type": "FeatureCollection",
"name": "ms:ETABLISSEMENTS_POLLUEURS",
"crs": { "type": "name", "properties": { "name": "urn:ogc:def:crs:OGC:1.3:CRS84" } },
"features": [
{ "type": "Feature", "properties": { "gml_id": "ETABLISSEMENTS_POLLUEURS.3263", "identifiant": "0010000008", "idetab": "3263", "nom": "BERNARDY", "codeape": "2015Z", "cp": "18100" }, "geometry": { "type": "Point", "coordinates": [ 1.95862, 47.24973 ] } },
{ "type": "Feature", "properties": { "gml_id": "ETABLISSEMENTS_POLLUEURS.590652", "identifiant": "0010003791", "idetab": "590652", "nom": "LAITERIE DE VERNEUIL - COOPERATIVE TOURAINE-BERRY", "codeape": "1051A", "cp": "37600" }, "geometry": { "type": "Point", "coordinates": [ 1.05179, 47.07024 ] } },
{ "type": "Feature", "properties": { "gml_id": "ETABLISSEMENTS_POLLUEURS.8219", "identifiant": "0010001755", "idetab": "8219", "nom": "ACIAL", "codeape": "3101Z", "cp": "41110" }, "geometry": { "type": "Point", "coordinates": [ 1.35761, 47.25792 ] } },
{ "type": "Feature", "properties": { "gml_id": "ETABLISSEMENTS_POLLUEURS.5526", "identifiant": "0010001754", "idetab": "5526", "nom": "ACIAL", "codeape": "3101Z", "cp": "41110" }, "geometry": { "type": "Point", "coordinates": [ 1.35993, 47.26161 ] } },
{ "type": "Feature", "properties": { "gml_id": "ETABLISSEMENTS_POLLUEURS.5477", "identifiant": "0010000680", "idetab": "5477", "nom": "STORENGY FRANCE", "codeape": "5210B", "cp": "37460" }, "geometry": { "type": "Point", "coordinates": [ 1.2168, 47.2826 ] } },
{ "type": "Feature", "properties": { "gml_id": "ETABLISSEMENTS_POLLUEURS.591655", "identifiant": "0010004477", "idetab": "591655", "nom": "MECASTING COMECA", "codeape": "2453Z", "cp": "37150" }, "geometry": { "type": "Point", "coordinates": [ 1.014651, 47.325104 ] } },
{ "type": "Feature", "properties": { "gml_id": "ETABLISSEMENTS_POLLUEURS.7223", "identifiant": "0010001803", "idetab": "7223", "nom": "DAHER AEROSPACE, ÉTABLISSEMENT DE SAINT-JULIEN DE CHEDON", "codeape": "2229A", "cp": "41401" }, "geometry": { "type": "Point", "coordinates": [ 1.185232, 47.345213 ] } },
{ "type": "Feature", "properties": { "gml_id": "ETABLISSEMENTS_POLLUEURS.7227", "identifiant": "0010003805", "idetab": "7227", "nom": "PROVA SAS", "codeape": "2120Z", "cp": "41400" }, "geometry": { "type": "Point", "coordinates": [ 1.19611, 47.352485 ] } },
{ "type": "Feature", "properties": { "gml_id": "ETABLISSEMENTS_POLLUEURS.8226", "identifiant": "0010003850", "idetab": "8226", "nom": "CENTRE DE TRANSFERT DE CHOUSSY", "codeape": "3811Z", "cp": "41700" }, "geometry": { "type": "Point", "coordinates": [ 1.347266, 47.373017 ] } },
{ "type": "Feature", "properties": { "gml_id": "ETABLISSEMENTS_POLLUEURS.5478", "identifiant": "0010000686", "idetab": "5478", "nom": "INNOVATIVE WATER CARE EUROPE SAS", "codeape": "4675Z", "cp": "37402" }, "geometry": { "type": "Point", "coordinates": [ 1.01923, 47.41471 ] } },
{ "type": "Feature", "properties": { "gml_id": "ETABLISSEMENTS_POLLUEURS.12480", "identifiant": "0010000768", "idetab": "12480", "nom": "AALBERTS SURFACE TECHNOLOGIES SAS", "codeape": "2561Z", "cp": "37400" }, "geometry": { "type": "Point", "coordinates": [ 1.01923, 47.41471 ] } },
{ "type": "Feature", "properties": { "gml_id": "ETABLISSEMENTS_POLLUEURS.589932", "identifiant": "0010000741", "idetab": "589932", "nom": "MECACHROME FRANCE", "codeape": "2562B", "cp": "37400" }, "geometry": { "type": "Point", "coordinates": [ 1.02675, 47.41535 ] } },
{ "type": "Feature", "properties": { "gml_id": "ETABLISSEMENTS_POLLUEURS.594779", "identifiant": "0010006350", "idetab": "594779", "nom": "H.G.P.", "codeape": "2511Z", "cp": "37400" }, "geometry": { "type": "Point", "coordinates": [ 1.01882, 47.41721 ] } },
{ "type": "Feature", "properties": { "gml_id": "ETABLISSEMENTS_POLLUEURS.9299", "identifiant": "0010001828", "idetab": "9299", "nom": "CONSERVES DU BLAISOIS SICA", "codeape": "1039A", "cp": "41700" }, "geometry": { "type": "Point", "coordinates": [ 1.428697, 47.417998 ] } },
{ "type": "Feature", "properties": { "gml_id": "ETABLISSEMENTS_POLLUEURS.589953", "identifiant": "0010004295", "idetab": "589953", "nom": "SARL EUROPIECES AUTO", "codeape": "4532Z", "cp": "37530" }, "geometry": { "type": "Point", "coordinates": [ 1.0567, 47.43436 ] } },
{ "type": "Feature", "properties": { "gml_id": "ETABLISSEMENTS_POLLUEURS.595851", "identifiant": "0010012348", "idetab": "595851", "nom": "FAISANDERIE DE CLERMOY", "codeape": "0149Z", "cp": "41700" }, "geometry": { "type": "Point", "coordinates": [ 1.410639, 47.438282 ] } },
{ "type": "Feature", "properties": { "gml_id": "ETABLISSEMENTS_POLLUEURS.591679", "identifiant": "0010013582", "idetab": "591679", "nom": "AMBOISIENNE DE RECUPERATION", "codeape": "3832Z", "cp": "37400" }, "geometry": { "type": "Point", "coordinates": [ 1.01198, 47.41328 ] } },
{ "type": "Feature", "properties": { "gml_id": "ETABLISSEMENTS_POLLUEURS.595261", "identifiant": "0053700192", "idetab": "595261", "nom": "CANARDERIE DE LA RONDE", "codeape": "0149Z", "cp": "37460" }, "geometry": { "type": "Point", "coordinates": [ 1.22969, 47.26784 ] } },
{ "type": "Feature", "properties": { "gml_id": "ETABLISSEMENTS_POLLUEURS.596003", "identifiant": "0053700445", "idetab": "596003", "nom": "DES PLACIERS", "codeape": "0146Z", "cp": "37600" }, "geometry": { "type": "Point", "coordinates": [ 1.07552, 47.13656 ] } },
{ "type": "Feature", "properties": { "gml_id": "ETABLISSEMENTS_POLLUEURS.591004", "identifiant": "0053700447", "idetab": "591004", "nom": "EARL DENONAIN ET FILS", "codeape": "0150Z", "cp": "37600" }, "geometry": { "type": "Point", "coordinates": [ 1.036555, 47.138959 ] } },
{ "type": "Feature", "properties": { "gml_id": "ETABLISSEMENTS_POLLUEURS.595804", "identifiant": "0053700566", "idetab": "595804", "nom": "EARL LA MOSELLERIE", "codeape": "0150Z", "cp": "37460" }, "geometry": { "type": "Point", "coordinates": [ 1.20226, 47.08543 ] } },
{ "type": "Feature", "properties": { "gml_id": "ETABLISSEMENTS_POLLUEURS.591006", "identifiant": "0053700722", "idetab": "591006", "nom": "DE L'IDEE", "codeape": "0150Z", "cp": "37460" }, "geometry": { "type": "Point", "coordinates": [ 1.28604, 47.08014 ] } },
{ "type": "Feature", "properties": { "gml_id": "ETABLISSEMENTS_POLLUEURS.591007", "identifiant": "0053701096", "idetab": "591007", "nom": "GRIMAUD FRERES SELECTION", "codeape": "0149Z", "cp": "37530" }, "geometry": { "type": "Point", "coordinates": [ 1.09248, 47.41184 ] } },
{ "type": "Feature", "properties": { "gml_id": "ETABLISSEMENTS_POLLUEURS.591770", "identifiant": "0054100002", "idetab": "591770", "nom": "SOC CIVILE AGRICOLE DE LA SABLIERE", "codeape": "0111Z", "cp": "41400" }, "geometry": { "type": "Point", "coordinates": [ 1.23928, 47.29077 ] } },
{ "type": "Feature", "properties": { "gml_id": "ETABLISSEMENTS_POLLUEURS.595930", "identifiant": "0054100073", "idetab": "595930", "nom": "REITZEL BRIAND", "codeape": "1084Z", "cp": "41400" }, "geometry": { "type": "Point", "coordinates": [ 1.2189, 47.35675 ] } },
{ "type": "Feature", "properties": { "gml_id": "ETABLISSEMENTS_POLLUEURS.597930", "identifiant": "0054100448", "idetab": "597930", "nom": "ETS SEGRAIS", "codeape": "1011Z", "cp": "41150" }, "geometry": { "type": "Point", "coordinates": [ 1.16892, 47.49691 ] } },
{ "type": "Feature", "properties": { "gml_id": "ETABLISSEMENTS_POLLUEURS.592322", "identifiant": "0054100535", "idetab": "592322", "nom": "ZOO PARC DE BEAUVAL", "codeape": "9104Z", "cp": "41110" }, "geometry": { "type": "Point", "coordinates": [ 1.35067, 47.24719 ] } },
{ "type": "Feature", "properties": { "gml_id": "ETABLISSEMENTS_POLLUEURS.5583", "identifiant": "10370098", "idetab": "5583", "nom": "SA GALOR", "codeape": "0147Z", "cp": "37530" }, "geometry": { "type": "Point", "coordinates": [ 1.094752, 47.419516 ] } },
{ "type": "Feature", "properties": { "gml_id": "ETABLISSEMENTS_POLLUEURS.7393", "identifiant": "39455384", "idetab": "7393", "nom": "GAEC DE L'IDEE", "codeape": "0150Z", "cp": "37460" }, "geometry": { "type": "Point", "coordinates": [ 1.302889, 47.143913 ] } },
{ "type": "Feature", "properties": { "gml_id": "ETABLISSEMENTS_POLLUEURS.7394", "identifiant": "40136823", "idetab": "7394", "nom": "EARL DENONAIN ET FILS", "codeape": "0146Z", "cp": "37600" }, "geometry": { "type": "Point", "coordinates": [ 1.041718, 47.147236 ] } },
{ "type": "Feature", "properties": { "gml_id": "ETABLISSEMENTS_POLLUEURS.9404", "identifiant": "41002189", "idetab": "9404", "nom": "DE LA SABLIERE (SCA)", "codeape": "0113Z", "cp": "41100" }, "geometry": { "type": "Point", "coordinates": [ 1.243084, 47.340152 ] } },
{ "type": "Feature", "properties": { "gml_id": "ETABLISSEMENTS_POLLUEURS.7396", "identifiant": "41023116", "idetab": "7396", "nom": "REITZEL BRIAND", "codeape": "1039A", "cp": "41400" }, "geometry": { "type": "Point", "coordinates": [ 1.220075, 47.35509 ] } },
{ "type": "Feature", "properties": { "gml_id": "ETABLISSEMENTS_POLLUEURS.9405", "identifiant": "41094800", "idetab": "9405", "nom": "COLLIN MICHEL", "codeape": "012G", "cp": "41700" }, "geometry": { "type": "Point", "coordinates": [ 1.412515, 47.44322 ] } },
{ "type": "Feature", "properties": { "gml_id": "ETABLISSEMENTS_POLLUEURS.5941", "identifiant": "77559405", "idetab": "5941", "nom": "COOPERATIVE LAITIERE DE LA REGION LOCHOISE", "codeape": "1051A", "cp": "37600" }, "geometry": { "type": "Point", "coordinates": [ 1.051916, 47.061478 ] } },
{ "type": "Feature", "properties": { "gml_id": "ETABLISSEMENTS_POLLUEURS.7208", "identifiant": "0010000538", "idetab": "7208", "nom": "FOMES", "codeape": "275A", "cp": "36600" }, "geometry": { "type": "Point", "coordinates": [ 1.44331, 47.133602 ] } },
{ "type": "Feature", "properties": { "gml_id": "ETABLISSEMENTS_POLLUEURS.9289", "identifiant": "0010000622", "idetab": "9289", "nom": "SOFEVAL VALENCAY", "codeape": "2511Z", "cp": "36600" }, "geometry": { "type": "Point", "coordinates": [ 1.56742, 47.1506 ] } },
{ "type": "Feature", "properties": { "gml_id": "ETABLISSEMENTS_POLLUEURS.3304", "identifiant": "0010000612", "idetab": "3304", "nom": "SOCIETE D'EXPLOITATION DES TRAITEMENTS DE SURFACE", "codeape": "2561Z", "cp": "36210" }, "geometry": { "type": "Point", "coordinates": [ 1.63828, 47.24618 ] } },
{ "type": "Feature", "properties": { "gml_id": "ETABLISSEMENTS_POLLUEURS.8231", "identifiant": "0010004383", "idetab": "8231", "nom": "INTER METAL", "codeape": "3101Z", "cp": "36210" }, "geometry": { "type": "Point", "coordinates": [ 1.63828, 47.24618 ] } },
{ "type": "Feature", "properties": { "gml_id": "ETABLISSEMENTS_POLLUEURS.589963", "identifiant": "0010004941", "idetab": "589963", "nom": "GIEVRES AUTO-MOTO", "codeape": "4511Z", "cp": "41130" }, "geometry": { "type": "Point", "coordinates": [ 1.66526, 47.275621 ] } },
{ "type": "Feature", "properties": { "gml_id": "ETABLISSEMENTS_POLLUEURS.12161", "identifiant": "0009000153", "idetab": "12161", "nom": "BA 273", "codeape": "8422Z", "cp": "41130" }, "geometry": { "type": "Point", "coordinates": [ 1.63716, 47.27706 ] } },
{ "type": "Feature", "properties": { "gml_id": "ETABLISSEMENTS_POLLUEURS.3417", "identifiant": "0010003838", "idetab": "3417", "nom": "PRODUITS CERAMIQUES DE TOURAINE", "codeape": "2342Z", "cp": "41130" }, "geometry": { "type": "Point", "coordinates": [ 1.550389, 47.277873 ] } },
{ "type": "Feature", "properties": { "gml_id": "ETABLISSEMENTS_POLLUEURS.8608", "identifiant": "0010004997", "idetab": "8608", "nom": "LANDRE - CSDMA VILLEFRANCHE", "codeape": "4312B", "cp": "41200" }, "geometry": { "type": "Point", "coordinates": [ 1.728755, 47.288155 ] } },
{ "type": "Feature", "properties": { "gml_id": "ETABLISSEMENTS_POLLUEURS.589961", "identifiant": "0010004919", "idetab": "589961", "nom": "CASS' AUTOS MEUNIER C.", "codeape": "4511Z", "cp": "41130" }, "geometry": { "type": "Point", "coordinates": [ 1.51109, 47.3105 ] } },
{ "type": "Feature", "properties": { "gml_id": "ETABLISSEMENTS_POLLUEURS.13360", "identifiant": "0010001802", "idetab": "13360", "nom": "STAL INDUSTRIE", "codeape": "3101Z", "cp": "41200" }, "geometry": { "type": "Point", "coordinates": [ 1.74532, 47.34052 ] } },
{ "type": "Feature", "properties": { "gml_id": "ETABLISSEMENTS_POLLUEURS.11973", "identifiant": "0010005315", "idetab": "11973", "nom": "SOCIETE DE TOLERIE POUR L'ELECTRONIQUE PROFESSIONNELLE", "codeape": "2511Z", "cp": "41200" }, "geometry": { "type": "Point", "coordinates": [ 1.74736, 47.3469 ] } },
{ "type": "Feature", "properties": { "gml_id": "ETABLISSEMENTS_POLLUEURS.5525", "identifiant": "0010001753", "idetab": "5525", "nom": "ECO PLANET RECYCLING", "codeape": "3822Z", "cp": "41200" }, "geometry": { "type": "Point", "coordinates": [ 1.73741, 47.34822 ] } },
{ "type": "Feature", "properties": { "gml_id": "ETABLISSEMENTS_POLLUEURS.3396", "identifiant": "0010001778", "idetab": "3396", "nom": "LAFORTEZZA-ALSER EN ABREVIATION LFA", "codeape": "3109B", "cp": "41200" }, "geometry": { "type": "Point", "coordinates": [ 1.73741, 47.34822 ] } },
{ "type": "Feature", "properties": { "gml_id": "ETABLISSEMENTS_POLLUEURS.3390", "identifiant": "0010001761", "idetab": "3390", "nom": "CAILLAU", "codeape": "2599B", "cp": "41200" }, "geometry": { "type": "Point", "coordinates": [ 1.73926, 47.35077 ] } },
{ "type": "Feature", "properties": { "gml_id": "ETABLISSEMENTS_POLLUEURS.9298", "identifiant": "0010001818", "idetab": "9298", "nom": "REVIVAL", "codeape": "3832Z", "cp": "41200" }, "geometry": { "type": "Point", "coordinates": [ 1.75398, 47.35232 ] } },
{ "type": "Feature", "properties": { "gml_id": "ETABLISSEMENTS_POLLUEURS.3399", "identifiant": "0010001783", "idetab": "3399", "nom": "MATRA AUTOMOBILE ROMO 3", "codeape": "341Z", "cp": "41200" }, "geometry": { "type": "Point", "coordinates": [ 1.738176, 47.360077 ] } },
{ "type": "Feature", "properties": { "gml_id": "ETABLISSEMENTS_POLLUEURS.3394", "identifiant": "0010001770", "idetab": "3394", "nom": "STORENGY FRANCE", "codeape": "5210B", "cp": "41700" }, "geometry": { "type": "Point", "coordinates": [ 1.4822, 47.39 ] } },
{ "type": "Feature", "properties": { "gml_id": "ETABLISSEMENTS_POLLUEURS.12486", "identifiant": "0010005940", "idetab": "12486", "nom": "S O C C O I M", "codeape": "3811Z", "cp": "41230" }, "geometry": { "type": "Point", "coordinates": [ 1.5302, 47.41349 ] } },
{ "type": "Feature", "properties": { "gml_id": "ETABLISSEMENTS_POLLUEURS.5528", "identifiant": "0010001771", "idetab": "5528", "nom": "STORENGY FRANCE", "codeape": "5210B", "cp": "41230" }, "geometry": { "type": "Point", "coordinates": [ 1.50214, 47.42167 ] } },
{ "type": "Feature", "properties": { "gml_id": "ETABLISSEMENTS_POLLUEURS.11117", "identifiant": "0010006053", "idetab": "11117", "nom": "KAAK COATING SERVICE", "codeape": "2229B", "cp": "41700" }, "geometry": { "type": "Point", "coordinates": [ 1.44474, 47.42804 ] } },
{ "type": "Feature", "properties": { "gml_id": "ETABLISSEMENTS_POLLUEURS.8229", "identifiant": "0010004079", "idetab": "8229", "nom": "SOCIETE ORLEANAISE D'ASSAINISSEMENT", "codeape": "3821Z", "cp": "41700" }, "geometry": { "type": "Point", "coordinates": [ 1.44649, 47.42958 ] } },
{ "type": "Feature", "properties": { "gml_id": "ETABLISSEMENTS_POLLUEURS.3404", "identifiant": "0010001799", "idetab": "3404", "nom": "SYND MIXTE ENLEVEMENT ORDURES MENAGERES", "codeape": "3811Z", "cp": "41230" }, "geometry": { "type": "Point", "coordinates": [ 1.67924, 47.49893 ] } },
{ "type": "Feature", "properties": { "gml_id": "ETABLISSEMENTS_POLLUEURS.5546", "identifiant": "0010003836", "idetab": "5546", "nom": "ISOBOX TECHNOLOGIES", "codeape": "2222Z", "cp": "41230" }, "geometry": { "type": "Point", "coordinates": [ 1.673535, 47.504678 ] } },
{ "type": "Feature", "properties": { "gml_id": "ETABLISSEMENTS_POLLUEURS.591900", "identifiant": "0010004102", "idetab": "591900", "nom": "SABLIERES PLOUX FRERES", "codeape": "0812Z", "cp": "41220" }, "geometry": { "type": "Point", "coordinates": [ 1.54342, 47.68635 ] } },
{ "type": "Feature", "properties": { "gml_id": "ETABLISSEMENTS_POLLUEURS.589964", "identifiant": "0010004946", "idetab": "589964", "nom": "SYND MIXTE ENLEVEMENT ORDURES MENAGERES", "codeape": "3811Z", "cp": "41500" }, "geometry": { "type": "Point", "coordinates": [ 1.50373, 47.69109 ] } },
{ "type": "Feature", "properties": { "gml_id": "ETABLISSEMENTS_POLLUEURS.13376", "identifiant": "0010007010", "idetab": "13376", "nom": "MEGISSERIE JULLIEN", "codeape": "1511Z", "cp": "36210" }, "geometry": { "type": "Point", "coordinates": [ 1.638111, 47.24642 ] } },
{ "type": "Feature", "properties": { "gml_id": "ETABLISSEMENTS_POLLUEURS.3436", "identifiant": "0010007111", "idetab": "3436", "nom": "SUEZ RV CENTRE OUEST", "codeape": "3821Z", "cp": "41200" }, "geometry": { "type": "Point", "coordinates": [ 1.81275, 47.33421 ] } },
{ "type": "Feature", "properties": { "gml_id": "ETABLISSEMENTS_POLLUEURS.7244", "identifiant": "0010007321", "idetab": "7244", "nom": "SUEZ RV CENTRE OUEST", "codeape": "3821Z", "cp": "36600" }, "geometry": { "type": "Point", "coordinates": [ 1.53807, 47.10776 ] } },
{ "type": "Feature", "properties": { "gml_id": "ETABLISSEMENTS_POLLUEURS.590666", "identifiant": "0010007654", "idetab": "590666", "nom": "SOCIETE DES MATERIAUX DU VAL DE LOIRE", "codeape": "0812Z", "cp": "41500" }, "geometry": { "type": "Point", "coordinates": [ 1.49936, 47.67263 ] } },
{ "type": "Feature", "properties": { "gml_id": "ETABLISSEMENTS_POLLUEURS.10300", "identifiant": "0010007720", "idetab": "10300", "nom": "INDRA SAS", "codeape": "3832Z", "cp": "41200" }, "geometry": { "type": "Point", "coordinates": [ 1.7109, 47.36632 ] } },
{ "type": "Feature", "properties": { "gml_id": "ETABLISSEMENTS_POLLUEURS.596768", "identifiant": "0010007844", "idetab": "596768", "nom": "SYND MIXTE ENLEVEMENT ORDURES MENAGERES", "codeape": "3811Z", "cp": "41220" }, "geometry": { "type": "Point", "coordinates": [ 1.56521, 47.68606 ] } },
{ "type": "Feature", "properties": { "gml_id": "ETABLISSEMENTS_POLLUEURS.11124", "identifiant": "0010008482", "idetab": "11124", "nom": "AIRNOV FRANCE", "codeape": "2222Z", "cp": "41200" }, "geometry": { "type": "Point", "coordinates": [ 1.73423, 47.37563 ] } },
{ "type": "Feature", "properties": { "gml_id": "ETABLISSEMENTS_POLLUEURS.11981", "identifiant": "0010008713", "idetab": "11981", "nom": "CUILLERIER S.N.C.", "codeape": "0891Z", "cp": "41200" }, "geometry": { "type": "Point", "coordinates": [ 1.738176, 47.360077 ] } },
{ "type": "Feature", "properties": { "gml_id": "ETABLISSEMENTS_POLLUEURS.592356", "identifiant": "0010011139", "idetab": "592356", "nom": "DÉCHETTERIE DE VALENÇAY", "codeape": "3811Z", "cp": "36600" }, "geometry": { "type": "Point", "coordinates": [ 1.562266, 47.158883 ] } },
{ "type": "Feature", "properties": { "gml_id": "ETABLISSEMENTS_POLLUEURS.597372", "identifiant": "0010011304", "idetab": "597372", "nom": "SCI ETCHE LOG", "codeape": "6820B", "cp": "41500" }, "geometry": { "type": "Point", "coordinates": [ 1.50768, 47.70855 ] } },
{ "type": "Feature", "properties": { "gml_id": "ETABLISSEMENTS_POLLUEURS.588207", "identifiant": "0010011518", "idetab": "588207", "nom": "EUROCOATINGS", "codeape": "2030Z", "cp": "41500" }, "geometry": { "type": "Point", "coordinates": [ 1.50337, 47.71382 ] } },
{ "type": "Feature", "properties": { "gml_id": "ETABLISSEMENTS_POLLUEURS.590026", "identifiant": "0010011865", "idetab": "590026", "nom": "CLAISSE LOCATION MATERIEL TRAVAUX PUBLICS", "codeape": "5210B", "cp": "41130" }, "geometry": { "type": "Point", "coordinates": [ 1.68382, 47.29519 ] } },
{ "type": "Feature", "properties": { "gml_id": "ETABLISSEMENTS_POLLUEURS.592280", "identifiant": "0010013087", "idetab": "592280", "nom": "CAILLAU", "codeape": "2599B", "cp": "41200" }, "geometry": { "type": "Point", "coordinates": [ 1.717384, 47.371063 ] } },
{ "type": "Feature", "properties": { "gml_id": "ETABLISSEMENTS_POLLUEURS.599332", "identifiant": "0010013816", "idetab": "599332", "nom": "METAPHORE", "codeape": "3521Z", "cp": "36600" }, "geometry": { "type": "Point", "coordinates": [ 1.57382, 47.18422 ] } },
{ "type": "Feature", "properties": { "gml_id": "ETABLISSEMENTS_POLLUEURS.599323", "identifiant": "0010013913", "idetab": "599323", "nom": "BIOENERGIES 123", "codeape": "3511Z", "cp": "36150" }, "geometry": { "type": "Point", "coordinates": [ 1.84994, 47.07163 ] } },
{ "type": "Feature", "properties": { "gml_id": "ETABLISSEMENTS_POLLUEURS.13493", "identifiant": "0053600436", "idetab": "13493", "nom": "LAITERIE DE VARENNES", "codeape": "1051A", "cp": "36210" }, "geometry": { "type": "Point", "coordinates": [ 1.60782, 47.2239 ] } },
{ "type": "Feature", "properties": { "gml_id": "ETABLISSEMENTS_POLLUEURS.595245", "identifiant": "0054100182", "idetab": "595245", "nom": "ST MICHEL CONTRES", "codeape": "1072Z", "cp": "41700" }, "geometry": { "type": "Point", "coordinates": [ 1.43993, 47.42916 ] } },
{ "type": "Feature", "properties": { "gml_id": "ETABLISSEMENTS_POLLUEURS.592299", "identifiant": "0054100183", "idetab": "592299", "nom": "ST MICHEL CONTRES", "codeape": "1072Z", "cp": "41700" }, "geometry": { "type": "Point", "coordinates": [ 1.44026, 47.426839 ] } },
{ "type": "Feature", "properties": { "gml_id": "ETABLISSEMENTS_POLLUEURS.597776", "identifiant": "0054100601", "idetab": "597776", "nom": "EARL DE LA SAVARDIERE", "codeape": "0111Z", "cp": "41320" }, "geometry": { "type": "Point", "coordinates": [ 1.75935, 47.27878 ] } },
{ "type": "Feature", "properties": { "gml_id": "ETABLISSEMENTS_POLLUEURS.598475", "identifiant": "0100023340", "idetab": "598475", "nom": "COMITE D'ETABLISSEMENT LOIR ET CHER DE SOCCOIM", "codeape": "9499Z", "cp": "41230" }, "geometry": { "type": "Point", "coordinates": [ 1.56216, 47.42376 ] } },
{ "type": "Feature", "properties": { "gml_id": "ETABLISSEMENTS_POLLUEURS.7389", "identifiant": "36156758", "idetab": "7389", "nom": "EARL GROUSSIN OLIVIER", "codeape": "012G", "cp": "36110" }, "geometry": { "type": "Point", "coordinates": [ 1.661645, 47.081227 ] } },
{ "type": "Feature", "properties": { "gml_id": "ETABLISSEMENTS_POLLUEURS.11422", "identifiant": "0010005409", "idetab": "11422", "nom": "MAXAM FRANCE", "codeape": "2051Z", "cp": "41300" }, "geometry": { "type": "Point", "coordinates": [ 1.956734, 47.385631 ] } },
{ "type": "Feature", "properties": { "gml_id": "ETABLISSEMENTS_POLLUEURS.589992", "identifiant": "0010007997", "idetab": "589992", "nom": "SMICTOM À SELLES-SAINT-DENIS", "codeape": "3832Z", "cp": "41300" }, "geometry": { "type": "Point", "coordinates": [ 1.92335, 47.386641 ] } },
{ "type": "Feature", "properties": { "gml_id": "ETABLISSEMENTS_POLLUEURS.5530", "identifiant": "0010001789", "idetab": "5530", "nom": "MBDA FRANCE", "codeape": "3030Z", "cp": "41300" }, "geometry": { "type": "Point", "coordinates": [ 1.92109, 47.38772 ] } },
{ "type": "Feature", "properties": { "gml_id": "ETABLISSEMENTS_POLLUEURS.5529", "identifiant": "0010001773", "idetab": "5529", "nom": "GROUPE C", "codeape": "2540Z", "cp": "41300" }, "geometry": { "type": "Point", "coordinates": [ 1.9883, 47.448602 ] } },
{ "type": "Feature", "properties": { "gml_id": "ETABLISSEMENTS_POLLUEURS.590029", "identifiant": "0010012177", "idetab": "590029", "nom": "SOLOGNE BIOGAZ", "codeape": "3521Z", "cp": "45240" }, "geometry": { "type": "Point", "coordinates": [ 1.917879, 47.709468 ] } },
{ "type": "Feature", "properties": { "gml_id": "ETABLISSEMENTS_POLLUEURS.589970", "identifiant": "0010005646", "idetab": "589970", "nom": "SYNDICAT MIXTE DE COLLECTE ET DE TRAITEMENT DES ORDURES MENAGERES DE SOLOGNE", "codeape": "3811Z", "cp": "45240" }, "geometry": { "type": "Point", "coordinates": [ 1.94229, 47.71142 ] } },
{ "type": "Feature", "properties": { "gml_id": "ETABLISSEMENTS_POLLUEURS.8230", "identifiant": "0010004259", "idetab": "8230", "nom": "ROXEL", "codeape": "3030Z", "cp": "45240" }, "geometry": { "type": "Point", "coordinates": [ 1.941447, 47.723608 ] } },
{ "type": "Feature", "properties": { "gml_id": "ETABLISSEMENTS_POLLUEURS.3385", "identifiant": "0010001696", "idetab": "3385", "nom": "THALES LAS FRANCE SAS", "codeape": "2540Z", "cp": "45240" }, "geometry": { "type": "Point", "coordinates": [ 1.91069, 47.75081 ] } },
{ "type": "Feature", "properties": { "gml_id": "ETABLISSEMENTS_POLLUEURS.3348", "identifiant": "0010001210", "idetab": "3348", "nom": "HITACHI COMPUTEUR PRODUCTS (EUROPE) S.A.S", "codeape": "2620Z", "cp": "45160" }, "geometry": { "type": "Point", "coordinates": [ 1.874177, 47.778223 ] } },
{ "type": "Feature", "properties": { "gml_id": "ETABLISSEMENTS_POLLUEURS.11112", "identifiant": "0010005260", "idetab": "11112", "nom": "REBORN NORMANDIE", "codeape": "2221Z", "cp": "45590" }, "geometry": { "type": "Point", "coordinates": [ 1.95253, 47.81228 ] } },
{ "type": "Feature", "properties": { "gml_id": "ETABLISSEMENTS_POLLUEURS.5490", "identifiant": "0010000896", "idetab": "5490", "nom": "BRENNTAG SA", "codeape": "4675Z", "cp": "45590" }, "geometry": { "type": "Point", "coordinates": [ 1.95225, 47.81286 ] } },
{ "type": "Feature", "properties": { "gml_id": "ETABLISSEMENTS_POLLUEURS.589248", "identifiant": "0010002267", "idetab": "589248", "nom": "CARGILL FOODS FRANCE", "codeape": "1085Z", "cp": "45590" }, "geometry": { "type": "Point", "coordinates": [ 1.95403, 47.81759 ] } },
{ "type": "Feature", "properties": { "gml_id": "ETABLISSEMENTS_POLLUEURS.11965", "identifiant": "0010001129", "idetab": "11965", "nom": "FM FRANCE", "codeape": "5210B", "cp": "45590" }, "geometry": { "type": "Point", "coordinates": [ 1.96306, 47.81823 ] } },
{ "type": "Feature", "properties": { "gml_id": "ETABLISSEMENTS_POLLUEURS.8209", "identifiant": "0010000951", "idetab": "8209", "nom": "COMPAGNIE GENERALE D'EAUX DE SOURCE", "codeape": "1107A", "cp": "45100" }, "geometry": { "type": "Point", "coordinates": [ 1.944798, 47.820293 ] } },
{ "type": "Feature", "properties": { "gml_id": "ETABLISSEMENTS_POLLUEURS.9293", "identifiant": "0010001259", "idetab": "9293", "nom": "FEDERAL-MOGUL VALVETRAIN LA SOURCE SAS", "codeape": "2932Z", "cp": "45000" }, "geometry": { "type": "Point", "coordinates": [ 1.945047, 47.821925 ] } },
{ "type": "Feature", "properties": { "gml_id": "ETABLISSEMENTS_POLLUEURS.3364", "identifiant": "0010001418", "idetab": "3364", "nom": "DELPHARM ORLEANS", "codeape": "2120Z", "cp": "45000" }, "geometry": { "type": "Point", "coordinates": [ 1.93383, 47.82515 ] } },
{ "type": "Feature", "properties": { "gml_id": "ETABLISSEMENTS_POLLUEURS.592049", "identifiant": "0010000897", "idetab": "592049", "nom": "BRGM", "codeape": "7219Z", "cp": "45000" }, "geometry": { "type": "Point", "coordinates": [ 1.93728, 47.8299 ] } },
{ "type": "Feature", "properties": { "gml_id": "ETABLISSEMENTS_POLLUEURS.5506", "identifiant": "0010001321", "idetab": "5506", "nom": "SEMOFLEX VAL DE LOIRE/LA MAISON PILOTE", "codeape": "2221Z", "cp": "45590" }, "geometry": { "type": "Point", "coordinates": [ 1.968225, 47.83288 ] } },
{ "type": "Feature", "properties": { "gml_id": "ETABLISSEMENTS_POLLUEURS.5508", "identifiant": "0010001457", "idetab": "5508", "nom": "SCA HYGIENE PRODUCTS OPERATIONS", "codeape": "1722Z", "cp": "45590" }, "geometry": { "type": "Point", "coordinates": [ 1.968225, 47.83288 ] } },
{ "type": "Feature", "properties": { "gml_id": "ETABLISSEMENTS_POLLUEURS.3379", "identifiant": "0010001612", "idetab": "3379", "nom": "SOCIETE DE CHAUFFAGE D'ORLEANS LA SOURCE", "codeape": "3530Z", "cp": "45000" }, "geometry": { "type": "Point", "coordinates": [ 1.93938, 47.83321 ] } },
{ "type": "Feature", "properties": { "gml_id": "ETABLISSEMENTS_POLLUEURS.8210", "identifiant": "0010000972", "idetab": "8210", "nom": "CENTRE HOSPITALIER UNIVERSITAIRE D ORLEANS", "codeape": "8610Z", "cp": "45000" }, "geometry": { "type": "Point", "coordinates": [ 1.92439, 47.8379 ] } },
{ "type": "Feature", "properties": { "gml_id": "ETABLISSEMENTS_POLLUEURS.13346", "identifiant": "0009000259", "idetab": "13346", "nom": "12ÈME RÉGIMENT DE CUIRASSIERS", "codeape": "8422Z", "cp": "45160" }, "geometry": { "type": "Point", "coordinates": [ 1.88501, 47.83992 ] } },
{ "type": "Feature", "properties": { "gml_id": "ETABLISSEMENTS_POLLUEURS.597426", "identifiant": "0010013936", "idetab": "597426", "nom": "ETABLISSEMENTS J. MENUT", "codeape": "3831Z", "cp": "45590" }, "geometry": { "type": "Point", "coordinates": [ 1.95818, 47.81133 ] } },
{ "type": "Feature", "properties": { "gml_id": "ETABLISSEMENTS_POLLUEURS.594948", "identifiant": "0009074101", "idetab": "594948", "nom": "COMMUNAUTE D'AGGLOMERATION DE BLOIS AGGLOPOLYS", "codeape": "3700Z", "cp": "41000" }, "geometry": { "type": "Point", "coordinates": [ 1.32515, 47.56367 ] } },
{ "type": "Feature", "properties": { "gml_id": "ETABLISSEMENTS_POLLUEURS.3401", "identifiant": "0010001790", "idetab": "3401", "nom": "IDI COMPOSITES INTERNATIONAL (EUROPE)", "codeape": "2016Z", "cp": "41350" }, "geometry": { "type": "Point", "coordinates": [ 1.37766, 47.56866 ] } },
{ "type": "Feature", "properties": { "gml_id": "ETABLISSEMENTS_POLLUEURS.13781", "identifiant": "0010005049", "idetab": "13781", "nom": "AUCHAN BLOIS VINEUIL", "codeape": "4711F", "cp": "41350" }, "geometry": { "type": "Point", "coordinates": [ 1.375288, 47.578036 ] } },
{ "type": "Feature", "properties": { "gml_id": "ETABLISSEMENTS_POLLUEURS.7237", "identifiant": "0010004980", "idetab": "7237", "nom": "GERGONNE INDUSTRIE", "codeape": "2229A", "cp": "41350" }, "geometry": { "type": "Point", "coordinates": [ 1.375288, 47.578036 ] } },
{ "type": "Feature", "properties": { "gml_id": "ETABLISSEMENTS_POLLUEURS.9296", "identifiant": "0010001812", "idetab": "9296", "nom": "CHROMAGE DUR DU CENTRE", "codeape": "2561Z", "cp": "41000" }, "geometry": { "type": "Point", "coordinates": [ 1.330839, 47.589722 ] } },
{ "type": "Feature", "properties": { "gml_id": "ETABLISSEMENTS_POLLUEURS.3395", "identifiant": "0010001774", "idetab": "3395", "nom": "IMPRIMERIE BLOIS", "codeape": "1723Z", "cp": "41033" }, "geometry": { "type": "Point", "coordinates": [ 1.330839, 47.589722 ] } },
{ "type": "Feature", "properties": { "gml_id": "ETABLISSEMENTS_POLLUEURS.9297", "identifiant": "0010001815", "idetab": "9297", "nom": "EUROCOATINGS", "codeape": "2030Z", "cp": "41000" }, "geometry": { "type": "Point", "coordinates": [ 1.330839, 47.589722 ] } },
{ "type": "Feature", "properties": { "gml_id": "ETABLISSEMENTS_POLLUEURS.5548", "identifiant": "0010003954", "idetab": "5548", "nom": "SARL BLANCHISSERIE BLESOISE", "codeape": "930A", "cp": "41260" }, "geometry": { "type": "Point", "coordinates": [ 1.330839, 47.589722 ] } },
{ "type": "Feature", "properties": { "gml_id": "ETABLISSEMENTS_POLLUEURS.11970", "identifiant": "0010001762", "idetab": "11970", "nom": "COMMUNAUTE D'AGGLOMERATION DE BLOIS AGGLOPOLYS", "codeape": "3600Z", "cp": "41000" }, "geometry": { "type": "Point", "coordinates": [ 1.34836, 47.59273 ] } },
{ "type": "Feature", "properties": { "gml_id": "ETABLISSEMENTS_POLLUEURS.3393", "identifiant": "0010001767", "idetab": "3393", "nom": "SOCIETE BLESOISE DE DISTRIBUTION DE CHALEUR", "codeape": "3530Z", "cp": "41000" }, "geometry": { "type": "Point", "coordinates": [ 1.31232, 47.59318 ] } },
{ "type": "Feature", "properties": { "gml_id": "ETABLISSEMENTS_POLLUEURS.3437", "identifiant": "0010007112", "idetab": "3437", "nom": "SUEZ RV CENTRE OUEST", "codeape": "3811Z", "cp": "41190" }, "geometry": { "type": "Point", "coordinates": [ 1.21466, 47.59408 ] } },
{ "type": "Feature", "properties": { "gml_id": "ETABLISSEMENTS_POLLUEURS.3397", "identifiant": "0010001779", "idetab": "3397", "nom": "PHINIA DELPHI FRANCE", "codeape": "2932Z", "cp": "41000" }, "geometry": { "type": "Point", "coordinates": [ 1.32241, 47.60227 ] } },
{ "type": "Feature", "properties": { "gml_id": "ETABLISSEMENTS_POLLUEURS.9308", "identifiant": "0010004988", "idetab": "9308", "nom": "DEPARTEMENT DU LOIR ET CHER", "codeape": "8411Z", "cp": "41000" }, "geometry": { "type": "Point", "coordinates": [ 1.32822, 47.60282 ] } },
{ "type": "Feature", "properties": { "gml_id": "ETABLISSEMENTS_POLLUEURS.3403", "identifiant": "0010001798", "idetab": "3403", "nom": "SACCAP", "codeape": "2814Z", "cp": "41034" }, "geometry": { "type": "Point", "coordinates": [ 1.314427, 47.603123 ] } },
{ "type": "Feature", "properties": { "gml_id": "ETABLISSEMENTS_POLLUEURS.7225", "identifiant": "0010001805", "idetab": "7225", "nom": "VALEO VISION", "codeape": "2740Z", "cp": "41000" }, "geometry": { "type": "Point", "coordinates": [ 1.31745, 47.60324 ] } },
{ "type": "Feature", "properties": { "gml_id": "ETABLISSEMENTS_POLLUEURS.5534", "identifiant": "0010001813", "idetab": "5534", "nom": "H.B. FULLER ADHESIVES FRANCE", "codeape": "2052Z", "cp": "41000" }, "geometry": { "type": "Point", "coordinates": [ 1.32947, 47.60507 ] } },
{ "type": "Feature", "properties": { "gml_id": "ETABLISSEMENTS_POLLUEURS.8242", "identifiant": "0010007018", "idetab": "8242", "nom": "DUNCHA FRANCE", "codeape": "2811Z", "cp": "41033" }, "geometry": { "type": "Point", "coordinates": [ 1.32308, 47.60512 ] } },
{ "type": "Feature", "properties": { "gml_id": "ETABLISSEMENTS_POLLUEURS.3424", "identifiant": "0010004219", "idetab": "3424", "nom": "PROCTER & GAMBLE BLOIS", "codeape": "2042Z", "cp": "41000" }, "geometry": { "type": "Point", "coordinates": [ 1.312, 47.60654 ] } },
{ "type": "Feature", "properties": { "gml_id": "ETABLISSEMENTS_POLLUEURS.10295", "identifiant": "0010005335", "idetab": "10295", "nom": "DUBUIS ET COMPAGNIE", "codeape": "2573B", "cp": "41000" }, "geometry": { "type": "Point", "coordinates": [ 1.30435, 47.60826 ] } },
{ "type": "Feature", "properties": { "gml_id": "ETABLISSEMENTS_POLLUEURS.8221", "identifiant": "0010001817", "idetab": "8221", "nom": "TIAC", "codeape": "2932Z", "cp": "41190" }, "geometry": { "type": "Point", "coordinates": [ 1.1438, 47.60899 ] } },
{ "type": "Feature", "properties": { "gml_id": "ETABLISSEMENTS_POLLUEURS.13370", "identifiant": "0010004922", "idetab": "13370", "nom": "BARBAT RECYCLAGE", "codeape": "3832Z", "cp": "41000" }, "geometry": { "type": "Point", "coordinates": [ 1.31637, 47.60927 ] } },
{ "type": "Feature", "properties": { "gml_id": "ETABLISSEMENTS_POLLUEURS.8233", "identifiant": "0010004984", "idetab": "8233", "nom": "COMMUNAUTE D'AGGLOMERATION DE BLOIS AGGLOPOLYS", "codeape": "8411Z", "cp": "41000" }, "geometry": { "type": "Point", "coordinates": [ 1.32798, 47.61081 ] } },
{ "type": "Feature", "properties": { "gml_id": "ETABLISSEMENTS_POLLUEURS.595169", "identifiant": "0010004028", "idetab": "595169", "nom": "CPK PRODUCTION FRANCE", "codeape": "1082Z", "cp": "41013" }, "geometry": { "type": "Point", "coordinates": [ 1.30533, 47.611 ] } },
{ "type": "Feature", "properties": { "gml_id": "ETABLISSEMENTS_POLLUEURS.7222", "identifiant": "0010001801", "idetab": "7222", "nom": "VALCANTE", "codeape": "3821Z", "cp": "41000" }, "geometry": { "type": "Point", "coordinates": [ 1.32799, 47.61147 ] } },
{ "type": "Feature", "properties": { "gml_id": "ETABLISSEMENTS_POLLUEURS.11977", "identifiant": "0010007721", "idetab": "11977", "nom": "BLANCHISSERIE BLESOISE", "codeape": "9601A", "cp": "41260" }, "geometry": { "type": "Point", "coordinates": [ 1.35027, 47.61183 ] } },
{ "type": "Feature", "properties": { "gml_id": "ETABLISSEMENTS_POLLUEURS.10296", "identifiant": "0010005710", "idetab": "10296", "nom": "SISLEY INDUSTRIE", "codeape": "2042Z", "cp": "41000" }, "geometry": { "type": "Point", "coordinates": [ 1.30759, 47.61216 ] } },
{ "type": "Feature", "properties": { "gml_id": "ETABLISSEMENTS_POLLUEURS.5559", "identifiant": "0010004916", "idetab": "5559", "nom": "ANETT DEUX", "codeape": "7010Z", "cp": "41260" }, "geometry": { "type": "Point", "coordinates": [ 1.35612, 47.61532 ] } },
{ "type": "Feature", "properties": { "gml_id": "ETABLISSEMENTS_POLLUEURS.5560", "identifiant": "0010005046", "idetab": "5560", "nom": "ALPLA FRANCE", "codeape": "2222Z", "cp": "41330" }, "geometry": { "type": "Point", "coordinates": [ 1.291239, 47.63095 ] } },
{ "type": "Feature", "properties": { "gml_id": "ETABLISSEMENTS_POLLUEURS.8243", "identifiant": "0010007427", "idetab": "8243", "nom": "REVIVAL", "codeape": "3832Z", "cp": "41330" }, "geometry": { "type": "Point", "coordinates": [ 1.29313, 47.63243 ] } },
{ "type": "Feature", "properties": { "gml_id": "ETABLISSEMENTS_POLLUEURS.9321", "identifiant": "0010008161", "idetab": "9321", "nom": "CENTRE DE DECAPAGE BLESOIS", "codeape": "2561Z", "cp": "41500" }, "geometry": { "type": "Point", "coordinates": [ 1.40445, 47.6386 ] } },
{ "type": "Feature", "properties": { "gml_id": "ETABLISSEMENTS_POLLUEURS.12166", "identifiant": "0010003833", "idetab": "12166", "nom": "ETABLISSEMENTS MAURICE", "codeape": "3832Z", "cp": "41330" }, "geometry": { "type": "Point", "coordinates": [ 1.29095, 47.63893 ] } },
{ "type": "Feature", "properties": { "gml_id": "ETABLISSEMENTS_POLLUEURS.9319", "identifiant": "0010007639", "idetab": "9319", "nom": "SFERIC", "codeape": "2562B", "cp": "41500" }, "geometry": { "type": "Point", "coordinates": [ 1.40457, 47.64549 ] } },
{ "type": "Feature", "properties": { "gml_id": "ETABLISSEMENTS_POLLUEURS.589263", "identifiant": "0010008226", "idetab": "589263", "nom": "EUROVIA CENTRE LOIRE", "codeape": "4211Z", "cp": "41330" }, "geometry": { "type": "Point", "coordinates": [ 1.27762, 47.64882 ] } },
{ "type": "Feature", "properties": { "gml_id": "ETABLISSEMENTS_POLLUEURS.589255", "identifiant": "0010003244", "idetab": "589255", "nom": "VAL DE LOIRE GRANULATS", "codeape": "0812Z", "cp": "41330" }, "geometry": { "type": "Point", "coordinates": [ 1.34803, 47.68792 ] } },
{ "type": "Feature", "properties": { "gml_id": "ETABLISSEMENTS_POLLUEURS.13775", "identifiant": "0010003372", "idetab": "13775", "nom": "HEIDELBERG MATERIALS FRANCE GRANULATS", "codeape": "0812Z", "cp": "41500" }, "geometry": { "type": "Point", "coordinates": [ 1.36641, 47.69656 ] } },
{ "type": "Feature", "properties": { "gml_id": "ETABLISSEMENTS_POLLUEURS.11125", "identifiant": "0010008595", "idetab": "11125", "nom": "CENTRE HOSPITALIER BLOIS SIMONE VEIL", "codeape": "8610Z", "cp": "41016" }, "geometry": { "type": "Point", "coordinates": [ 1.34165, 47.60021 ] } },
{ "type": "Feature", "properties": { "gml_id": "ETABLISSEMENTS_POLLUEURS.590672", "identifiant": "0010008903", "idetab": "590672", "nom": "SUEZ RV CENTRE OUEST", "codeape": "3821Z", "cp": "41330" }, "geometry": { "type": "Point", "coordinates": [ 1.27762, 47.64882 ] } },
{ "type": "Feature", "properties": { "gml_id": "ETABLISSEMENTS_POLLUEURS.599150", "identifiant": "0010009361", "idetab": "599150", "nom": "CHIESI SAS", "codeape": "2120Z", "cp": "41260" }, "geometry": { "type": "Point", "coordinates": [ 1.35694, 47.61769 ] } },
{ "type": "Feature", "properties": { "gml_id": "ETABLISSEMENTS_POLLUEURS.590009", "identifiant": "0010010424", "idetab": "590009", "nom": "SYNDICAT INTERDEPARTEMENTAL DE COLLECTE ET DE TRAITEMENT DES DECHETS VALECO", "codeape": "3812Z", "cp": "41330" }, "geometry": { "type": "Point", "coordinates": [ 1.27762, 47.64882 ] } },
{ "type": "Feature", "properties": { "gml_id": "ETABLISSEMENTS_POLLUEURS.592098", "identifiant": "0010012722", "idetab": "592098", "nom": "EUROVIA CENTRE LOIRE", "codeape": "4211Z", "cp": "41330" }, "geometry": { "type": "Point", "coordinates": [ 1.278164, 47.633711 ] } },
{ "type": "Feature", "properties": { "gml_id": "ETABLISSEMENTS_POLLUEURS.597845", "identifiant": "0010013153", "idetab": "597845", "nom": "SCEA LES VENTS", "codeape": "0147Z", "cp": "41100" }, "geometry": { "type": "Point", "coordinates": [ 1.146334, 47.718935 ] } },
{ "type": "Feature", "properties": { "gml_id": "ETABLISSEMENTS_POLLUEURS.594932", "identifiant": "0054100102", "idetab": "594932", "nom": "AFFINITY LA CHAPELLE", "codeape": "1092Z", "cp": "41330" }, "geometry": { "type": "Point", "coordinates": [ 1.24162, 47.66927 ] } },
{ "type": "Feature", "properties": { "gml_id": "ETABLISSEMENTS_POLLUEURS.9470", "identifiant": "0074101807", "idetab": "9470", "nom": "STEP - BLOIS", "codeape": "3821Z", "cp": "41000" }, "geometry": { "type": "Point", "coordinates": [ 1.330839, 47.589722 ] } },
{ "type": "Feature", "properties": { "gml_id": "ETABLISSEMENTS_POLLUEURS.589965", "identifiant": "0010004952", "idetab": "589965", "nom": "S.B AUTO PIECES", "codeape": "4677Z", "cp": "41100" }, "geometry": { "type": "Point", "coordinates": [ 1.015301, 47.800705 ] } },
{ "type": "Feature", "properties": { "gml_id": "ETABLISSEMENTS_POLLUEURS.592726", "identifiant": "0054100831", "idetab": "592726", "nom": "DES VENTS", "codeape": "0147Z", "cp": "41100" }, "geometry": { "type": "Point", "coordinates": [ 1.03896, 47.75385 ] } },
{ "type": "Feature", "properties": { "gml_id": "ETABLISSEMENTS_POLLUEURS.7400", "identifiant": "41287800", "idetab": "7400", "nom": "EARL DES VENTS - CONAN ARNAUD", "codeape": "012G", "cp": "41100" }, "geometry": { "type": "Point", "coordinates": [ 1.03595, 47.765202 ] } },
{ "type": "Feature", "properties": { "gml_id": "ETABLISSEMENTS_POLLUEURS.594926", "identifiant": "0009069934", "idetab": "594926", "nom": "ELECTRICITE DE FRANCE", "codeape": "3511Z", "cp": "41220" }, "geometry": { "type": "Point", "coordinates": [ 1.57989, 47.72093 ] } },
{ "type": "Feature", "properties": { "gml_id": "ETABLISSEMENTS_POLLUEURS.3418", "identifiant": "0010003855", "idetab": "3418", "nom": "SETRAD", "codeape": "3821Z", "cp": "41220" }, "geometry": { "type": "Point", "coordinates": [ 1.63531, 47.73031 ] } },
{ "type": "Feature", "properties": { "gml_id": "ETABLISSEMENTS_POLLUEURS.5498", "identifiant": "0010001104", "idetab": "5498", "nom": "EMA PHARMACEUTICALS", "codeape": "2592Z", "cp": "45740" }, "geometry": { "type": "Point", "coordinates": [ 1.71038, 47.75107 ] } },
{ "type": "Feature", "properties": { "gml_id": "ETABLISSEMENTS_POLLUEURS.3365", "identifiant": "0010001453", "idetab": "3365", "nom": "IMPRIMERIE PRINTOR DIRECT", "codeape": "1812Z", "cp": "45190" }, "geometry": { "type": "Point", "coordinates": [ 1.609881, 47.767196 ] } },
{ "type": "Feature", "properties": { "gml_id": "ETABLISSEMENTS_POLLUEURS.8217", "identifiant": "0010001720", "idetab": "8217", "nom": "TRECA", "codeape": "3103Z", "cp": "45190" }, "geometry": { "type": "Point", "coordinates": [ 1.627755, 47.778279 ] } },
{ "type": "Feature", "properties": { "gml_id": "ETABLISSEMENTS_POLLUEURS.11967", "identifiant": "0010001209", "idetab": "11967", "nom": "BODYCOTE", "codeape": "2561Z", "cp": "45190" }, "geometry": { "type": "Point", "coordinates": [ 1.63453, 47.78685 ] } },
{ "type": "Feature", "properties": { "gml_id": "ETABLISSEMENTS_POLLUEURS.8213", "identifiant": "0010001302", "idetab": "8213", "nom": "POCHET DU COURVAL", "codeape": "2313Z", "cp": "45190" }, "geometry": { "type": "Point", "coordinates": [ 1.62957, 47.78869 ] } },
{ "type": "Feature", "properties": { "gml_id": "ETABLISSEMENTS_POLLUEURS.589257", "identifiant": "0010003628", "idetab": "589257", "nom": "CARRIÈRE DE DRY", "codeape": "0812Z", "cp": "45370" }, "geometry": { "type": "Point", "coordinates": [ 1.714502, 47.798561 ] } },
{ "type": "Feature", "properties": { "gml_id": "ETABLISSEMENTS_POLLUEURS.13366", "identifiant": "0010003989", "idetab": "13366", "nom": "TOUT FAIRE PLATEFORME", "codeape": "5210B", "cp": "45130" }, "geometry": { "type": "Point", "coordinates": [ 1.6789, 47.82384 ] } },
{ "type": "Feature", "properties": { "gml_id": "ETABLISSEMENTS_POLLUEURS.12167", "identifiant": "0010005077", "idetab": "12167", "nom": "PROLOGIS FRANCE XLVIII EURL", "codeape": "6820B", "cp": "45130" }, "geometry": { "type": "Point", "coordinates": [ 1.70247, 47.82755 ] } },
{ "type": "Feature", "properties": { "gml_id": "ETABLISSEMENTS_POLLUEURS.13771", "identifiant": "0010000822", "idetab": "13771", "nom": "AEML", "codeape": "2511Z", "cp": "45130" }, "geometry": { "type": "Point", "coordinates": [ 1.69229, 47.828156 ] } },
{ "type": "Feature", "properties": { "gml_id": "ETABLISSEMENTS_POLLUEURS.3345", "identifiant": "0010001142", "idetab": "3345", "nom": "APM MEUNG SUR LOIRE", "codeape": "", "cp": "45130" }, "geometry": { "type": "Point", "coordinates": [ 1.69229, 47.828156 ] } },
{ "type": "Feature", "properties": { "gml_id": "ETABLISSEMENTS_POLLUEURS.13375", "identifiant": "0010006322", "idetab": "13375", "nom": "OFFICE DEPOT", "codeape": "4759B", "cp": "45130" }, "geometry": { "type": "Point", "coordinates": [ 1.673159, 47.832152 ] } },
{ "type": "Feature", "properties": { "gml_id": "ETABLISSEMENTS_POLLUEURS.591656", "identifiant": "0010004511", "idetab": "591656", "nom": "LEPLATRE", "codeape": "4621Z", "cp": "45130" }, "geometry": { "type": "Point", "coordinates": [ 1.695636, 47.834105 ] } },
{ "type": "Feature", "properties": { "gml_id": "ETABLISSEMENTS_POLLUEURS.3339", "identifiant": "0010001011", "idetab": "3339", "nom": "WESTENDORP (CEW)", "codeape": "2711Z", "cp": "45130" }, "geometry": { "type": "Point", "coordinates": [ 1.712706, 47.840226 ] } },
{ "type": "Feature", "properties": { "gml_id": "ETABLISSEMENTS_POLLUEURS.589245", "identifiant": "0010001737", "idetab": "589245", "nom": "MSL CIRCUITS", "codeape": "2612Z", "cp": "45130" }, "geometry": { "type": "Point", "coordinates": [ 1.70089, 47.84554 ] } },
{ "type": "Feature", "properties": { "gml_id": "ETABLISSEMENTS_POLLUEURS.3337", "identifiant": "0010000980", "idetab": "3337", "nom": "CIRETEC", "codeape": "2611Z", "cp": "45130" }, "geometry": { "type": "Point", "coordinates": [ 1.75754, 47.864 ] } },
{ "type": "Feature", "properties": { "gml_id": "ETABLISSEMENTS_POLLUEURS.594288", "identifiant": "0010003521", "idetab": "594288", "nom": "SOCIETE DES MATERIAUX DE BEAUCE", "codeape": "0812Z", "cp": "41240" }, "geometry": { "type": "Point", "coordinates": [ 1.58448, 47.87496 ] } },
{ "type": "Feature", "properties": { "gml_id": "ETABLISSEMENTS_POLLUEURS.13776", "identifiant": "0010003541", "idetab": "13776", "nom": "HEIDELBERG MATERIALS FRANCE GRANULATS", "codeape": "0812Z", "cp": "45130" }, "geometry": { "type": "Point", "coordinates": [ 1.60527, 47.87681 ] } },
{ "type": "Feature", "properties": { "gml_id": "ETABLISSEMENTS_POLLUEURS.11426", "identifiant": "0010007189", "idetab": "11426", "nom": "SETRAD", "codeape": "3821Z", "cp": "45140" }, "geometry": { "type": "Point", "coordinates": [ 1.71836, 47.9231 ] } },
{ "type": "Feature", "properties": { "gml_id": "ETABLISSEMENTS_POLLUEURS.598836", "identifiant": "0010007401", "idetab": "598836", "nom": "HEIGHTS 1 SAS", "codeape": "6820B", "cp": "45130" }, "geometry": { "type": "Point", "coordinates": [ 1.67009, 47.80643 ] } },
{ "type": "Feature", "properties": { "gml_id": "ETABLISSEMENTS_POLLUEURS.594278", "identifiant": "0010008426", "idetab": "594278", "nom": "INITIAL", "codeape": "9601A", "cp": "45740" }, "geometry": { "type": "Point", "coordinates": [ 1.69304, 47.77087 ] } },
{ "type": "Feature", "properties": { "gml_id": "ETABLISSEMENTS_POLLUEURS.591286", "identifiant": "0069907004", "idetab": "591286", "nom": "EDF - CNPE DE SAINT-LAURENT-DES-EAUX", "codeape": "3511Z", "cp": "41220" }, "geometry": { "type": "Point", "coordinates": [ 1.579894, 47.720931 ] } },
{ "type": "Feature", "properties": { "gml_id": "ETABLISSEMENTS_POLLUEURS.599340", "identifiant": "0100041718", "idetab": "599340", "nom": "EUROVIA GRANDS PROJETS FRANCE", "codeape": "4211Z", "cp": "19100" }, "geometry": { "type": "Point", "coordinates": [ 1.608, 47.79048 ] } },
{ "type": "Feature", "properties": { "gml_id": "ETABLISSEMENTS_POLLUEURS.3788", "identifiant": "75200386", "idetab": "3788", "nom": "SOLOGN'UF", "codeape": "", "cp": "45370" }, "geometry": { "type": "Point", "coordinates": [ 1.719835, 47.806806 ] } },
{ "type": "Feature", "properties": { "gml_id": "ETABLISSEMENTS_POLLUEURS.598238", "identifiant": "0054100796", "idetab": "598238", "nom": "BEL", "codeape": "1051C", "cp": "41100" }, "geometry": { "type": "Point", "coordinates": [ 1.05168, 47.80006 ] } },
{ "type": "Feature", "properties": { "gml_id": "ETABLISSEMENTS_POLLUEURS.596939", "identifiant": "0054100137", "idetab": "596939", "nom": "GIB PERCHE", "codeape": "0149Z", "cp": "41270" }, "geometry": { "type": "Point", "coordinates": [ 1.05418, 47.9763 ] } },
{ "type": "Feature", "properties": { "gml_id": "ETABLISSEMENTS_POLLUEURS.8225", "identifiant": "0010003818", "idetab": "8225", "nom": "THALES AVIONICS", "codeape": "3313Z", "cp": "41102" }, "geometry": { "type": "Point", "coordinates": [ 1.062922, 47.793262 ] } },
{ "type": "Feature", "properties": { "gml_id": "ETABLISSEMENTS_POLLUEURS.5545", "identifiant": "0010003832", "idetab": "5545", "nom": "LA CALHENE", "codeape": "292D", "cp": "41102" }, "geometry": { "type": "Point", "coordinates": [ 1.062922, 47.793262 ] } },
{ "type": "Feature", "properties": { "gml_id": "ETABLISSEMENTS_POLLUEURS.3389", "identifiant": "0010001760", "idetab": "3389", "nom": "THYSSEN KRUPP SOFEDIT VENDOME", "codeape": "2932Z", "cp": "41100" }, "geometry": { "type": "Point", "coordinates": [ 1.062922, 47.793262 ] } },
{ "type": "Feature", "properties": { "gml_id": "ETABLISSEMENTS_POLLUEURS.8220", "identifiant": "0010001781", "idetab": "8220", "nom": "DELCEN SAS", "codeape": "2561Z", "cp": "41100" }, "geometry": { "type": "Point", "coordinates": [ 1.062922, 47.793262 ] } },
{ "type": "Feature", "properties": { "gml_id": "ETABLISSEMENTS_POLLUEURS.7241", "identifiant": "0010006499", "idetab": "7241", "nom": "OCV LORCET", "codeape": "2314Z", "cp": "41100" }, "geometry": { "type": "Point", "coordinates": [ 1.062922, 47.793262 ] } },
{ "type": "Feature", "properties": { "gml_id": "ETABLISSEMENTS_POLLUEURS.3391", "identifiant": "0010001763", "idetab": "3391", "nom": "BRANDT FRANCE", "codeape": "2751Z", "cp": "41100" }, "geometry": { "type": "Point", "coordinates": [ 1.07217, 47.80618 ] } },
{ "type": "Feature", "properties": { "gml_id": "ETABLISSEMENTS_POLLUEURS.595069", "identifiant": "0010007575", "idetab": "595069", "nom": "COMMUNE DE VENDOME", "codeape": "8411Z", "cp": "41100" }, "geometry": { "type": "Point", "coordinates": [ 1.07238, 47.79216 ] } },
{ "type": "Feature", "properties": { "gml_id": "ETABLISSEMENTS_POLLUEURS.599061", "identifiant": "0054100794", "idetab": "599061", "nom": "LES ABATTOIRS DU PERCHE VENDOMOIS", "codeape": "1011Z", "cp": "41100" }, "geometry": { "type": "Point", "coordinates": [ 1.07239, 47.79216 ] } },
{ "type": "Feature", "properties": { "gml_id": "ETABLISSEMENTS_POLLUEURS.3434", "identifiant": "0010006043", "idetab": "3434", "nom": "SONOPOL", "codeape": "2561Z", "cp": "41101" }, "geometry": { "type": "Point", "coordinates": [ 1.07373, 47.77747 ] } },
{ "type": "Feature", "properties": { "gml_id": "ETABLISSEMENTS_POLLUEURS.3388", "identifiant": "0010001759", "idetab": "3388", "nom": "HMY FRANCE", "codeape": "3109B", "cp": "41100" }, "geometry": { "type": "Point", "coordinates": [ 1.07386, 47.77796 ] } },
{ "type": "Feature", "properties": { "gml_id": "ETABLISSEMENTS_POLLUEURS.3402", "identifiant": "0010001791", "idetab": "3402", "nom": "ROBERT BOSCH AUTOMOTIVE STEERING VENDOME", "codeape": "2932Z", "cp": "41100" }, "geometry": { "type": "Point", "coordinates": [ 1.07656, 47.77849 ] } },
{ "type": "Feature", "properties": { "gml_id": "ETABLISSEMENTS_POLLUEURS.10294", "identifiant": "0010004964", "idetab": "10294", "nom": "ETABLISSEMENTS J. MENUT", "codeape": "3831Z", "cp": "41100" }, "geometry": { "type": "Point", "coordinates": [ 1.07842, 47.804 ] } },
{ "type": "Feature", "properties": { "gml_id": "ETABLISSEMENTS_POLLUEURS.5533", "identifiant": "0010001810", "idetab": "5533", "nom": "SOCIETE ORLEANAISE D'ASSAINISSEMENT", "codeape": "3821Z", "cp": "41100" }, "geometry": { "type": "Point", "coordinates": [ 1.07887, 47.77882 ] } },
{ "type": "Feature", "properties": { "gml_id": "ETABLISSEMENTS_POLLUEURS.9314", "identifiant": "0010006557", "idetab": "9314", "nom": "PROJECT USINAGE ET INTEGRATION", "codeape": "2562B", "cp": "41100" }, "geometry": { "type": "Point", "coordinates": [ 1.07918, 47.77841 ] } },
{ "type": "Feature", "properties": { "gml_id": "ETABLISSEMENTS_POLLUEURS.13371", "identifiant": "0010004965", "idetab": "13371", "nom": "REVIVAL", "codeape": "3832Z", "cp": "41100" }, "geometry": { "type": "Point", "coordinates": [ 1.0819, 47.80419 ] } },
{ "type": "Feature", "properties": { "gml_id": "ETABLISSEMENTS_POLLUEURS.13374", "identifiant": "0010005898", "idetab": "13374", "nom": "B S ENVIRONNEMENT", "codeape": "3832Z", "cp": "41100" }, "geometry": { "type": "Point", "coordinates": [ 1.08469, 47.80567 ] } },
{ "type": "Feature", "properties": { "gml_id": "ETABLISSEMENTS_POLLUEURS.3405", "identifiant": "0010001822", "idetab": "3405", "nom": "LIGEA PEZOU", "codeape": "512A", "cp": "41100" }, "geometry": { "type": "Point", "coordinates": [ 1.14134, 47.864924 ] } },
{ "type": "Feature", "properties": { "gml_id": "ETABLISSEMENTS_POLLUEURS.592321", "identifiant": "0010013601", "idetab": "592321", "nom": "METHASEC", "codeape": "3511Z", "cp": "41100" }, "geometry": { "type": "Point", "coordinates": [ 1.15551, 47.83898 ] } },
{ "type": "Feature", "properties": { "gml_id": "ETABLISSEMENTS_POLLUEURS.11433", "identifiant": "0010008937", "idetab": "11433", "nom": "LAPROVOL SARL", "codeape": "0161Z", "cp": "41100" }, "geometry": { "type": "Point", "coordinates": [ 1.166223, 47.842799 ] } },
{ "type": "Feature", "properties": { "gml_id": "ETABLISSEMENTS_POLLUEURS.7397", "identifiant": "41175800", "idetab": "7397", "nom": "EARL LEGUET", "codeape": "012G", "cp": "41100" }, "geometry": { "type": "Point", "coordinates": [ 1.14659, 47.873195 ] } },
{ "type": "Feature", "properties": { "gml_id": "ETABLISSEMENTS_POLLUEURS.11203", "identifiant": "41187800", "idetab": "11203", "nom": "ELEVAGE DE LA BASSE COUR", "codeape": "0147Z", "cp": "41100" }, "geometry": { "type": "Point", "coordinates": [ 1.166024, 47.851791 ] } },
{ "type": "Feature", "properties": { "gml_id": "ETABLISSEMENTS_POLLUEURS.9407", "identifiant": "41290800", "idetab": "9407", "nom": "STE CIVILE D ELEVAGE DE FRETAY", "codeape": "0147Z", "cp": "41100" }, "geometry": { "type": "Point", "coordinates": [ 1.144006, 47.739018 ] } },
{ "type": "Feature", "properties": { "gml_id": "ETABLISSEMENTS_POLLUEURS.3264", "identifiant": "0010000014", "idetab": "3264", "nom": "SETRAD", "codeape": "3821Z", "cp": "45380" }, "geometry": { "type": "Point", "coordinates": [ 1.772469, 47.884062 ] } },
{ "type": "Feature", "properties": { "gml_id": "ETABLISSEMENTS_POLLUEURS.589935", "identifiant": "0010001269", "idetab": "589935", "nom": "LAMBERT", "codeape": "4532Z", "cp": "45380" }, "geometry": { "type": "Point", "coordinates": [ 1.80283, 47.87746 ] } },
{ "type": "Feature", "properties": { "gml_id": "ETABLISSEMENTS_POLLUEURS.13373", "identifiant": "0010005176", "idetab": "13373", "nom": "PROLOGIS FRANCE XX EURL", "codeape": "6820B", "cp": "45140" }, "geometry": { "type": "Point", "coordinates": [ 1.80305, 47.91603 ] } },
{ "type": "Feature", "properties": { "gml_id": "ETABLISSEMENTS_POLLUEURS.8215", "identifiant": "0010001605", "idetab": "8215", "nom": "SOCIETE ORLEANAISE D'ASSAINISSEMENT", "codeape": "3821Z", "cp": "45380" }, "geometry": { "type": "Point", "coordinates": [ 1.80315, 47.88048 ] } },
{ "type": "Feature", "properties": { "gml_id": "ETABLISSEMENTS_POLLUEURS.9309", "identifiant": "0010005101", "idetab": "9309", "nom": "S O C C O I M", "codeape": "3811Z", "cp": "45380" }, "geometry": { "type": "Point", "coordinates": [ 1.80315, 47.88048 ] } },
{ "type": "Feature", "properties": { "gml_id": "ETABLISSEMENTS_POLLUEURS.8216", "identifiant": "0010001608", "idetab": "8216", "nom": "S O C C O I M", "codeape": "3811Z", "cp": "45380" }, "geometry": { "type": "Point", "coordinates": [ 1.80315, 47.88048 ] } },
{ "type": "Feature", "properties": { "gml_id": "ETABLISSEMENTS_POLLUEURS.5517", "identifiant": "0010001615", "idetab": "5517", "nom": "SODECTRA (EX CDO CENTRE DÉCAPAGE ORLÉANAIS)", "codeape": "2561Z", "cp": "45380" }, "geometry": { "type": "Point", "coordinates": [ 1.803214, 47.877899 ] } },
{ "type": "Feature", "properties": { "gml_id": "ETABLISSEMENTS_POLLUEURS.3413", "identifiant": "0010003662", "idetab": "3413", "nom": "SETRAD (CSD DE MEZIERES LEZ CLERY)", "codeape": "900B", "cp": "45370" }, "geometry": { "type": "Point", "coordinates": [ 1.804565, 47.818227 ] } },
{ "type": "Feature", "properties": { "gml_id": "ETABLISSEMENTS_POLLUEURS.589971", "identifiant": "0010005653", "idetab": "589971", "nom": "S O C C O I M", "codeape": "3811Z", "cp": "45140" }, "geometry": { "type": "Point", "coordinates": [ 1.821359, 47.910935 ] } },
{ "type": "Feature", "properties": { "gml_id": "ETABLISSEMENTS_POLLUEURS.3355", "identifiant": "0010001318", "idetab": "3355", "nom": "D'AUCY ORLEANS", "codeape": "1039A", "cp": "45380" }, "geometry": { "type": "Point", "coordinates": [ 1.82482, 47.88761 ] } },
{ "type": "Feature", "properties": { "gml_id": "ETABLISSEMENTS_POLLUEURS.5523", "identifiant": "0010001744", "idetab": "5523", "nom": "NEW DURALEX INTERNATIONAL", "codeape": "2313Z", "cp": "45380" }, "geometry": { "type": "Point", "coordinates": [ 1.82623, 47.8962 ] } },
{ "type": "Feature", "properties": { "gml_id": "ETABLISSEMENTS_POLLUEURS.594964", "identifiant": "0009074501", "idetab": "594964", "nom": "VEOLIA EAU - COMPAGNIE GENERALE DES EAUX", "codeape": "3600Z", "cp": "45380" }, "geometry": { "type": "Point", "coordinates": [ 1.83892, 47.88507 ] } },
{ "type": "Feature", "properties": { "gml_id": "ETABLISSEMENTS_POLLUEURS.12163", "identifiant": "0010000842", "idetab": "12163", "nom": "BARBAT RECYCLAGE", "codeape": "3832Z", "cp": "45140" }, "geometry": { "type": "Point", "coordinates": [ 1.84977, 47.90258 ] } },
{ "type": "Feature", "properties": { "gml_id": "ETABLISSEMENTS_POLLUEURS.13359", "identifiant": "0010001421", "idetab": "13359", "nom": "PAUL ROBERT INDUSTRIE (STEVA)", "codeape": "2550B", "cp": "45140" }, "geometry": { "type": "Point", "coordinates": [ 1.850387, 47.905219 ] } },
{ "type": "Feature", "properties": { "gml_id": "ETABLISSEMENTS_POLLUEURS.589938", "identifiant": "0010001495", "idetab": "589938", "nom": "ETABLISSEMENTS MARCEL ROBROLLE", "codeape": "3832Z", "cp": "45140" }, "geometry": { "type": "Point", "coordinates": [ 1.85572, 47.92323 ] } },
{ "type": "Feature", "properties": { "gml_id": "ETABLISSEMENTS_POLLUEURS.3383", "identifiant": "0010001641", "idetab": "3383", "nom": "SAINT JEAN COMPOSANTS MOTEURS", "codeape": "343Z", "cp": "45140" }, "geometry": { "type": "Point", "coordinates": [ 1.870224, 47.914882 ] } },
{ "type": "Feature", "properties": { "gml_id": "ETABLISSEMENTS_POLLUEURS.3344", "identifiant": "0010001132", "idetab": "3344", "nom": "FEDERAL MOGUL OPERATIONS FRANCE SAS", "codeape": "2811Z", "cp": "45140" }, "geometry": { "type": "Point", "coordinates": [ 1.87342, 47.89898 ] } },
{ "type": "Feature", "properties": { "gml_id": "ETABLISSEMENTS_POLLUEURS.5493", "identifiant": "0010000942", "idetab": "5493", "nom": "BRANDT FRANCE", "codeape": "2751Z", "cp": "45140" }, "geometry": { "type": "Point", "coordinates": [ 1.88183, 47.91235 ] } },
{ "type": "Feature", "properties": { "gml_id": "ETABLISSEMENTS_POLLUEURS.592355", "identifiant": "0010005652", "idetab": "592355", "nom": "S O C C O I M", "codeape": "3811Z", "cp": "45000" }, "geometry": { "type": "Point", "coordinates": [ 1.882204, 47.882377 ] } },
{ "type": "Feature", "properties": { "gml_id": "ETABLISSEMENTS_POLLUEURS.7160", "identifiant": "0009000077", "idetab": "7160", "nom": "DEA ORLEANS", "codeape": "8422Z", "cp": "45143" }, "geometry": { "type": "Point", "coordinates": [ 1.88562, 47.92131 ] } },
{ "type": "Feature", "properties": { "gml_id": "ETABLISSEMENTS_POLLUEURS.12165", "identifiant": "0010000938", "idetab": "12165", "nom": "GROUPE ATLANTIC ORLEANS", "codeape": "2751Z", "cp": "45140" }, "geometry": { "type": "Point", "coordinates": [ 1.88566, 47.91201 ] } },
{ "type": "Feature", "properties": { "gml_id": "ETABLISSEMENTS_POLLUEURS.3361", "identifiant": "0010001394", "idetab": "3361", "nom": "FAMAR FRANCE", "codeape": "2120Z", "cp": "45072" }, "geometry": { "type": "Point", "coordinates": [ 1.894437, 47.903707 ] } },
{ "type": "Feature", "properties": { "gml_id": "ETABLISSEMENTS_POLLUEURS.3380", "identifiant": "0010001613", "idetab": "3380", "nom": "ORLEANAISE DISTRIB CHALEUR", "codeape": "3530Z", "cp": "45000" }, "geometry": { "type": "Point", "coordinates": [ 1.89833, 47.91805 ] } },
{ "type": "Feature", "properties": { "gml_id": "ETABLISSEMENTS_POLLUEURS.595021", "identifiant": "0009000348", "idetab": "595021", "nom": "CNSO ORLEANS", "codeape": "5210B", "cp": "45000" }, "geometry": { "type": "Point", "coordinates": [ 1.90029, 47.9174 ] } },
{ "type": "Feature", "properties": { "gml_id": "ETABLISSEMENTS_POLLUEURS.591649", "identifiant": "0010001735", "idetab": "591649", "nom": "L'ORLEANAISE DES EAUX", "codeape": "3600Z", "cp": "45100" }, "geometry": { "type": "Point", "coordinates": [ 1.9161, 47.87512 ] } },
{ "type": "Feature", "properties": { "gml_id": "ETABLISSEMENTS_POLLUEURS.3381", "identifiant": "0010001618", "idetab": "3381", "nom": "FLEURY CHAUFFAGE SOFLEC", "codeape": "3530Z", "cp": "45400" }, "geometry": { "type": "Point", "coordinates": [ 1.9209, 47.9257 ] } },
{ "type": "Feature", "properties": { "gml_id": "ETABLISSEMENTS_POLLUEURS.3376", "identifiant": "0010001585", "idetab": "3376", "nom": "SIFA TECHNOLOGIES SAS", "codeape": "2453Z", "cp": "45000" }, "geometry": { "type": "Point", "coordinates": [ 1.921898, 47.868779 ] } },
{ "type": "Feature", "properties": { "gml_id": "ETABLISSEMENTS_POLLUEURS.9311", "identifiant": "0010005418", "idetab": "9311", "nom": "SANDVIK HOLDING FRANCE", "codeape": "6420Z", "cp": "45000" }, "geometry": { "type": "Point", "coordinates": [ 1.93953, 47.82438 ] } },
{ "type": "Feature", "properties": { "gml_id": "ETABLISSEMENTS_POLLUEURS.3353", "identifiant": "0010001300", "idetab": "3353", "nom": "MERCK SANTÉ SAS", "codeape": "244C", "cp": "45400" }, "geometry": { "type": "Point", "coordinates": [ 1.939603, 47.930409 ] } },
{ "type": "Feature", "properties": { "gml_id": "ETABLISSEMENTS_POLLUEURS.13358", "identifiant": "0010001402", "idetab": "13358", "nom": "ORLEANS DECAPAGE", "codeape": "2561Z", "cp": "45650" }, "geometry": { "type": "Point", "coordinates": [ 1.940583, 47.875592 ] } },
{ "type": "Feature", "properties": { "gml_id": "ETABLISSEMENTS_POLLUEURS.589972", "identifiant": "0010005654", "idetab": "589972", "nom": "S O C C O I M", "codeape": "3811Z", "cp": "45800" }, "geometry": { "type": "Point", "coordinates": [ 1.94376, 47.912253 ] } },
{ "type": "Feature", "properties": { "gml_id": "ETABLISSEMENTS_POLLUEURS.5503", "identifiant": "0010001287", "idetab": "5503", "nom": "MOTEURS LEROY SOMER", "codeape": "2711Z", "cp": "45800" }, "geometry": { "type": "Point", "coordinates": [ 1.94397, 47.91208 ] } },
{ "type": "Feature", "properties": { "gml_id": "ETABLISSEMENTS_POLLUEURS.7219", "identifiant": "0010001562", "idetab": "7219", "nom": "KEOLIS METROPOLE ORLEANS", "codeape": "4931Z", "cp": "45800" }, "geometry": { "type": "Point", "coordinates": [ 1.94453, 47.90923 ] } },
{ "type": "Feature", "properties": { "gml_id": "ETABLISSEMENTS_POLLUEURS.589975", "identifiant": "0010005657", "idetab": "589975", "nom": "S O C C O I M", "codeape": "3811Z", "cp": "45590" }, "geometry": { "type": "Point", "coordinates": [ 1.944865, 47.845199 ] } },
{ "type": "Feature", "properties": { "gml_id": "ETABLISSEMENTS_POLLUEURS.589939", "identifiant": "0010001607", "idetab": "589939", "nom": "S O C C O I M", "codeape": "3832Z", "cp": "45800" }, "geometry": { "type": "Point", "coordinates": [ 1.9459, 47.92118 ] } },
{ "type": "Feature", "properties": { "gml_id": "ETABLISSEMENTS_POLLUEURS.5565", "identifiant": "0010005759", "idetab": "5565", "nom": "SETRAD", "codeape": "3821Z", "cp": "45370" }, "geometry": { "type": "Point", "coordinates": [ 1.7832, 47.82623 ] } },
{ "type": "Feature", "properties": { "gml_id": "ETABLISSEMENTS_POLLUEURS.589262", "identifiant": "0010007611", "idetab": "589262", "nom": "S O C C O I M", "codeape": "3811Z", "cp": "45380" }, "geometry": { "type": "Point", "coordinates": [ 1.80315, 47.88048 ] } },
{ "type": "Feature", "properties": { "gml_id": "ETABLISSEMENTS_POLLUEURS.13785", "identifiant": "0010009874", "idetab": "13785", "nom": "AUCHAN OLIVET", "codeape": "4711F", "cp": "45161" }, "geometry": { "type": "Point", "coordinates": [ 1.901479, 47.863938 ] } },
{ "type": "Feature", "properties": { "gml_id": "ETABLISSEMENTS_POLLUEURS.13786", "identifiant": "0010009875", "idetab": "13786", "nom": "AUCHAN VAL DE LOIRE", "codeape": "4711F", "cp": "45140" }, "geometry": { "type": "Point", "coordinates": [ 1.870224, 47.914882 ] } },
{ "type": "Feature", "properties": { "gml_id": "ETABLISSEMENTS_POLLUEURS.13787", "identifiant": "0010010929", "idetab": "13787", "nom": "ECOME (ECO CHALEUR ORLEANS METROPOLE)-ORLEANS-LA-SOURCE-OLIVET-FLEURY-LES-AUBRAIS", "codeape": "3511Z", "cp": "45000" }, "geometry": { "type": "Point", "coordinates": [ 1.93753, 47.83065 ] } },
{ "type": "Feature", "properties": { "gml_id": "ETABLISSEMENTS_POLLUEURS.589266", "identifiant": "0010011156", "idetab": "589266", "nom": "REVIVAL ST JEAN DE LA RUELLE", "codeape": "3831Z", "cp": "45140" }, "geometry": { "type": "Point", "coordinates": [ 1.870224, 47.914882 ] } },
{ "type": "Feature", "properties": { "gml_id": "ETABLISSEMENTS_POLLUEURS.13382", "identifiant": "0010011321", "idetab": "13382", "nom": "S O C C O I M", "codeape": "3811Z", "cp": "45380" }, "geometry": { "type": "Point", "coordinates": [ 1.80315, 47.88048 ] } },
{ "type": "Feature", "properties": { "gml_id": "ETABLISSEMENTS_POLLUEURS.589267", "identifiant": "0010011584", "idetab": "589267", "nom": "ORLEANAISE DISTRIB CHALEUR", "codeape": "3530Z", "cp": "45000" }, "geometry": { "type": "Point", "coordinates": [ 1.89312, 47.91734 ] } },
{ "type": "Feature", "properties": { "gml_id": "ETABLISSEMENTS_POLLUEURS.598663", "identifiant": "0010014474", "idetab": "598663", "nom": "SOCCOIM", "codeape": "3811Z", "cp": "45750" }, "geometry": { "type": "Point", "coordinates": [ 1.863544, 47.884007 ] } },
{ "type": "Feature", "properties": { "gml_id": "ETABLISSEMENTS_POLLUEURS.10427", "identifiant": "0074507501", "idetab": "10427", "nom": "STEP - LA CHAPELLE-SAINT-MESMIN", "codeape": "3700Z", "cp": "45750" }, "geometry": { "type": "Point", "coordinates": [ 1.812148, 47.873695 ] } },
{ "type": "Feature", "properties": { "gml_id": "ETABLISSEMENTS_POLLUEURS.5509", "identifiant": "0010001471", "idetab": "5509", "nom": "DEPOT PETROLE ORLEANS", "codeape": "5210B", "cp": "45800" }, "geometry": { "type": "Point", "coordinates": [ 1.95593, 47.91898 ] } },
{ "type": "Feature", "properties": { "gml_id": "ETABLISSEMENTS_POLLUEURS.3370", "identifiant": "0010001516", "idetab": "3370", "nom": "TROUILLET PANNEAUX", "codeape": "2920Z", "cp": "45800" }, "geometry": { "type": "Point", "coordinates": [ 1.976103, 47.925185 ] } },
{ "type": "Feature", "properties": { "gml_id": "ETABLISSEMENTS_POLLUEURS.5496", "identifiant": "0010001071", "idetab": "5496", "nom": "EDEP-DEFORGES", "codeape": "212G", "cp": "45800" }, "geometry": { "type": "Point", "coordinates": [ 1.976103, 47.925185 ] } },
{ "type": "Feature", "properties": { "gml_id": "ETABLISSEMENTS_POLLUEURS.3342", "identifiant": "0010001078", "idetab": "3342", "nom": "PARFUMS CHRISTIAN DIOR", "codeape": "2042Z", "cp": "45800" }, "geometry": { "type": "Point", "coordinates": [ 1.99199, 47.92426 ] } },
{ "type": "Feature", "properties": { "gml_id": "ETABLISSEMENTS_POLLUEURS.13367", "identifiant": "0010004583", "idetab": "13367", "nom": "REVIVAL", "codeape": "3832Z", "cp": "45140" }, "geometry": { "type": "Point", "coordinates": [ 1.83556, 47.93437 ] } },
{ "type": "Feature", "properties": { "gml_id": "ETABLISSEMENTS_POLLUEURS.7217", "identifiant": "0010000946", "idetab": "7217", "nom": "SEITA GROUPE IMPERIAL TOBACCO", "codeape": "1200Z", "cp": "45404" }, "geometry": { "type": "Point", "coordinates": [ 1.928974, 47.936217 ] } },
{ "type": "Feature", "properties": { "gml_id": "ETABLISSEMENTS_POLLUEURS.590659", "identifiant": "0010005177", "idetab": "590659", "nom": "PROLOGIS FRANCE XX EURL", "codeape": "6820B", "cp": "45140" }, "geometry": { "type": "Point", "coordinates": [ 1.84633, 47.93663 ] } },
{ "type": "Feature", "properties": { "gml_id": "ETABLISSEMENTS_POLLUEURS.589941", "identifiant": "0010001659", "idetab": "589941", "nom": "SCI TITAN ORLEANS", "codeape": "6820B", "cp": "45140" }, "geometry": { "type": "Point", "coordinates": [ 1.83005, 47.93842 ] } },
{ "type": "Feature", "properties": { "gml_id": "ETABLISSEMENTS_POLLUEURS.8212", "identifiant": "0010001108", "idetab": "8212", "nom": "DEPOT PETROLE ORLEANS", "codeape": "5210B", "cp": "45400" }, "geometry": { "type": "Point", "coordinates": [ 1.95105, 47.94002 ] } },
{ "type": "Feature", "properties": { "gml_id": "ETABLISSEMENTS_POLLUEURS.596815", "identifiant": "0010001205", "idetab": "596815", "nom": "DERET LOGISTIQUE", "codeape": "5210B", "cp": "45140" }, "geometry": { "type": "Point", "coordinates": [ 1.83702, 47.94044 ] } },
{ "type": "Feature", "properties": { "gml_id": "ETABLISSEMENTS_POLLUEURS.5518", "identifiant": "0010001629", "idetab": "5518", "nom": "GEMEY PARIS-MAYBELLINE NEW YORK", "codeape": "2042Z", "cp": "45140" }, "geometry": { "type": "Point", "coordinates": [ 1.83089, 47.94077 ] } },
{ "type": "Feature", "properties": { "gml_id": "ETABLISSEMENTS_POLLUEURS.592300", "identifiant": "0010001241", "idetab": "592300", "nom": "KENSINGTON FRANCE LOGISTICS (ORMES) SNC", "codeape": "6820B", "cp": "45140" }, "geometry": { "type": "Point", "coordinates": [ 1.82318, 47.94092 ] } },
{ "type": "Feature", "properties": { "gml_id": "ETABLISSEMENTS_POLLUEURS.590646", "identifiant": "0010001213", "idetab": "590646", "nom": "HOMBERT INDUSTRIE", "codeape": "2562B", "cp": "45140" }, "geometry": { "type": "Point", "coordinates": [ 1.8358, 47.94136 ] } },
{ "type": "Feature", "properties": { "gml_id": "ETABLISSEMENTS_POLLUEURS.5542", "identifiant": "0010002273", "idetab": "5542", "nom": "PRODIA", "codeape": "3832Z", "cp": "45400" }, "geometry": { "type": "Point", "coordinates": [ 1.93093, 47.94198 ] } },
{ "type": "Feature", "properties": { "gml_id": "ETABLISSEMENTS_POLLUEURS.13372", "identifiant": "0010005009", "idetab": "13372", "nom": "L'OREAL PRODUITS DE LUXE FRANCE", "codeape": "4645Z", "cp": "45140" }, "geometry": { "type": "Point", "coordinates": [ 1.8443, 47.94234 ] } },
{ "type": "Feature", "properties": { "gml_id": "ETABLISSEMENTS_POLLUEURS.13355", "identifiant": "0010001203", "idetab": "13355", "nom": "MONCLAIR LOGISTICS (ORMES) SCI", "codeape": "6820B", "cp": "45774" }, "geometry": { "type": "Point", "coordinates": [ 1.838637, 47.942393 ] } },
{ "type": "Feature", "properties": { "gml_id": "ETABLISSEMENTS_POLLUEURS.3359", "identifiant": "0010001378", "idetab": "3359", "nom": "ORRION CHEMICALS ORGAFORM", "codeape": "2052Z", "cp": "45400" }, "geometry": { "type": "Point", "coordinates": [ 1.94925, 47.94259 ] } },
{ "type": "Feature", "properties": { "gml_id": "ETABLISSEMENTS_POLLUEURS.8224", "identifiant": "0010002271", "idetab": "8224", "nom": "TRADIVAL", "codeape": "1011Z", "cp": "45400" }, "geometry": { "type": "Point", "coordinates": [ 1.92515, 47.94315 ] } },
{ "type": "Feature", "properties": { "gml_id": "ETABLISSEMENTS_POLLUEURS.13368", "identifiant": "0010004625", "idetab": "13368", "nom": "ND LOGISTICS ORMES PARADIS SABLONS", "codeape": "5210B", "cp": "45140" }, "geometry": { "type": "Point", "coordinates": [ 1.815859, 47.943214 ] } },
{ "type": "Feature", "properties": { "gml_id": "ETABLISSEMENTS_POLLUEURS.5541", "identifiant": "0010002269", "idetab": "5541", "nom": "MOY PARK BEEF ORLEANS", "codeape": "1011Z", "cp": "45400" }, "geometry": { "type": "Point", "coordinates": [ 1.92765, 47.94423 ] } },
{ "type": "Feature", "properties": { "gml_id": "ETABLISSEMENTS_POLLUEURS.599202", "identifiant": "0010001501", "idetab": "599202", "nom": "DELISLE SAS", "codeape": "7010Z", "cp": "45770" }, "geometry": { "type": "Point", "coordinates": [ 1.91403, 47.94525 ] } },
{ "type": "Feature", "properties": { "gml_id": "ETABLISSEMENTS_POLLUEURS.5501", "identifiant": "0010001240", "idetab": "5501", "nom": "JOHN DEERE SAS", "codeape": "2830Z", "cp": "45770" }, "geometry": { "type": "Point", "coordinates": [ 1.90415, 47.94616 ] } },
{ "type": "Feature", "properties": { "gml_id": "ETABLISSEMENTS_POLLUEURS.596673", "identifiant": "0010001068", "idetab": "596673", "nom": "DERET LOGISTIQUE", "codeape": "5210B", "cp": "45770" }, "geometry": { "type": "Point", "coordinates": [ 1.84446, 47.94623 ] } },
{ "type": "Feature", "properties": { "gml_id": "ETABLISSEMENTS_POLLUEURS.11106", "identifiant": "0010001545", "idetab": "11106", "nom": "SOCIETE LIANTS DE L OUEST", "codeape": "2399Z", "cp": "45770" }, "geometry": { "type": "Point", "coordinates": [ 1.91419, 47.94764 ] } },
{ "type": "Feature", "properties": { "gml_id": "ETABLISSEMENTS_POLLUEURS.589973", "identifiant": "0010005655", "idetab": "589973", "nom": "S O C C O I M", "codeape": "3811Z", "cp": "45770" }, "geometry": { "type": "Point", "coordinates": [ 1.906567, 47.948121 ] } },
{ "type": "Feature", "properties": { "gml_id": "ETABLISSEMENTS_POLLUEURS.597513", "identifiant": "0010001204", "idetab": "597513", "nom": "LOGICOR (SHINE) ORLEANS SNC", "codeape": "6820B", "cp": "45140" }, "geometry": { "type": "Point", "coordinates": [ 1.84131, 47.94827 ] } },
{ "type": "Feature", "properties": { "gml_id": "ETABLISSEMENTS_POLLUEURS.3356", "identifiant": "0010001322", "idetab": "3356", "nom": "MALICHAUD", "codeape": "2562B", "cp": "45140" }, "geometry": { "type": "Point", "coordinates": [ 1.834833, 47.949105 ] } },
{ "type": "Feature", "properties": { "gml_id": "ETABLISSEMENTS_POLLUEURS.3349", "identifiant": "0010001214", "idetab": "3349", "nom": "HONDA FRANCE MANUFACTURING", "codeape": "2830Z", "cp": "45140" }, "geometry": { "type": "Point", "coordinates": [ 1.84286, 47.95179 ] } },
{ "type": "Feature", "properties": { "gml_id": "ETABLISSEMENTS_POLLUEURS.7220", "identifiant": "0010001581", "idetab": "7220", "nom": "SHISEIDO INTERNATIONAL FRANCE", "codeape": "2042Z", "cp": "45140" }, "geometry": { "type": "Point", "coordinates": [ 1.841, 47.95192 ] } },
{ "type": "Feature", "properties": { "gml_id": "ETABLISSEMENTS_POLLUEURS.3363", "identifiant": "0010001408", "idetab": "3363", "nom": "TRISALID", "codeape": "3821Z", "cp": "45770" }, "geometry": { "type": "Point", "coordinates": [ 1.85829, 47.95272 ] } },
{ "type": "Feature", "properties": { "gml_id": "ETABLISSEMENTS_POLLUEURS.598896", "identifiant": "0009000381", "idetab": "598896", "nom": "PHARMACIE CENTRALE DES ARMÉES", "codeape": "2110Z", "cp": "45400" }, "geometry": { "type": "Point", "coordinates": [ 1.93727, 47.95507 ] } },
{ "type": "Feature", "properties": { "gml_id": "ETABLISSEMENTS_POLLUEURS.589217", "identifiant": "0009000283", "idetab": "589217", "nom": "ETABLISSEMENT CENTRAL DES MATÉRIELS DU SERVICE DE SANTÉ DES ARMÉES (ECMSSA)", "codeape": "5210B", "cp": "45400" }, "geometry": { "type": "Point", "coordinates": [ 1.94006, 47.95613 ] } },
{ "type": "Feature", "properties": { "gml_id": "ETABLISSEMENTS_POLLUEURS.11972", "identifiant": "0010004771", "idetab": "11972", "nom": "DERET LOGISTIQUE", "codeape": "5210B", "cp": "45770" }, "geometry": { "type": "Point", "coordinates": [ 1.84695, 47.95631 ] } },
{ "type": "Feature", "properties": { "gml_id": "ETABLISSEMENTS_POLLUEURS.5564", "identifiant": "0010005755", "idetab": "5564", "nom": "SUEZ RV CENTRE OUEST - INSTALLATION DE STOCKAGE DE DÉCHETS NON DANGEREUX DE CHEVILLY 1", "codeape": "3821Z", "cp": "45400" }, "geometry": { "type": "Point", "coordinates": [ 1.975999, 47.965815 ] } },
{ "type": "Feature", "properties": { "gml_id": "ETABLISSEMENTS_POLLUEURS.3374", "identifiant": "0010001569", "idetab": "3374", "nom": "LES LABORATOIRES SERVIER INDUSTRIE", "codeape": "2120Z", "cp": "45520" }, "geometry": { "type": "Point", "coordinates": [ 1.85207, 47.97835 ] } },
{ "type": "Feature", "properties": { "gml_id": "ETABLISSEMENTS_POLLUEURS.7130", "identifiant": "0009000037", "idetab": "7130", "nom": "BA 123 ORLÉANS", "codeape": "3316Z", "cp": "45140" }, "geometry": { "type": "Point", "coordinates": [ 1.78183, 47.97984 ] } },
{ "type": "Feature", "properties": { "gml_id": "ETABLISSEMENTS_POLLUEURS.595026", "identifiant": "0010000833", "idetab": "595026", "nom": "KHEDDACHE AKLI (AUTO TILT)", "codeape": "4532Z", "cp": "45520" }, "geometry": { "type": "Point", "coordinates": [ 1.88469, 47.98284 ] } },
{ "type": "Feature", "properties": { "gml_id": "ETABLISSEMENTS_POLLUEURS.588200", "identifiant": "0010005761", "idetab": "588200", "nom": "L'OREAL/ALTEAD/DERET/DIRECTLOG/DERET", "codeape": "7112B", "cp": "45140" }, "geometry": { "type": "Point", "coordinates": [ 1.815859, 47.943214 ] } },
{ "type": "Feature", "properties": { "gml_id": "ETABLISSEMENTS_POLLUEURS.596632", "identifiant": "0010008126", "idetab": "596632", "nom": "DERET LOGISTIQUE", "codeape": "5210B", "cp": "45770" }, "geometry": { "type": "Point", "coordinates": [ 1.84585, 47.95738 ] } },
{ "type": "Feature", "properties": { "gml_id": "ETABLISSEMENTS_POLLUEURS.589994", "identifiant": "0010008295", "idetab": "589994", "nom": "SETRAD", "codeape": "3821Z", "cp": "45770" }, "geometry": { "type": "Point", "coordinates": [ 1.863398, 47.95834 ] } },
{ "type": "Feature", "properties": { "gml_id": "ETABLISSEMENTS_POLLUEURS.597401", "identifiant": "0010008519", "idetab": "597401", "nom": "AMAZON FRANCE LOGISTIQUE SAS", "codeape": "5210B", "cp": "45770" }, "geometry": { "type": "Point", "coordinates": [ 1.87586, 47.94611 ] } },
{ "type": "Feature", "properties": { "gml_id": "ETABLISSEMENTS_POLLUEURS.598651", "identifiant": "0010008543", "idetab": "598651", "nom": "SOCIETE GABRIEL ENVIRONNEMENT", "codeape": "3832Z", "cp": "45770" }, "geometry": { "type": "Point", "coordinates": [ 1.89915, 47.94517 ] } },
{ "type": "Feature", "properties": { "gml_id": "ETABLISSEMENTS_POLLUEURS.590001", "identifiant": "0010008574", "idetab": "590001", "nom": "COLLECTES VALORISATION ENERGIE DECHETS - COVED", "codeape": "3811Z", "cp": "45770" }, "geometry": { "type": "Point", "coordinates": [ 1.89849, 47.94437 ] } },
{ "type": "Feature", "properties": { "gml_id": "ETABLISSEMENTS_POLLUEURS.11436", "identifiant": "0010009038", "idetab": "11436", "nom": "SUEZ RECYCLAGE ET VALORISATION CENTRE OUEST - INSTALLATION DE STOCKAGE DE DÉCHETS NON DANGEREUX DE CHEVILLY 2", "codeape": "3821Z", "cp": "45400" }, "geometry": { "type": "Point", "coordinates": [ 1.975999, 47.965815 ] } },
{ "type": "Feature", "properties": { "gml_id": "ETABLISSEMENTS_POLLUEURS.596424", "identifiant": "0010011223", "idetab": "596424", "nom": "ARROW ORLEANS", "codeape": "6820B", "cp": "45140" }, "geometry": { "type": "Point", "coordinates": [ 1.8411, 47.94494 ] } },
{ "type": "Feature", "properties": { "gml_id": "ETABLISSEMENTS_POLLUEURS.591670", "identifiant": "0010011965", "idetab": "591670", "nom": "BOIS DEVELOPPEMENT ENERGIE CONCEPT", "codeape": "4778B", "cp": "45140" }, "geometry": { "type": "Point", "coordinates": [ 1.842701, 47.945214 ] } },
{ "type": "Feature", "properties": { "gml_id": "ETABLISSEMENTS_POLLUEURS.589966", "identifiant": "0010004961", "idetab": "589966", "nom": "EURL AUTO RECUPER LASCAUX", "codeape": "4532Z", "cp": "41160" }, "geometry": { "type": "Point", "coordinates": [ 1.22834, 47.97624 ] } },
{ "type": "Feature", "properties": { "gml_id": "ETABLISSEMENTS_POLLUEURS.599255", "identifiant": "0010012223", "idetab": "599255", "nom": "SI POUR LE TRAITEMENT ET LA VALORISATION DES DECHETS (SITREVA)", "codeape": "3821Z", "cp": "28220" }, "geometry": { "type": "Point", "coordinates": [ 1.24877, 47.98906 ] } },
{ "type": "Feature", "properties": { "gml_id": "ETABLISSEMENTS_POLLUEURS.597226", "identifiant": "0010012257", "idetab": "597226", "nom": "LA COUTENCELLERIE", "codeape": "0147Z", "cp": "41160" }, "geometry": { "type": "Point", "coordinates": [ 1.32043, 47.91722 ] } },
{ "type": "Feature", "properties": { "gml_id": "ETABLISSEMENTS_POLLUEURS.593330", "identifiant": "0010012160", "idetab": "593330", "nom": "HEIDELBERG MATERIALS FRANCE GRANULATS", "codeape": "0812Z", "cp": "41240" }, "geometry": { "type": "Point", "coordinates": [ 1.47474, 47.89099 ] } },
{ "type": "Feature", "properties": { "gml_id": "ETABLISSEMENTS_POLLUEURS.596951", "identifiant": "0054100799", "idetab": "596951", "nom": "ARNAUD CRESPIN", "codeape": "0147Z", "cp": "41240" }, "geometry": { "type": "Point", "coordinates": [ 1.44441, 47.96282 ] } },
{ "type": "Feature", "properties": { "gml_id": "ETABLISSEMENTS_POLLUEURS.592727", "identifiant": "0054100803", "idetab": "592727", "nom": "EARL GUISSAURAY", "codeape": "0146Z", "cp": "41290" }, "geometry": { "type": "Point", "coordinates": [ 1.25713, 47.84961 ] } },
{ "type": "Feature", "properties": { "gml_id": "ETABLISSEMENTS_POLLUEURS.598110", "identifiant": "0010011951", "idetab": "598110", "nom": "BETA RENEWABLES FRANCE", "codeape": "3511Z", "cp": "36150" }, "geometry": { "type": "Point", "coordinates": [ 1.76529, 47.011766 ] } },
{ "type": "Feature", "properties": { "gml_id": "ETABLISSEMENTS_POLLUEURS.598124", "identifiant": "0010011960", "idetab": "598124", "nom": "SOCPE LE MÉE SARL", "codeape": "3511Z", "cp": "36150" }, "geometry": { "type": "Point", "coordinates": [ 1.814263, 47.029765 ] } },
{ "type": "Feature", "properties": { "gml_id": "ETABLISSEMENTS_POLLUEURS.590678", "identifiant": "0010012877", "idetab": "590678", "nom": "COLAS FRANCE", "codeape": "4211Z", "cp": "36150" }, "geometry": { "type": "Point", "coordinates": [ 1.84428, 47.01915 ] } },
{ "type": "Feature", "properties": { "gml_id": "ETABLISSEMENTS_POLLUEURS.5463", "identifiant": "0010000540", "idetab": "5463", "nom": "FRANCE MUNITIONS", "codeape": "296B", "cp": "36700" }, "geometry": { "type": "Point", "coordinates": [ 1.13992, 47.015921 ] } },
{ "type": "Feature", "properties": { "gml_id": "ETABLISSEMENTS_POLLUEURS.590021", "identifiant": "0010011132", "idetab": "590021", "nom": "CDC DU PAYS D'ECUEILLE", "codeape": "3811Z", "cp": "36180" }, "geometry": { "type": "Point", "coordinates": [ 1.392914, 47.029821 ] } },
{ "type": "Feature", "properties": { "gml_id": "ETABLISSEMENTS_POLLUEURS.591001", "identifiant": "0053600161", "idetab": "591001", "nom": "AGENA", "codeape": "0149Z", "cp": "36180" }, "geometry": { "type": "Point", "coordinates": [ 1.40244, 47.01039 ] } },
{ "type": "Feature", "properties": { "gml_id": "ETABLISSEMENTS_POLLUEURS.598940", "identifiant": "0100000936", "idetab": "598940", "nom": "IFB REFRACTORIES", "codeape": "2320Z", "cp": "36500" }, "geometry": { "type": "Point", "coordinates": [ 1.40178, 47.01679 ] } },
{ "type": "Feature", "properties": { "gml_id": "ETABLISSEMENTS_POLLUEURS.7388", "identifiant": "36086073", "idetab": "7388", "nom": "SARL AGENA", "codeape": "0149Z", "cp": "36180" }, "geometry": { "type": "Point", "coordinates": [ 1.414489, 47.018576 ] } }
]
}
