{
"type": "FeatureCollection",
"name": "ms:ETABLISSEMENTS_POLLUEURS",
"crs": { "type": "name", "properties": { "name": "urn:ogc:def:crs:OGC:1.3:CRS84" } },
"features": [
{ "type": "Feature", "properties": { "gml_id": "ETABLISSEMENTS_POLLUEURS.420", "identifiant": "0005401918", "idetab": "420", "nom": "GEWISS FRANCE SAS", "codeape": "2599B", "cp": "21430" }, "geometry": { "type": "Point", "coordinates": [ 4.26672, 47.20709 ] } },
{ "type": "Feature", "properties": { "gml_id": "ETABLISSEMENTS_POLLUEURS.10541", "identifiant": "0005400182", "idetab": "10541", "nom": "GRANULATS BOURGOGNE AUVERGNE", "codeape": "0812Z", "cp": "21390" }, "geometry": { "type": "Point", "coordinates": [ 4.4026, 47.3885 ] } },
{ "type": "Feature", "properties": { "gml_id": "ETABLISSEMENTS_POLLUEURS.8821", "identifiant": "0005400196", "idetab": "8821", "nom": "GRANULATS BOURGOGNE AUVERGNE", "codeape": "0812Z", "cp": "21230" }, "geometry": { "type": "Point", "coordinates": [ 4.46233, 47.14706 ] } },
{ "type": "Feature", "properties": { "gml_id": "ETABLISSEMENTS_POLLUEURS.590334", "identifiant": "0005426102", "idetab": "590334", "nom": "PRODUITS ROUTIERS BITUMES", "codeape": "2399Z", "cp": "21230" }, "geometry": { "type": "Point", "coordinates": [ 4.49095, 47.12754 ] } },
{ "type": "Feature", "properties": { "gml_id": "ETABLISSEMENTS_POLLUEURS.589565", "identifiant": "0005402423", "idetab": "589565", "nom": "ETABLISSEMENT ANDRE FRITZ", "codeape": "3832Z", "cp": "21340" }, "geometry": { "type": "Point", "coordinates": [ 4.526288, 47.033703 ] } },
{ "type": "Feature", "properties": { "gml_id": "ETABLISSEMENTS_POLLUEURS.588483", "identifiant": "0005402422", "idetab": "588483", "nom": "ETABLISSEMENT ANDRE FRITZ (B522)", "codeape": "3832Z", "cp": "21340" }, "geometry": { "type": "Point", "coordinates": [ 4.526288, 47.033703 ] } },
{ "type": "Feature", "properties": { "gml_id": "ETABLISSEMENTS_POLLUEURS.588482", "identifiant": "0005401957", "idetab": "588482", "nom": "COFRECO", "codeape": "2512Z", "cp": "21360" }, "geometry": { "type": "Point", "coordinates": [ 4.694249, 47.148236 ] } },
{ "type": "Feature", "properties": { "gml_id": "ETABLISSEMENTS_POLLUEURS.588501", "identifiant": "0005426291", "idetab": "588501", "nom": "COMMUNAUTE DE COMMUNES OUCHE ET MONTAGNE", "codeape": "8411Z", "cp": "21540" }, "geometry": { "type": "Point", "coordinates": [ 4.696067, 47.304432 ] } },
{ "type": "Feature", "properties": { "gml_id": "ETABLISSEMENTS_POLLUEURS.588479", "identifiant": "0005401541", "idetab": "588479", "nom": "SAS DEMOLITION AUTO", "codeape": "4520A", "cp": "21540" }, "geometry": { "type": "Point", "coordinates": [ 4.780619, 47.355158 ] } },
{ "type": "Feature", "properties": { "gml_id": "ETABLISSEMENTS_POLLUEURS.7752", "identifiant": "0005401929", "idetab": "7752", "nom": "SOBEM", "codeape": "312A", "cp": "21410" }, "geometry": { "type": "Point", "coordinates": [ 4.795909, 47.287456 ] } },
{ "type": "Feature", "properties": { "gml_id": "ETABLISSEMENTS_POLLUEURS.592852", "identifiant": "0052100565", "idetab": "592852", "nom": "SOCIETE DU VAL DES VIGNES", "codeape": "0147Z", "cp": "21570" }, "geometry": { "type": "Point", "coordinates": [ 4.67358, 47.97396 ] } },
{ "type": "Feature", "properties": { "gml_id": "ETABLISSEMENTS_POLLUEURS.591390", "identifiant": "0005402846", "idetab": "591390", "nom": "AUXOIS COMPOST", "codeape": "0161Z", "cp": "21150" }, "geometry": { "type": "Point", "coordinates": [ 4.45865, 47.46355 ] } },
{ "type": "Feature", "properties": { "gml_id": "ETABLISSEMENTS_POLLUEURS.591391", "identifiant": "0005402869", "idetab": "591391", "nom": "VALLOUREC UMBILICALS VU1 (ANCIEN)", "codeape": "2420Z", "cp": "21150" }, "geometry": { "type": "Point", "coordinates": [ 4.439214, 47.537794 ] } },
{ "type": "Feature", "properties": { "gml_id": "ETABLISSEMENTS_POLLUEURS.12100", "identifiant": "0005402343", "idetab": "12100", "nom": "EIV BOURGOGNE", "codeape": "5221Z", "cp": "21150" }, "geometry": { "type": "Point", "coordinates": [ 4.476142, 47.541169 ] } },
{ "type": "Feature", "properties": { "gml_id": "ETABLISSEMENTS_POLLUEURS.375", "identifiant": "0005401346", "idetab": "375", "nom": "NEOTISS FRANCE", "codeape": "2420Z", "cp": "21150" }, "geometry": { "type": "Point", "coordinates": [ 4.47405, 47.54371 ] } },
{ "type": "Feature", "properties": { "gml_id": "ETABLISSEMENTS_POLLUEURS.591382", "identifiant": "0005400100", "idetab": "591382", "nom": "GRANULATS BOURGOGNE AUVERGNE", "codeape": "0812Z", "cp": "21150" }, "geometry": { "type": "Point", "coordinates": [ 4.60881, 47.55078 ] } },
{ "type": "Feature", "properties": { "gml_id": "ETABLISSEMENTS_POLLUEURS.598175", "identifiant": "0003303044", "idetab": "598175", "nom": "SOCIETE PAUL ROSA ET FILS", "codeape": "4211Z", "cp": "21150" }, "geometry": { "type": "Point", "coordinates": [ 4.39827, 47.56584 ] } },
{ "type": "Feature", "properties": { "gml_id": "ETABLISSEMENTS_POLLUEURS.13538", "identifiant": "0005401609", "idetab": "13538", "nom": "SARL DELLA CASA PERE ET FILS", "codeape": "4690Z", "cp": "21500" }, "geometry": { "type": "Point", "coordinates": [ 4.39945, 47.60758 ] } },
{ "type": "Feature", "properties": { "gml_id": "ETABLISSEMENTS_POLLUEURS.588489", "identifiant": "0005403185", "idetab": "588489", "nom": "VALTI", "codeape": "2420Z", "cp": "21500" }, "geometry": { "type": "Point", "coordinates": [ 4.327808, 47.619275 ] } },
{ "type": "Feature", "properties": { "gml_id": "ETABLISSEMENTS_POLLUEURS.589562", "identifiant": "0005401358", "idetab": "589562", "nom": "METAL DEPLOYE", "codeape": "2593Z", "cp": "21500" }, "geometry": { "type": "Point", "coordinates": [ 4.33792, 47.61951 ] } },
{ "type": "Feature", "properties": { "gml_id": "ETABLISSEMENTS_POLLUEURS.377", "identifiant": "0005401359", "idetab": "377", "nom": "DMV FRANCE", "codeape": "2420Z", "cp": "21500" }, "geometry": { "type": "Point", "coordinates": [ 4.32291, 47.62142 ] } },
{ "type": "Feature", "properties": { "gml_id": "ETABLISSEMENTS_POLLUEURS.596913", "identifiant": "0005402194", "idetab": "596913", "nom": "LEGRAND FRANCE", "codeape": "2733Z", "cp": "21500" }, "geometry": { "type": "Point", "coordinates": [ 4.32154, 47.62169 ] } },
{ "type": "Feature", "properties": { "gml_id": "ETABLISSEMENTS_POLLUEURS.6323", "identifiant": "0005401360", "idetab": "6323", "nom": "FRAMATOME", "codeape": "2445Z", "cp": "21500" }, "geometry": { "type": "Point", "coordinates": [ 4.33045, 47.62302 ] } },
{ "type": "Feature", "properties": { "gml_id": "ETABLISSEMENTS_POLLUEURS.7738", "identifiant": "0005401357", "idetab": "7738", "nom": "VALLOUREC BEARING TUBES", "codeape": "2420Z", "cp": "21501" }, "geometry": { "type": "Point", "coordinates": [ 4.34092, 47.626231 ] } },
{ "type": "Feature", "properties": { "gml_id": "ETABLISSEMENTS_POLLUEURS.386", "identifiant": "0005401471", "idetab": "386", "nom": "VALLOUREC & MANNESMANN FRANCE TUBERIE DE MONTBARD", "codeape": "2420Z", "cp": "21502" }, "geometry": { "type": "Point", "coordinates": [ 4.34092, 47.626231 ] } },
{ "type": "Feature", "properties": { "gml_id": "ETABLISSEMENTS_POLLUEURS.592110", "identifiant": "0005426290", "idetab": "592110", "nom": "ISDI COMMUNE D'ETALANTE", "codeape": "8411Z", "cp": "21510" }, "geometry": { "type": "Point", "coordinates": [ 4.759804, 47.640139 ] } },
{ "type": "Feature", "properties": { "gml_id": "ETABLISSEMENTS_POLLUEURS.312", "identifiant": "0005401107", "idetab": "312", "nom": "WILLIAM SAURIN", "codeape": "151E", "cp": "71380" }, "geometry": { "type": "Point", "coordinates": [ 4.931418, 47.669535 ] } },
{ "type": "Feature", "properties": { "gml_id": "ETABLISSEMENTS_POLLUEURS.8845", "identifiant": "0005401653", "idetab": "8845", "nom": "GMT SAS", "codeape": "3102Z", "cp": "21400" }, "geometry": { "type": "Point", "coordinates": [ 4.708388, 47.834034 ] } },
{ "type": "Feature", "properties": { "gml_id": "ETABLISSEMENTS_POLLUEURS.333", "identifiant": "0005401165", "idetab": "333", "nom": "BOURGOGNE FONDERIE", "codeape": "275A", "cp": "21400" }, "geometry": { "type": "Point", "coordinates": [ 4.573321, 47.859373 ] } },
{ "type": "Feature", "properties": { "gml_id": "ETABLISSEMENTS_POLLUEURS.591816", "identifiant": "0005401391", "idetab": "591816", "nom": "ETABLISSEMENTS FERNAND BRUGERE", "codeape": "1621Z", "cp": "21400" }, "geometry": { "type": "Point", "coordinates": [ 4.57704, 47.86834 ] } },
{ "type": "Feature", "properties": { "gml_id": "ETABLISSEMENTS_POLLUEURS.332", "identifiant": "0005401164", "idetab": "332", "nom": "EVIOSYS PACKAGING FRANCE S.A.S.", "codeape": "2592Z", "cp": "21400" }, "geometry": { "type": "Point", "coordinates": [ 4.5704, 47.87092 ] } },
{ "type": "Feature", "properties": { "gml_id": "ETABLISSEMENTS_POLLUEURS.323", "identifiant": "0005401139", "idetab": "323", "nom": "TREFILUNION (EX. ARCELORMITTAL)", "codeape": "2434Z", "cp": "21400" }, "geometry": { "type": "Point", "coordinates": [ 4.546541, 47.871335 ] } },
{ "type": "Feature", "properties": { "gml_id": "ETABLISSEMENTS_POLLUEURS.592714", "identifiant": "0052100268", "idetab": "592714", "nom": "EARL ROC'AILLES", "codeape": "0147Z", "cp": "21500" }, "geometry": { "type": "Point", "coordinates": [ 4.43855, 47.60898 ] } },
{ "type": "Feature", "properties": { "gml_id": "ETABLISSEMENTS_POLLUEURS.592975", "identifiant": "0052100397", "idetab": "592975", "nom": "DU VESVRAND", "codeape": "0150Z", "cp": "21290" }, "geometry": { "type": "Point", "coordinates": [ 4.89504, 47.7732 ] } },
{ "type": "Feature", "properties": { "gml_id": "ETABLISSEMENTS_POLLUEURS.13479", "identifiant": "0052100705", "idetab": "13479", "nom": "GROUPE BIGARD", "codeape": "1011Z", "cp": "21150" }, "geometry": { "type": "Point", "coordinates": [ 4.46062, 47.54528 ] } },
{ "type": "Feature", "properties": { "gml_id": "ETABLISSEMENTS_POLLUEURS.597615", "identifiant": "0052100766", "idetab": "597615", "nom": "GAEC DE LA PRAIRIE", "codeape": "0150Z", "cp": "21350" }, "geometry": { "type": "Point", "coordinates": [ 4.50255, 47.45257 ] } },
{ "type": "Feature", "properties": { "gml_id": "ETABLISSEMENTS_POLLUEURS.592790", "identifiant": "0052100786", "idetab": "592790", "nom": "EARL DES MUIDS", "codeape": "0147Z", "cp": "21400" }, "geometry": { "type": "Point", "coordinates": [ 4.57101, 47.92303 ] } },
{ "type": "Feature", "properties": { "gml_id": "ETABLISSEMENTS_POLLUEURS.596682", "identifiant": "0003301573", "idetab": "596682", "nom": "CC GEVREY-CHAMBERTIN NUITS-SAINT-GEORGES", "codeape": "3811Z", "cp": "21700" }, "geometry": { "type": "Point", "coordinates": [ 4.96724, 47.12296 ] } },
{ "type": "Feature", "properties": { "gml_id": "ETABLISSEMENTS_POLLUEURS.596485", "identifiant": "0003301483", "idetab": "596485", "nom": "ETABLISSEMENTS NOIROT", "codeape": "4211Z", "cp": "21700" }, "geometry": { "type": "Point", "coordinates": [ 4.96351, 47.12361 ] } },
{ "type": "Feature", "properties": { "gml_id": "ETABLISSEMENTS_POLLUEURS.590328", "identifiant": "0005401617", "idetab": "590328", "nom": "GIE VIALCO", "codeape": "2399Z", "cp": "21220" }, "geometry": { "type": "Point", "coordinates": [ 4.9991, 47.22863 ] } },
{ "type": "Feature", "properties": { "gml_id": "ETABLISSEMENTS_POLLUEURS.597294", "identifiant": "0052100276", "idetab": "597294", "nom": "SOCIETE ROUX ET COMPAGNIE", "codeape": "1013A", "cp": "21220" }, "geometry": { "type": "Point", "coordinates": [ 4.99703, 47.22533 ] } },
{ "type": "Feature", "properties": { "gml_id": "ETABLISSEMENTS_POLLUEURS.416", "identifiant": "0005401880", "idetab": "416", "nom": "SOCIETE DIJONNAISE D'ENERGIE NOUVELLE", "codeape": "3530Z", "cp": "21000" }, "geometry": { "type": "Point", "coordinates": [ 4.99444, 47.32433 ] } },
{ "type": "Feature", "properties": { "gml_id": "ETABLISSEMENTS_POLLUEURS.596947", "identifiant": "0052100055", "idetab": "596947", "nom": "SA MAISON JOSEPH DROUHIN", "codeape": "4634Z", "cp": "21200" }, "geometry": { "type": "Point", "coordinates": [ 4.8359, 47.02365 ] } },
{ "type": "Feature", "properties": { "gml_id": "ETABLISSEMENTS_POLLUEURS.418", "identifiant": "0005401892", "idetab": "418", "nom": "TPC", "codeape": "321A", "cp": "21201" }, "geometry": { "type": "Point", "coordinates": [ 4.842747, 47.023306 ] } },
{ "type": "Feature", "properties": { "gml_id": "ETABLISSEMENTS_POLLUEURS.589564", "identifiant": "0005402241", "idetab": "589564", "nom": "HOSPICES CIVILS DE BEAUNE", "codeape": "8610Z", "cp": "21200" }, "geometry": { "type": "Point", "coordinates": [ 4.842747, 47.023306 ] } },
{ "type": "Feature", "properties": { "gml_id": "ETABLISSEMENTS_POLLUEURS.9645", "identifiant": "0005401802", "idetab": "9645", "nom": "BEAUNE BRIOCHE", "codeape": "1071A", "cp": "21200" }, "geometry": { "type": "Point", "coordinates": [ 4.84746, 47.01345 ] } },
{ "type": "Feature", "properties": { "gml_id": "ETABLISSEMENTS_POLLUEURS.389", "identifiant": "0005401506", "idetab": "389", "nom": "REINE DE DIJON SAS", "codeape": "1084Z", "cp": "21410" }, "geometry": { "type": "Point", "coordinates": [ 4.850699, 47.306965 ] } },
{ "type": "Feature", "properties": { "gml_id": "ETABLISSEMENTS_POLLUEURS.598765", "identifiant": "0005402490", "idetab": "598765", "nom": "SARL BROCHOT DANIEL ET FILS", "codeape": "7010Z", "cp": "21200" }, "geometry": { "type": "Point", "coordinates": [ 4.85998, 47.02232 ] } },
{ "type": "Feature", "properties": { "gml_id": "ETABLISSEMENTS_POLLUEURS.597296", "identifiant": "0052100056", "idetab": "597296", "nom": "KRITER BRUT DE BRUT", "codeape": "1102A", "cp": "21200" }, "geometry": { "type": "Point", "coordinates": [ 4.86135, 47.01078 ] } },
{ "type": "Feature", "properties": { "gml_id": "ETABLISSEMENTS_POLLUEURS.588341", "identifiant": "0003300023", "idetab": "588341", "nom": "COMMUNAUTE DE COMMUNES OUCHE ET MONTAGNE", "codeape": "8411Z", "cp": "21370" }, "geometry": { "type": "Point", "coordinates": [ 4.863637, 47.328877 ] } },
{ "type": "Feature", "properties": { "gml_id": "ETABLISSEMENTS_POLLUEURS.4021", "identifiant": "0005401185", "idetab": "4021", "nom": "SAICA PACK FRANCE", "codeape": "1721A", "cp": "21200" }, "geometry": { "type": "Point", "coordinates": [ 4.86378, 47.01866 ] } },
{ "type": "Feature", "properties": { "gml_id": "ETABLISSEMENTS_POLLUEURS.4040", "identifiant": "0005401906", "idetab": "4040", "nom": "RTP FRANCE", "codeape": "2016Z", "cp": "21207" }, "geometry": { "type": "Point", "coordinates": [ 4.86385, 47.01861 ] } },
{ "type": "Feature", "properties": { "gml_id": "ETABLISSEMENTS_POLLUEURS.596600", "identifiant": "0005401543", "idetab": "596600", "nom": "SARL BERNARD SECULA", "codeape": "3832Z", "cp": "21200" }, "geometry": { "type": "Point", "coordinates": [ 4.86571, 47.023076 ] } },
{ "type": "Feature", "properties": { "gml_id": "ETABLISSEMENTS_POLLUEURS.588499", "identifiant": "0005426217", "idetab": "588499", "nom": "CARRIERES BOURGOGNE SUD", "codeape": "0812Z", "cp": "21700" }, "geometry": { "type": "Point", "coordinates": [ 4.87715, 47.09161 ] } },
{ "type": "Feature", "properties": { "gml_id": "ETABLISSEMENTS_POLLUEURS.596011", "identifiant": "0005426258", "idetab": "596011", "nom": "INDREXT", "codeape": "2370Z", "cp": "21700" }, "geometry": { "type": "Point", "coordinates": [ 4.87715, 47.09161 ] } },
{ "type": "Feature", "properties": { "gml_id": "ETABLISSEMENTS_POLLUEURS.589572", "identifiant": "0005426260", "idetab": "589572", "nom": "ROUGEOT VIGOT", "codeape": "4211Z", "cp": "21700" }, "geometry": { "type": "Point", "coordinates": [ 4.887468, 47.090572 ] } },
{ "type": "Feature", "properties": { "gml_id": "ETABLISSEMENTS_POLLUEURS.13987", "identifiant": "0005402320", "idetab": "13987", "nom": "CARRIERES BOURGOGNE SUD", "codeape": "0812Z", "cp": "21700" }, "geometry": { "type": "Point", "coordinates": [ 4.90701, 47.10463 ] } },
{ "type": "Feature", "properties": { "gml_id": "ETABLISSEMENTS_POLLUEURS.13978", "identifiant": "0005400091", "idetab": "13978", "nom": "CARRIERES BOURGOGNE SUD", "codeape": "0812Z", "cp": "21700" }, "geometry": { "type": "Point", "coordinates": [ 4.90968, 47.14341 ] } },
{ "type": "Feature", "properties": { "gml_id": "ETABLISSEMENTS_POLLUEURS.596674", "identifiant": "0005401981", "idetab": "596674", "nom": "BOURGOGNE DECHETS SERVICES", "codeape": "3811Z", "cp": "21200" }, "geometry": { "type": "Point", "coordinates": [ 4.9154, 47.01062 ] } },
{ "type": "Feature", "properties": { "gml_id": "ETABLISSEMENTS_POLLUEURS.11558", "identifiant": "0005401914", "idetab": "11558", "nom": "SMURFIT WESTROCK PARNALLAND", "codeape": "1721A", "cp": "21700" }, "geometry": { "type": "Point", "coordinates": [ 4.95432, 47.13622 ] } },
{ "type": "Feature", "properties": { "gml_id": "ETABLISSEMENTS_POLLUEURS.305", "identifiant": "0005401096", "idetab": "305", "nom": "CONSTELLIUM EXTRUSIONS FRANCE", "codeape": "2442Z", "cp": "21700" }, "geometry": { "type": "Point", "coordinates": [ 4.9619, 47.13161 ] } },
{ "type": "Feature", "properties": { "gml_id": "ETABLISSEMENTS_POLLUEURS.419", "identifiant": "0005401901", "idetab": "419", "nom": "REFRESCO FRANCE", "codeape": "1107B", "cp": "21700" }, "geometry": { "type": "Point", "coordinates": [ 4.96221, 47.12575 ] } },
{ "type": "Feature", "properties": { "gml_id": "ETABLISSEMENTS_POLLUEURS.392", "identifiant": "0005401594", "idetab": "392", "nom": "EUROPEENNE DE CONDIMENTS", "codeape": "1084Z", "cp": "21160" }, "geometry": { "type": "Point", "coordinates": [ 4.978413, 47.260025 ] } },
{ "type": "Feature", "properties": { "gml_id": "ETABLISSEMENTS_POLLUEURS.597298", "identifiant": "0052100638", "idetab": "597298", "nom": "MAISON BOUCHARD PERE ET FILS", "codeape": "4634Z", "cp": "21420" }, "geometry": { "type": "Point", "coordinates": [ 4.84021, 47.04925 ] } },
{ "type": "Feature", "properties": { "gml_id": "ETABLISSEMENTS_POLLUEURS.594822", "identifiant": "0005400956", "idetab": "594822", "nom": "CARRIERES & MATERIAUX NORD-EST", "codeape": "0812Z", "cp": "89420" }, "geometry": { "type": "Point", "coordinates": [ 4.07189, 47.44339 ] } },
{ "type": "Feature", "properties": { "gml_id": "ETABLISSEMENTS_POLLUEURS.595381", "identifiant": "0005400640", "idetab": "595381", "nom": "EQIOM GRANULATS", "codeape": "0812Z", "cp": "89390" }, "geometry": { "type": "Point", "coordinates": [ 4.21629, 47.6569 ] } },
{ "type": "Feature", "properties": { "gml_id": "ETABLISSEMENTS_POLLUEURS.10546", "identifiant": "0005401646", "idetab": "10546", "nom": "SOCIEL", "codeape": "2611Z", "cp": "21210" }, "geometry": { "type": "Point", "coordinates": [ 4.232345, 47.279561 ] } },
{ "type": "Feature", "properties": { "gml_id": "ETABLISSEMENTS_POLLUEURS.9651", "identifiant": "0005402224", "idetab": "9651", "nom": "COLLECTES VALORISATION ENERGIE DECHETS - COVED", "codeape": "3811Z", "cp": "21140" }, "geometry": { "type": "Point", "coordinates": [ 4.28835, 47.47183 ] } },
{ "type": "Feature", "properties": { "gml_id": "ETABLISSEMENTS_POLLUEURS.593659", "identifiant": "0005402404", "idetab": "593659", "nom": "LAFARGE GRANULATS", "codeape": "0812Z", "cp": "89390" }, "geometry": { "type": "Point", "coordinates": [ 4.20968, 47.68492 ] } },
{ "type": "Feature", "properties": { "gml_id": "ETABLISSEMENTS_POLLUEURS.595295", "identifiant": "0058900299", "idetab": "595295", "nom": "EARL GALINA", "codeape": "0147Z", "cp": "89310" }, "geometry": { "type": "Point", "coordinates": [ 4.0035, 47.67716 ] } },
{ "type": "Feature", "properties": { "gml_id": "ETABLISSEMENTS_POLLUEURS.598018", "identifiant": "0058900554", "idetab": "598018", "nom": "GAEC DE LA MAISON DES CHAMPS", "codeape": "0150Z", "cp": "89630" }, "geometry": { "type": "Point", "coordinates": [ 4.02952, 47.40309 ] } },
{ "type": "Feature", "properties": { "gml_id": "ETABLISSEMENTS_POLLUEURS.11187", "identifiant": "0025400034", "idetab": "11187", "nom": "SUEZ RV YONNE METAUX", "codeape": "3832Z", "cp": "89700" }, "geometry": { "type": "Point", "coordinates": [ 4.01572, 47.84914 ] } },
{ "type": "Feature", "properties": { "gml_id": "ETABLISSEMENTS_POLLUEURS.9632", "identifiant": "0005401234", "idetab": "9632", "nom": "J P GRUHIER SOC", "codeape": "3109A", "cp": "89700" }, "geometry": { "type": "Point", "coordinates": [ 4.02743, 47.85226 ] } },
{ "type": "Feature", "properties": { "gml_id": "ETABLISSEMENTS_POLLUEURS.591418", "identifiant": "0005702339", "idetab": "591418", "nom": "SOCIETE NOUVELLE DES CARRIERES DE COUSSEGREY", "codeape": "0811Z", "cp": "10210" }, "geometry": { "type": "Point", "coordinates": [ 4.03346, 47.95191 ] } },
{ "type": "Feature", "properties": { "gml_id": "ETABLISSEMENTS_POLLUEURS.588506", "identifiant": "0005426319", "idetab": "588506", "nom": "CC LE TONNERROIS EN BOURGOGNE", "codeape": "8411Z", "cp": "89700" }, "geometry": { "type": "Point", "coordinates": [ 4.04969, 47.86156 ] } },
{ "type": "Feature", "properties": { "gml_id": "ETABLISSEMENTS_POLLUEURS.591242", "identifiant": "0058900014", "idetab": "591242", "nom": "DU VAL DES FOURCHES", "codeape": "0146Z", "cp": "89160" }, "geometry": { "type": "Point", "coordinates": [ 4.05561, 47.75148 ] } },
{ "type": "Feature", "properties": { "gml_id": "ETABLISSEMENTS_POLLUEURS.595067", "identifiant": "0005426308", "idetab": "595067", "nom": "SARL ROY", "codeape": "4391B", "cp": "89430" }, "geometry": { "type": "Point", "coordinates": [ 4.05804, 47.85754 ] } },
{ "type": "Feature", "properties": { "gml_id": "ETABLISSEMENTS_POLLUEURS.359", "identifiant": "0005401296", "idetab": "359", "nom": "USINE DE FRANGEY", "codeape": "2351Z", "cp": "89160" }, "geometry": { "type": "Point", "coordinates": [ 4.091, 47.801971 ] } },
{ "type": "Feature", "properties": { "gml_id": "ETABLISSEMENTS_POLLUEURS.3839", "identifiant": "89284516", "idetab": "3839", "nom": "SARL DU VAL DES FOURCHES", "codeape": "0146Z", "cp": "89160" }, "geometry": { "type": "Point", "coordinates": [ 4.112221, 47.764349 ] } },
{ "type": "Feature", "properties": { "gml_id": "ETABLISSEMENTS_POLLUEURS.588505", "identifiant": "0005426310", "idetab": "588505", "nom": "COMMUNE DE VILLIERS LES HAUTS ISDI", "codeape": "8411Z", "cp": "89160" }, "geometry": { "type": "Point", "coordinates": [ 4.15158, 47.728347 ] } },
{ "type": "Feature", "properties": { "gml_id": "ETABLISSEMENTS_POLLUEURS.597973", "identifiant": "0005426333", "idetab": "597973", "nom": "CC LE TONNERROIS EN BOURGOGNE", "codeape": "8411Z", "cp": "89160" }, "geometry": { "type": "Point", "coordinates": [ 4.1636, 47.76243 ] } },
{ "type": "Feature", "properties": { "gml_id": "ETABLISSEMENTS_POLLUEURS.595730", "identifiant": "0005402787", "idetab": "595730", "nom": "BASECQ MARIE LAURE", "codeape": "0147Z", "cp": "89740" }, "geometry": { "type": "Point", "coordinates": [ 4.22836, 47.93107 ] } }
]
}
