{
"type": "FeatureCollection",
"name": "ms:ETABLISSEMENTS_POLLUEURS",
"crs": { "type": "name", "properties": { "name": "urn:ogc:def:crs:OGC:1.3:CRS84" } },
"features": [
{ "type": "Feature", "properties": { "gml_id": "ETABLISSEMENTS_POLLUEURS.598005", "identifiant": "0003014734", "idetab": "598005", "nom": "LE PUISOT", "codeape": "3521Z", "cp": "08300" }, "geometry": { "type": "Point", "coordinates": [ 4.37112, 49.55397 ] } },
{ "type": "Feature", "properties": { "gml_id": "ETABLISSEMENTS_POLLUEURS.727", "identifiant": "0005701080", "idetab": "727", "nom": "SOCIETE ARDENNAISE D'AMELIORATION DU CADRE DE VIE", "codeape": "3821Z", "cp": "08260" }, "geometry": { "type": "Point", "coordinates": [ 4.41767, 49.9001 ] } },
{ "type": "Feature", "properties": { "gml_id": "ETABLISSEMENTS_POLLUEURS.597968", "identifiant": "0003014681", "idetab": "597968", "nom": "BRI METHANE", "codeape": "3521Z", "cp": "08310" }, "geometry": { "type": "Point", "coordinates": [ 4.48997, 49.37069 ] } },
{ "type": "Feature", "properties": { "gml_id": "ETABLISSEMENTS_POLLUEURS.597933", "identifiant": "0003014742", "idetab": "597933", "nom": "SAS METHARNES", "codeape": "3821Z", "cp": "08310" }, "geometry": { "type": "Point", "coordinates": [ 4.52118, 49.32418 ] } },
{ "type": "Feature", "properties": { "gml_id": "ETABLISSEMENTS_POLLUEURS.723", "identifiant": "0005701056", "idetab": "723", "nom": "METAL BLANC S A", "codeape": "2443Z", "cp": "08230" }, "geometry": { "type": "Point", "coordinates": [ 4.53452, 49.88848 ] } },
{ "type": "Feature", "properties": { "gml_id": "ETABLISSEMENTS_POLLUEURS.597958", "identifiant": "0003014385", "idetab": "597958", "nom": "MAZAGRAN BIOGAZ", "codeape": "3521Z", "cp": "08310" }, "geometry": { "type": "Point", "coordinates": [ 4.55221, 49.38369 ] } },
{ "type": "Feature", "properties": { "gml_id": "ETABLISSEMENTS_POLLUEURS.597227", "identifiant": "0005701076", "idetab": "597227", "nom": "SAE-SMB INDUSTRIES", "codeape": "2932Z", "cp": "08090" }, "geometry": { "type": "Point", "coordinates": [ 4.60078, 49.79632 ] } },
{ "type": "Feature", "properties": { "gml_id": "ETABLISSEMENTS_POLLUEURS.724", "identifiant": "0005701064", "idetab": "724", "nom": "BRENNTAG SA", "codeape": "4675Z", "cp": "08090" }, "geometry": { "type": "Point", "coordinates": [ 4.61061, 49.79451 ] } },
{ "type": "Feature", "properties": { "gml_id": "ETABLISSEMENTS_POLLUEURS.597899", "identifiant": "0003014356", "idetab": "597899", "nom": "MAROQUINERIE DES ARDENNES", "codeape": "1512Z", "cp": "08090" }, "geometry": { "type": "Point", "coordinates": [ 4.64039, 49.79871 ] } },
{ "type": "Feature", "properties": { "gml_id": "ETABLISSEMENTS_POLLUEURS.598079", "identifiant": "0003014701", "idetab": "598079", "nom": "METHALLIA", "codeape": "3521Z", "cp": "08400" }, "geometry": { "type": "Point", "coordinates": [ 4.66564, 49.3409 ] } },
{ "type": "Feature", "properties": { "gml_id": "ETABLISSEMENTS_POLLUEURS.597156", "identifiant": "0003012337", "idetab": "597156", "nom": "COMMUNE DE REVIN", "codeape": "8411Z", "cp": "08500" }, "geometry": { "type": "Point", "coordinates": [ 4.67762, 49.96351 ] } },
{ "type": "Feature", "properties": { "gml_id": "ETABLISSEMENTS_POLLUEURS.588634", "identifiant": "0005700025", "idetab": "588634", "nom": "SOCIETE DE TRAVAUX PUBLICS DE LA VENCE", "codeape": "4312A", "cp": "08410" }, "geometry": { "type": "Point", "coordinates": [ 4.68022, 49.68798 ] } },
{ "type": "Feature", "properties": { "gml_id": "ETABLISSEMENTS_POLLUEURS.726", "identifiant": "0005701079", "idetab": "726", "nom": "FONDERIES COLLIGNON UP DE SAINT-ELOI", "codeape": "2451Z", "cp": "08800" }, "geometry": { "type": "Point", "coordinates": [ 4.702035, 49.876706 ] } },
{ "type": "Feature", "properties": { "gml_id": "ETABLISSEMENTS_POLLUEURS.725", "identifiant": "0005701067", "idetab": "725", "nom": "HANON SYSTEMS CHARLEVILLE", "codeape": "2932Z", "cp": "08000" }, "geometry": { "type": "Point", "coordinates": [ 4.70896, 49.7696 ] } },
{ "type": "Feature", "properties": { "gml_id": "ETABLISSEMENTS_POLLUEURS.7810", "identifiant": "0005701070", "idetab": "7810", "nom": "DEVILLE", "codeape": "2752Z", "cp": "08013" }, "geometry": { "type": "Point", "coordinates": [ 4.718348, 49.761286 ] } },
{ "type": "Feature", "properties": { "gml_id": "ETABLISSEMENTS_POLLUEURS.598628", "identifiant": "0003012740", "idetab": "598628", "nom": "METHA-GAROTERIE", "codeape": "3821Z", "cp": "08160" }, "geometry": { "type": "Point", "coordinates": [ 4.74332, 49.70014 ] } },
{ "type": "Feature", "properties": { "gml_id": "ETABLISSEMENTS_POLLUEURS.9702", "identifiant": "0005701062", "idetab": "9702", "nom": "RAGUET - SITE DE BOGNY SUR MEUSE", "codeape": "2550A", "cp": "08120" }, "geometry": { "type": "Point", "coordinates": [ 4.766306, 49.849057 ] } },
{ "type": "Feature", "properties": { "gml_id": "ETABLISSEMENTS_POLLUEURS.7809", "identifiant": "0005701059", "idetab": "7809", "nom": "FAV LCAB LA CHANDELLERIE", "codeape": "287Q", "cp": "08081" }, "geometry": { "type": "Point", "coordinates": [ 4.766306, 49.849057 ] } },
{ "type": "Feature", "properties": { "gml_id": "ETABLISSEMENTS_POLLUEURS.596565", "identifiant": "0003012315", "idetab": "596565", "nom": "COGECAB", "codeape": "3511Z", "cp": "51110" }, "geometry": { "type": "Point", "coordinates": [ 4.14556, 49.33781 ] } },
{ "type": "Feature", "properties": { "gml_id": "ETABLISSEMENTS_POLLUEURS.596748", "identifiant": "0003012316", "idetab": "596748", "nom": "FICAP", "codeape": "1629Z", "cp": "51110" }, "geometry": { "type": "Point", "coordinates": [ 4.14556, 49.33781 ] } },
{ "type": "Feature", "properties": { "gml_id": "ETABLISSEMENTS_POLLUEURS.599179", "identifiant": "0003012779", "idetab": "599179", "nom": "METHABAZ", "codeape": "3521Z", "cp": "51110" }, "geometry": { "type": "Point", "coordinates": [ 4.11118, 49.34762 ] } },
{ "type": "Feature", "properties": { "gml_id": "ETABLISSEMENTS_POLLUEURS.17", "identifiant": "0005100293", "idetab": "17", "nom": "EVERBAL", "codeape": "1712Z", "cp": "02190" }, "geometry": { "type": "Point", "coordinates": [ 4.04452, 49.44504 ] } },
{ "type": "Feature", "properties": { "gml_id": "ETABLISSEMENTS_POLLUEURS.597932", "identifiant": "0003013511", "idetab": "597932", "nom": "GAZ DE CONSTANTINE", "codeape": "3521Z", "cp": "08360" }, "geometry": { "type": "Point", "coordinates": [ 4.1667, 49.55828 ] } },
{ "type": "Feature", "properties": { "gml_id": "ETABLISSEMENTS_POLLUEURS.3866", "identifiant": "0005100422", "idetab": "3866", "nom": "AROMONT", "codeape": "1013A", "cp": "02340" }, "geometry": { "type": "Point", "coordinates": [ 4.015918, 49.695695 ] } },
{ "type": "Feature", "properties": { "gml_id": "ETABLISSEMENTS_POLLUEURS.190", "identifiant": "0005103968", "idetab": "190", "nom": "MANUFACTURE TRANSFORMATION TEXTILE", "codeape": "2229A", "cp": "02340" }, "geometry": { "type": "Point", "coordinates": [ 4.01775, 49.70181 ] } },
{ "type": "Feature", "properties": { "gml_id": "ETABLISSEMENTS_POLLUEURS.598756", "identifiant": "0003014384", "idetab": "598756", "nom": "CHAMPLIN GAZ", "codeape": "3521Z", "cp": "08260" }, "geometry": { "type": "Point", "coordinates": [ 4.25818, 49.8384 ] } },
{ "type": "Feature", "properties": { "gml_id": "ETABLISSEMENTS_POLLUEURS.10499", "identifiant": "0005105811", "idetab": "10499", "nom": "GALLOO FRANCE", "codeape": "3832Z", "cp": "02500" }, "geometry": { "type": "Point", "coordinates": [ 4.09036, 49.90601 ] } },
{ "type": "Feature", "properties": { "gml_id": "ETABLISSEMENTS_POLLUEURS.189", "identifiant": "0005103880", "idetab": "189", "nom": "EBERSPACHER UNITÉS A ET B", "codeape": "2932Z", "cp": "02830" }, "geometry": { "type": "Point", "coordinates": [ 4.126642, 49.914416 ] } },
{ "type": "Feature", "properties": { "gml_id": "ETABLISSEMENTS_POLLUEURS.3863", "identifiant": "0005100378", "idetab": "3863", "nom": "ANODEL", "codeape": "2561Z", "cp": "02500" }, "geometry": { "type": "Point", "coordinates": [ 4.07628, 49.91959 ] } },
{ "type": "Feature", "properties": { "gml_id": "ETABLISSEMENTS_POLLUEURS.590251", "identifiant": "0005100382", "idetab": "590251", "nom": "BARAT TRANSPORT", "codeape": "2512Z", "cp": "02500" }, "geometry": { "type": "Point", "coordinates": [ 4.0797, 49.92087 ] } },
{ "type": "Feature", "properties": { "gml_id": "ETABLISSEMENTS_POLLUEURS.3864", "identifiant": "0005100379", "idetab": "3864", "nom": "SARL SABHIR SOCIETE D ABATTAGE D HIRSON", "codeape": "1011Z", "cp": "02500" }, "geometry": { "type": "Point", "coordinates": [ 4.071092, 49.921213 ] } },
{ "type": "Feature", "properties": { "gml_id": "ETABLISSEMENTS_POLLUEURS.599032", "identifiant": "0050200569", "idetab": "599032", "nom": "SCEA DE LA GALINETTE", "codeape": "0147Z", "cp": "02340" }, "geometry": { "type": "Point", "coordinates": [ 4.09638, 49.67016 ] } },
{ "type": "Feature", "properties": { "gml_id": "ETABLISSEMENTS_POLLUEURS.597108", "identifiant": "0050200655", "idetab": "597108", "nom": "ELEVAGE LENOIR", "codeape": "0147Z", "cp": "02340" }, "geometry": { "type": "Point", "coordinates": [ 4.048931, 49.734109 ] } },
{ "type": "Feature", "properties": { "gml_id": "ETABLISSEMENTS_POLLUEURS.598456", "identifiant": "0003012819", "idetab": "598456", "nom": "MARTINS TRAVAUX PUBLICS M.T.P.", "codeape": "4221Z", "cp": "51150" }, "geometry": { "type": "Point", "coordinates": [ 4.10076, 49.01654 ] } },
{ "type": "Feature", "properties": { "gml_id": "ETABLISSEMENTS_POLLUEURS.592069", "identifiant": "0003012489", "idetab": "592069", "nom": "CARRIERES & MATERIAUX NORD-EST", "codeape": "0812Z", "cp": "51150" }, "geometry": { "type": "Point", "coordinates": [ 4.16664, 49.02487 ] } },
{ "type": "Feature", "properties": { "gml_id": "ETABLISSEMENTS_POLLUEURS.7832", "identifiant": "0005702761", "idetab": "7832", "nom": "AUREADE", "codeape": "3821Z", "cp": "51520" }, "geometry": { "type": "Point", "coordinates": [ 4.32504, 49.0382 ] } },
{ "type": "Feature", "properties": { "gml_id": "ETABLISSEMENTS_POLLUEURS.826", "identifiant": "0005701503", "idetab": "826", "nom": "SMURFIT KAPPA FRANCE", "codeape": "1721A", "cp": "51150" }, "geometry": { "type": "Point", "coordinates": [ 4.117001, 49.04591 ] } },
{ "type": "Feature", "properties": { "gml_id": "ETABLISSEMENTS_POLLUEURS.890", "identifiant": "0005701817", "idetab": "890", "nom": "LAURENT-PERRIER", "codeape": "7010Z", "cp": "51150" }, "geometry": { "type": "Point", "coordinates": [ 4.12305, 49.05029 ] } },
{ "type": "Feature", "properties": { "gml_id": "ETABLISSEMENTS_POLLUEURS.11354", "identifiant": "0005701657", "idetab": "11354", "nom": "BROYAGE NORD EST", "codeape": "3821Z", "cp": "51150" }, "geometry": { "type": "Point", "coordinates": [ 4.14048, 49.072 ] } },
{ "type": "Feature", "properties": { "gml_id": "ETABLISSEMENTS_POLLUEURS.14036", "identifiant": "0005701668", "idetab": "14036", "nom": "VRANKEN-POMMERY PRODUCTION", "codeape": "1102A", "cp": "51150" }, "geometry": { "type": "Point", "coordinates": [ 4.13929, 49.07283 ] } },
{ "type": "Feature", "properties": { "gml_id": "ETABLISSEMENTS_POLLUEURS.11358", "identifiant": "0005703569", "idetab": "11358", "nom": "BROYAGE NORD EST", "codeape": "3821Z", "cp": "51400" }, "geometry": { "type": "Point", "coordinates": [ 4.31219, 49.1056 ] } },
{ "type": "Feature", "properties": { "gml_id": "ETABLISSEMENTS_POLLUEURS.592145", "identifiant": "0005704652", "idetab": "592145", "nom": "MATERIAUX ENROBES DE CHAMPAGNE", "codeape": "2399Z", "cp": "51520" }, "geometry": { "type": "Point", "coordinates": [ 4.32504, 49.03824 ] } },
{ "type": "Feature", "properties": { "gml_id": "ETABLISSEMENTS_POLLUEURS.7144", "identifiant": "0009000055", "idetab": "7144", "nom": "SOC TRANSPORTS PETROLIERS PAR PIPELINE", "codeape": "4950Z", "cp": "51400" }, "geometry": { "type": "Point", "coordinates": [ 4.39357, 49.04702 ] } },
{ "type": "Feature", "properties": { "gml_id": "ETABLISSEMENTS_POLLUEURS.12831", "identifiant": "0005703285", "idetab": "12831", "nom": "M H C S", "codeape": "1102A", "cp": "51500" }, "geometry": { "type": "Point", "coordinates": [ 4.11122, 49.15473 ] } },
{ "type": "Feature", "properties": { "gml_id": "ETABLISSEMENTS_POLLUEURS.589616", "identifiant": "0005702674", "idetab": "589616", "nom": "COMMUNAUTÉ URBAINE DU GRAND REIMS", "codeape": "8411Z", "cp": "51100" }, "geometry": { "type": "Point", "coordinates": [ 4.115289, 49.216428 ] } },
{ "type": "Feature", "properties": { "gml_id": "ETABLISSEMENTS_POLLUEURS.827", "identifiant": "0005701505", "idetab": "827", "nom": "ARESIA-WITRY", "codeape": "2511Z", "cp": "51420" }, "geometry": { "type": "Point", "coordinates": [ 4.11539, 49.29438 ] } },
{ "type": "Feature", "properties": { "gml_id": "ETABLISSEMENTS_POLLUEURS.804", "identifiant": "0005701445", "idetab": "804", "nom": "USINE DE LAVANNES", "codeape": "157A", "cp": "51420" }, "geometry": { "type": "Point", "coordinates": [ 4.123337, 49.292587 ] } },
{ "type": "Feature", "properties": { "gml_id": "ETABLISSEMENTS_POLLUEURS.808", "identifiant": "0005701453", "idetab": "808", "nom": "COOPER AGRICOLE DE DESHYDRATATION", "codeape": "1091Z", "cp": "51500" }, "geometry": { "type": "Point", "coordinates": [ 4.12471, 49.20912 ] } },
{ "type": "Feature", "properties": { "gml_id": "ETABLISSEMENTS_POLLUEURS.824", "identifiant": "0005701499", "idetab": "824", "nom": "BP FRANCE", "codeape": "515A", "cp": "51500" }, "geometry": { "type": "Point", "coordinates": [ 4.132308, 49.198147 ] } },
{ "type": "Feature", "properties": { "gml_id": "ETABLISSEMENTS_POLLUEURS.823", "identifiant": "0005701498", "idetab": "823", "nom": "CRISTAL UNION", "codeape": "1081Z", "cp": "51500" }, "geometry": { "type": "Point", "coordinates": [ 4.14097, 49.19504 ] } },
{ "type": "Feature", "properties": { "gml_id": "ETABLISSEMENTS_POLLUEURS.807", "identifiant": "0005701452", "idetab": "807", "nom": "REIMS AEROSPACE", "codeape": "3030Z", "cp": "51360" }, "geometry": { "type": "Point", "coordinates": [ 4.14923, 49.21022 ] } },
{ "type": "Feature", "properties": { "gml_id": "ETABLISSEMENTS_POLLUEURS.12833", "identifiant": "0005703519", "idetab": "12833", "nom": "AIR LIQUIDE CO2 EUROPE", "codeape": "2011Z", "cp": "51110" }, "geometry": { "type": "Point", "coordinates": [ 4.14925, 49.33757 ] } },
{ "type": "Feature", "properties": { "gml_id": "ETABLISSEMENTS_POLLUEURS.7819", "identifiant": "0005701421", "idetab": "7819", "nom": "CRISTAL UNION", "codeape": "1081Z", "cp": "51110" }, "geometry": { "type": "Point", "coordinates": [ 4.15622, 49.35335 ] } },
{ "type": "Feature", "properties": { "gml_id": "ETABLISSEMENTS_POLLUEURS.897", "identifiant": "0005701872", "idetab": "897", "nom": "COOPÉRATIVE VINICOLE DE NOGENT L'ABBESSE ET CERNAY LES REIMS", "codeape": "1102A", "cp": "51420" }, "geometry": { "type": "Point", "coordinates": [ 4.158931, 49.25448 ] } },
{ "type": "Feature", "properties": { "gml_id": "ETABLISSEMENTS_POLLUEURS.857", "identifiant": "0005701609", "idetab": "857", "nom": "GIVAUDAN FRANCE", "codeape": "2042Z", "cp": "51110" }, "geometry": { "type": "Point", "coordinates": [ 4.16015, 49.34595 ] } },
{ "type": "Feature", "properties": { "gml_id": "ETABLISSEMENTS_POLLUEURS.843", "identifiant": "0005701552", "idetab": "843", "nom": "ADM BAZANCOURT", "codeape": "1062Z", "cp": "51110" }, "geometry": { "type": "Point", "coordinates": [ 4.16101, 49.35056 ] } },
{ "type": "Feature", "properties": { "gml_id": "ETABLISSEMENTS_POLLUEURS.588647", "identifiant": "0005704846", "idetab": "588647", "nom": "EUROVIA CHAMPAGNE ARDENNE", "codeape": "4211Z", "cp": "51420" }, "geometry": { "type": "Point", "coordinates": [ 4.16266, 49.27259 ] } },
{ "type": "Feature", "properties": { "gml_id": "ETABLISSEMENTS_POLLUEURS.8945", "identifiant": "0005702992", "idetab": "8945", "nom": "CRISTAL UNION", "codeape": "2014Z", "cp": "51110" }, "geometry": { "type": "Point", "coordinates": [ 4.16283, 49.35026 ] } },
{ "type": "Feature", "properties": { "gml_id": "ETABLISSEMENTS_POLLUEURS.961", "identifiant": "0005702699", "idetab": "961", "nom": "CRISTAL UNION", "codeape": "", "cp": "51110" }, "geometry": { "type": "Point", "coordinates": [ 4.170256, 49.366528 ] } },
{ "type": "Feature", "properties": { "gml_id": "ETABLISSEMENTS_POLLUEURS.10607", "identifiant": "0005701420", "idetab": "10607", "nom": "FICHET BAUCHE", "codeape": "2599B", "cp": "51110" }, "geometry": { "type": "Point", "coordinates": [ 4.17852, 49.35955 ] } },
{ "type": "Feature", "properties": { "gml_id": "ETABLISSEMENTS_POLLUEURS.850", "identifiant": "0005701583", "idetab": "850", "nom": "AFFINAGE CHAMPAGNE ARDENNES", "codeape": "2444Z", "cp": "51110" }, "geometry": { "type": "Point", "coordinates": [ 4.1965, 49.3551 ] } },
{ "type": "Feature", "properties": { "gml_id": "ETABLISSEMENTS_POLLUEURS.12836", "identifiant": "0005703828", "idetab": "12836", "nom": "MECANIQUE 2 L", "codeape": "2562B", "cp": "51490" }, "geometry": { "type": "Point", "coordinates": [ 4.21422, 49.24759 ] } },
{ "type": "Feature", "properties": { "gml_id": "ETABLISSEMENTS_POLLUEURS.800", "identifiant": "0005701423", "idetab": "800", "nom": "BOSAL LE RAPIDE", "codeape": "2932Z", "cp": "51490" }, "geometry": { "type": "Point", "coordinates": [ 4.215521, 49.249905 ] } },
{ "type": "Feature", "properties": { "gml_id": "ETABLISSEMENTS_POLLUEURS.4245", "identifiant": "0005701422", "idetab": "4245", "nom": "ONYX EST", "codeape": "3811Z", "cp": "51490" }, "geometry": { "type": "Point", "coordinates": [ 4.21829, 49.2482 ] } },
{ "type": "Feature", "properties": { "gml_id": "ETABLISSEMENTS_POLLUEURS.12835", "identifiant": "0005703561", "idetab": "12835", "nom": "SUEZ ORGANIQUE", "codeape": "3821Z", "cp": "51110" }, "geometry": { "type": "Point", "coordinates": [ 4.2295, 49.33439 ] } },
{ "type": "Feature", "properties": { "gml_id": "ETABLISSEMENTS_POLLUEURS.822", "identifiant": "0005701497", "idetab": "822", "nom": "LUZEAL", "codeape": "1091Z", "cp": "51400" }, "geometry": { "type": "Point", "coordinates": [ 4.25383, 49.14756 ] } },
{ "type": "Feature", "properties": { "gml_id": "ETABLISSEMENTS_POLLUEURS.597437", "identifiant": "0005703088", "idetab": "597437", "nom": "COOP AGRICOL TRANSFORM CONSERVATION VENT", "codeape": "5210B", "cp": "08300" }, "geometry": { "type": "Point", "coordinates": [ 4.28327, 49.41977 ] } },
{ "type": "Feature", "properties": { "gml_id": "ETABLISSEMENTS_POLLUEURS.849", "identifiant": "0005701574", "idetab": "849", "nom": "NASA", "codeape": "2030Z", "cp": "51490" }, "geometry": { "type": "Point", "coordinates": [ 4.29636, 49.30286 ] } },
{ "type": "Feature", "properties": { "gml_id": "ETABLISSEMENTS_POLLUEURS.597164", "identifiant": "0050800050", "idetab": "597164", "nom": "SOCIETE CIVILE AVICOLE DES CARRIERES", "codeape": "0147Z", "cp": "08220" }, "geometry": { "type": "Point", "coordinates": [ 4.148887, 49.572226 ] } },
{ "type": "Feature", "properties": { "gml_id": "ETABLISSEMENTS_POLLUEURS.591710", "identifiant": "0050800269", "idetab": "591710", "nom": "SOCIETE AGRICOLE GOSSET", "codeape": "0146Z", "cp": "08220" }, "geometry": { "type": "Point", "coordinates": [ 4.13718, 49.60446 ] } },
{ "type": "Feature", "properties": { "gml_id": "ETABLISSEMENTS_POLLUEURS.597123", "identifiant": "0050800332", "idetab": "597123", "nom": "EARL DU MONT D'AUSSONCE", "codeape": "0147Z", "cp": "08310" }, "geometry": { "type": "Point", "coordinates": [ 4.294061, 49.367293 ] } },
{ "type": "Feature", "properties": { "gml_id": "ETABLISSEMENTS_POLLUEURS.597213", "identifiant": "0050800360", "idetab": "597213", "nom": "EARL DU BOIS D'ARGENT - NEUFLIZE", "codeape": "0111Z", "cp": "08300" }, "geometry": { "type": "Point", "coordinates": [ 4.29913, 49.409526 ] } },
{ "type": "Feature", "properties": { "gml_id": "ETABLISSEMENTS_POLLUEURS.590718", "identifiant": "0050800361", "idetab": "590718", "nom": "PYCOQ", "codeape": "0147Z", "cp": "08300" }, "geometry": { "type": "Point", "coordinates": [ 4.31122, 49.40602 ] } },
{ "type": "Feature", "properties": { "gml_id": "ETABLISSEMENTS_POLLUEURS.598712", "identifiant": "0100006682", "idetab": "598712", "nom": "THORIN ENERGIES", "codeape": "3521Z", "cp": "08300" }, "geometry": { "type": "Point", "coordinates": [ 4.29738, 49.56401 ] } },
{ "type": "Feature", "properties": { "gml_id": "ETABLISSEMENTS_POLLUEURS.5414", "identifiant": "08210005", "idetab": "5414", "nom": "SOCETE AGRICOLE GOSSET", "codeape": "0146Z", "cp": "08220" }, "geometry": { "type": "Point", "coordinates": [ 4.145979, 49.6128 ] } },
{ "type": "Feature", "properties": { "gml_id": "ETABLISSEMENTS_POLLUEURS.7108", "identifiant": "08287013", "idetab": "7108", "nom": "EARL VERZEAUX", "codeape": "0111Z", "cp": "08310" }, "geometry": { "type": "Point", "coordinates": [ 4.29168, 49.386809 ] } },
{ "type": "Feature", "properties": { "gml_id": "ETABLISSEMENTS_POLLUEURS.5415", "identifiant": "08314003", "idetab": "5415", "nom": "SCEA 08", "codeape": "011A", "cp": "08300" }, "geometry": { "type": "Point", "coordinates": [ 4.307882, 49.419424 ] } },
{ "type": "Feature", "properties": { "gml_id": "ETABLISSEMENTS_POLLUEURS.10266", "identifiant": "08314010", "idetab": "10266", "nom": "SCEA 08", "codeape": "0147Z", "cp": "08300" }, "geometry": { "type": "Point", "coordinates": [ 4.302313, 49.420292 ] } },
{ "type": "Feature", "properties": { "gml_id": "ETABLISSEMENTS_POLLUEURS.5416", "identifiant": "08314091", "idetab": "5416", "nom": "EARL DU BOIS D'ARGENT", "codeape": "0147Z", "cp": "08300" }, "geometry": { "type": "Point", "coordinates": [ 4.307882, 49.419424 ] } },
{ "type": "Feature", "properties": { "gml_id": "ETABLISSEMENTS_POLLUEURS.7109", "identifiant": "08435023", "idetab": "7109", "nom": "EARL VAGNIER", "codeape": "0146Z", "cp": "08300" }, "geometry": { "type": "Point", "coordinates": [ 4.29163, 49.447642 ] } },
{ "type": "Feature", "properties": { "gml_id": "ETABLISSEMENTS_POLLUEURS.597408", "identifiant": "0005701201", "idetab": "597408", "nom": "SOCIETE EXPLOITATION SOURCES ROXANE", "codeape": "1107B", "cp": "08430" }, "geometry": { "type": "Point", "coordinates": [ 4.56874, 49.64962 ] } },
{ "type": "Feature", "properties": { "gml_id": "ETABLISSEMENTS_POLLUEURS.737", "identifiant": "0005701128", "idetab": "737", "nom": "STELLANTIS AUTO SAS", "codeape": "2451Z", "cp": "08000" }, "geometry": { "type": "Point", "coordinates": [ 4.75009, 49.74113 ] } },
{ "type": "Feature", "properties": { "gml_id": "ETABLISSEMENTS_POLLUEURS.12108", "identifiant": "0005701210", "idetab": "12108", "nom": "GARAGE BAUDOIN", "codeape": "4677Z", "cp": "08000" }, "geometry": { "type": "Point", "coordinates": [ 4.71397, 49.76815 ] } },
{ "type": "Feature", "properties": { "gml_id": "ETABLISSEMENTS_POLLUEURS.736", "identifiant": "0005701122", "idetab": "736", "nom": "CANELIA ROUVROY POUDRE", "codeape": "1051D", "cp": "08150" }, "geometry": { "type": "Point", "coordinates": [ 4.48066, 49.78671 ] } },
{ "type": "Feature", "properties": { "gml_id": "ETABLISSEMENTS_POLLUEURS.753", "identifiant": "0005701185", "idetab": "753", "nom": "CANJAERE", "codeape": "1610B", "cp": "08090" }, "geometry": { "type": "Point", "coordinates": [ 4.61468, 49.79442 ] } },
{ "type": "Feature", "properties": { "gml_id": "ETABLISSEMENTS_POLLUEURS.597502", "identifiant": "0005701126", "idetab": "597502", "nom": "T.S.D.M.", "codeape": "2561Z", "cp": "08090" }, "geometry": { "type": "Point", "coordinates": [ 4.62876, 49.79512 ] } },
{ "type": "Feature", "properties": { "gml_id": "ETABLISSEMENTS_POLLUEURS.11610", "identifiant": "0005701108", "idetab": "11610", "nom": "ESKA", "codeape": "3832Z", "cp": "08700" }, "geometry": { "type": "Point", "coordinates": [ 4.74567, 49.80767 ] } },
{ "type": "Feature", "properties": { "gml_id": "ETABLISSEMENTS_POLLUEURS.596103", "identifiant": "0005701109", "idetab": "596103", "nom": "SOCIETE NOUVELLE DES FONDERIES NICOLAS", "codeape": "2451Z", "cp": "08700" }, "geometry": { "type": "Point", "coordinates": [ 4.7464, 49.82013 ] } },
{ "type": "Feature", "properties": { "gml_id": "ETABLISSEMENTS_POLLUEURS.588637", "identifiant": "0005702637", "idetab": "588637", "nom": "ENTREPRISE URANO", "codeape": "4211Z", "cp": "08090" }, "geometry": { "type": "Point", "coordinates": [ 4.64568, 49.83597 ] } },
{ "type": "Feature", "properties": { "gml_id": "ETABLISSEMENTS_POLLUEURS.755", "identifiant": "0005701195", "idetab": "755", "nom": "WALOR BOGNY", "codeape": "2550A", "cp": "08120" }, "geometry": { "type": "Point", "coordinates": [ 4.77682, 49.83844 ] } },
{ "type": "Feature", "properties": { "gml_id": "ETABLISSEMENTS_POLLUEURS.597987", "identifiant": "0005701091", "idetab": "597987", "nom": "ARDOISIERES DE RIMOGNE ET DE SAINT LOUIS SUR MEUSE", "codeape": "0812Z", "cp": "08150" }, "geometry": { "type": "Point", "coordinates": [ 4.54177, 49.84565 ] } },
{ "type": "Feature", "properties": { "gml_id": "ETABLISSEMENTS_POLLUEURS.756", "identifiant": "0005701196", "idetab": "756", "nom": "SN FONDERIES COLLIGNON", "codeape": "2511Z", "cp": "08800" }, "geometry": { "type": "Point", "coordinates": [ 4.70864, 49.87307 ] } },
{ "type": "Feature", "properties": { "gml_id": "ETABLISSEMENTS_POLLUEURS.733", "identifiant": "0005701102", "idetab": "733", "nom": "SOCIETE METALLURGIQUE DES ARDENNES", "codeape": "2561Z", "cp": "08800" }, "geometry": { "type": "Point", "coordinates": [ 4.78431, 49.87391 ] } },
{ "type": "Feature", "properties": { "gml_id": "ETABLISSEMENTS_POLLUEURS.8933", "identifiant": "0005701100", "idetab": "8933", "nom": "FORGEX FRANCE", "codeape": "2550A", "cp": "08800" }, "geometry": { "type": "Point", "coordinates": [ 4.74101, 49.88328 ] } },
{ "type": "Feature", "properties": { "gml_id": "ETABLISSEMENTS_POLLUEURS.7813", "identifiant": "0005701123", "idetab": "7813", "nom": "SAS OLFA", "codeape": "1629Z", "cp": "08380" }, "geometry": { "type": "Point", "coordinates": [ 4.279345, 49.904282 ] } },
{ "type": "Feature", "properties": { "gml_id": "ETABLISSEMENTS_POLLUEURS.4241", "identifiant": "0005701121", "idetab": "4241", "nom": "FONDERIE LA PERSEVERANCE", "codeape": "2451Z", "cp": "08230" }, "geometry": { "type": "Point", "coordinates": [ 4.51964, 49.920193 ] } },
{ "type": "Feature", "properties": { "gml_id": "ETABLISSEMENTS_POLLUEURS.734", "identifiant": "0005701114", "idetab": "734", "nom": "GROUPE BOUHYER", "codeape": "2451Z", "cp": "08500" }, "geometry": { "type": "Point", "coordinates": [ 4.62702, 49.93483 ] } },
{ "type": "Feature", "properties": { "gml_id": "ETABLISSEMENTS_POLLUEURS.735", "identifiant": "0005701115", "idetab": "735", "nom": "SOCIÉTÉ ARDENNAISE INDUSTRIELLE", "codeape": "2751Z", "cp": "08502" }, "geometry": { "type": "Point", "coordinates": [ 4.640681, 49.941648 ] } },
{ "type": "Feature", "properties": { "gml_id": "ETABLISSEMENTS_POLLUEURS.7812", "identifiant": "0005701116", "idetab": "7812", "nom": "IDEAL STANDARD FRANCE", "codeape": "2342Z", "cp": "08500" }, "geometry": { "type": "Point", "coordinates": [ 4.640681, 49.941648 ] } },
{ "type": "Feature", "properties": { "gml_id": "ETABLISSEMENTS_POLLUEURS.9703", "identifiant": "0005701224", "idetab": "9703", "nom": "FABB21", "codeape": "2420Z", "cp": "08170" }, "geometry": { "type": "Point", "coordinates": [ 4.68363, 49.9874 ] } },
{ "type": "Feature", "properties": { "gml_id": "ETABLISSEMENTS_POLLUEURS.732", "identifiant": "0005701095", "idetab": "732", "nom": "ETABLISSEMENTS A. BARET", "codeape": "1610B", "cp": "08170" }, "geometry": { "type": "Point", "coordinates": [ 4.69899, 49.99653 ] } },
{ "type": "Feature", "properties": { "gml_id": "ETABLISSEMENTS_POLLUEURS.12252", "identifiant": "0005702779", "idetab": "12252", "nom": "GALLOO FRANCE", "codeape": "3832Z", "cp": "08230" }, "geometry": { "type": "Point", "coordinates": [ 4.52756, 49.8853 ] } },
{ "type": "Feature", "properties": { "gml_id": "ETABLISSEMENTS_POLLUEURS.597345", "identifiant": "0005702817", "idetab": "597345", "nom": "MONDELEZ FRANCE BISCUITS PRODUCTION SAS", "codeape": "1072Z", "cp": "08000" }, "geometry": { "type": "Point", "coordinates": [ 4.71017, 49.75531 ] } },
{ "type": "Feature", "properties": { "gml_id": "ETABLISSEMENTS_POLLUEURS.7833", "identifiant": "0005702818", "idetab": "7833", "nom": "SOCIETE ARDENNAISE D'AMELIORATION DU CADRE DE VIE", "codeape": "3811Z", "cp": "08160" }, "geometry": { "type": "Point", "coordinates": [ 4.74432, 49.70078 ] } },
{ "type": "Feature", "properties": { "gml_id": "ETABLISSEMENTS_POLLUEURS.590369", "identifiant": "0005702865", "idetab": "590369", "nom": "OLFA", "codeape": "1629Z", "cp": "08380" }, "geometry": { "type": "Point", "coordinates": [ 4.27088, 49.91348 ] } },
{ "type": "Feature", "properties": { "gml_id": "ETABLISSEMENTS_POLLUEURS.599091", "identifiant": "0005702879", "idetab": "599091", "nom": "FOISSY", "codeape": "2562B", "cp": "08160" }, "geometry": { "type": "Point", "coordinates": [ 4.70959, 49.71331 ] } },
{ "type": "Feature", "properties": { "gml_id": "ETABLISSEMENTS_POLLUEURS.597453", "identifiant": "0005702926", "idetab": "597453", "nom": "SUM TECH SA", "codeape": "2892Z", "cp": "08000" }, "geometry": { "type": "Point", "coordinates": [ 4.712449, 49.767307 ] } },
{ "type": "Feature", "properties": { "gml_id": "ETABLISSEMENTS_POLLUEURS.12253", "identifiant": "0005703021", "idetab": "12253", "nom": "AGINODE FRANCE SASU", "codeape": "2732Z", "cp": "08170" }, "geometry": { "type": "Point", "coordinates": [ 4.70139, 49.99076 ] } },
{ "type": "Feature", "properties": { "gml_id": "ETABLISSEMENTS_POLLUEURS.9717", "identifiant": "0005703186", "idetab": "9717", "nom": "BMI PRODUCTION FRANCE", "codeape": "2332Z", "cp": "08460" }, "geometry": { "type": "Point", "coordinates": [ 4.43792, 49.70519 ] } },
{ "type": "Feature", "properties": { "gml_id": "ETABLISSEMENTS_POLLUEURS.597482", "identifiant": "0005703550", "idetab": "597482", "nom": "ARDENNE METROPOLE", "codeape": "8411Z", "cp": "08090" }, "geometry": { "type": "Point", "coordinates": [ 4.74213, 49.79192 ] } },
{ "type": "Feature", "properties": { "gml_id": "ETABLISSEMENTS_POLLUEURS.598901", "identifiant": "0005703737", "idetab": "598901", "nom": "DEWEZ", "codeape": "3832Z", "cp": "59610" }, "geometry": { "type": "Point", "coordinates": [ 4.27297, 49.91128 ] } },
{ "type": "Feature", "properties": { "gml_id": "ETABLISSEMENTS_POLLUEURS.597528", "identifiant": "0005703759", "idetab": "597528", "nom": "BETON-MATERIAUX ET CONSTRUCTIONS", "codeape": "2361Z", "cp": "08000" }, "geometry": { "type": "Point", "coordinates": [ 4.65791, 49.76773 ] } },
{ "type": "Feature", "properties": { "gml_id": "ETABLISSEMENTS_POLLUEURS.597522", "identifiant": "0005704368", "idetab": "597522", "nom": "VALODEA SYND MIXTE TRAITEMENT DECHETS ARDENNAIS", "codeape": "8412Z", "cp": "08000" }, "geometry": { "type": "Point", "coordinates": [ 4.73417, 49.73764 ] } },
{ "type": "Feature", "properties": { "gml_id": "ETABLISSEMENTS_POLLUEURS.597282", "identifiant": "0005704501", "idetab": "597282", "nom": "PLAFOMETAL", "codeape": "2511Z", "cp": "08800" }, "geometry": { "type": "Point", "coordinates": [ 4.78325, 49.87549 ] } },
{ "type": "Feature", "properties": { "gml_id": "ETABLISSEMENTS_POLLUEURS.591424", "identifiant": "0005704607", "idetab": "591424", "nom": "BIOGENIE FRANCE", "codeape": "3900Z", "cp": "08160" }, "geometry": { "type": "Point", "coordinates": [ 4.73926, 49.69856 ] } },
{ "type": "Feature", "properties": { "gml_id": "ETABLISSEMENTS_POLLUEURS.599228", "identifiant": "0005704900", "idetab": "599228", "nom": "RECYCLAGE DE LA VALLEE", "codeape": "3811Z", "cp": "08120" }, "geometry": { "type": "Point", "coordinates": [ 4.77408, 49.84125 ] } },
{ "type": "Feature", "properties": { "gml_id": "ETABLISSEMENTS_POLLUEURS.9438", "identifiant": "0070810505", "idetab": "9438", "nom": "STEP - CHARLEVILLE-MEZIERES", "codeape": "3700Z", "cp": "08000" }, "geometry": { "type": "Point", "coordinates": [ 4.718348, 49.761286 ] } },
{ "type": "Feature", "properties": { "gml_id": "ETABLISSEMENTS_POLLUEURS.598948", "identifiant": "0100008733", "idetab": "598948", "nom": "GALLOO FRANCE", "codeape": "3832Z", "cp": "08440" }, "geometry": { "type": "Point", "coordinates": [ 4.78413, 49.74201 ] } },
{ "type": "Feature", "properties": { "gml_id": "ETABLISSEMENTS_POLLUEURS.11420", "identifiant": "08124001", "idetab": "11420", "nom": "GAEC OUDET", "codeape": "0150Z", "cp": "08560" }, "geometry": { "type": "Point", "coordinates": [ 4.55816, 49.754402 ] } },
{ "type": "Feature", "properties": { "gml_id": "ETABLISSEMENTS_POLLUEURS.11090", "identifiant": "08158001", "idetab": "11090", "nom": "GAEC DU CHATEAU D'ETREPIGNY", "codeape": "0150Z", "cp": "08160" }, "geometry": { "type": "Point", "coordinates": [ 4.753668, 49.694607 ] } },
{ "type": "Feature", "properties": { "gml_id": "ETABLISSEMENTS_POLLUEURS.941", "identifiant": "0005702350", "idetab": "941", "nom": "ZINQ ARDENNES", "codeape": "2561Z", "cp": "08440" }, "geometry": { "type": "Point", "coordinates": [ 4.83863, 49.72637 ] } },
{ "type": "Feature", "properties": { "gml_id": "ETABLISSEMENTS_POLLUEURS.7815", "identifiant": "0005701133", "idetab": "7815", "nom": "LA FONTE ARDENNAISE", "codeape": "2451Z", "cp": "08440" }, "geometry": { "type": "Point", "coordinates": [ 4.83601, 49.72804 ] } },
{ "type": "Feature", "properties": { "gml_id": "ETABLISSEMENTS_POLLUEURS.747", "identifiant": "0005701156", "idetab": "747", "nom": "MARCEL FRANCE MECANO GALVA", "codeape": "2562B", "cp": "08330" }, "geometry": { "type": "Point", "coordinates": [ 4.85415, 49.72822 ] } },
{ "type": "Feature", "properties": { "gml_id": "ETABLISSEMENTS_POLLUEURS.7814", "identifiant": "0005701132", "idetab": "7814", "nom": "LA FONTE ARDENNAISE", "codeape": "2451Z", "cp": "08440" }, "geometry": { "type": "Point", "coordinates": [ 4.83704, 49.7316 ] } },
{ "type": "Feature", "properties": { "gml_id": "ETABLISSEMENTS_POLLUEURS.7830", "identifiant": "0005702608", "idetab": "7830", "nom": "LA FONTE ARDENNAISE", "codeape": "2562B", "cp": "08330" }, "geometry": { "type": "Point", "coordinates": [ 4.84914, 49.73317 ] } },
{ "type": "Feature", "properties": { "gml_id": "ETABLISSEMENTS_POLLUEURS.738", "identifiant": "0005701131", "idetab": "738", "nom": "INVICTA GROUP", "codeape": "2451Z", "cp": "08440" }, "geometry": { "type": "Point", "coordinates": [ 4.82086, 49.73518 ] } },
{ "type": "Feature", "properties": { "gml_id": "ETABLISSEMENTS_POLLUEURS.748", "identifiant": "0005701159", "idetab": "748", "nom": "FTS-JARDINIER MASSARD", "codeape": "2572Z", "cp": "08330" }, "geometry": { "type": "Point", "coordinates": [ 4.857169, 49.736245 ] } },
{ "type": "Feature", "properties": { "gml_id": "ETABLISSEMENTS_POLLUEURS.7811", "identifiant": "0005701083", "idetab": "7811", "nom": "NPL", "codeape": "2550B", "cp": "08700" }, "geometry": { "type": "Point", "coordinates": [ 4.84695, 49.81575 ] } },
{ "type": "Feature", "properties": { "gml_id": "ETABLISSEMENTS_POLLUEURS.597368", "identifiant": "0005701125", "idetab": "597368", "nom": "ETABLISSEMENTS THEVENIN ET COMPAGNIE", "codeape": "2594Z", "cp": "08800" }, "geometry": { "type": "Point", "coordinates": [ 4.80714, 49.87355 ] } },
{ "type": "Feature", "properties": { "gml_id": "ETABLISSEMENTS_POLLUEURS.759", "identifiant": "0005701226", "idetab": "759", "nom": "G. MANQUILLET PARIZEL & CIE", "codeape": "2550A", "cp": "08800" }, "geometry": { "type": "Point", "coordinates": [ 4.84917, 49.87402 ] } },
{ "type": "Feature", "properties": { "gml_id": "ETABLISSEMENTS_POLLUEURS.597557", "identifiant": "0005701227", "idetab": "597557", "nom": "STEVENIN NOLLEVAUX FORGES ET ESTAMPAGE", "codeape": "2550A", "cp": "08800" }, "geometry": { "type": "Point", "coordinates": [ 4.84459, 49.87806 ] } },
{ "type": "Feature", "properties": { "gml_id": "ETABLISSEMENTS_POLLUEURS.4240", "identifiant": "0005701092", "idetab": "4240", "nom": "ESTAMFOR", "codeape": "2550A", "cp": "08800" }, "geometry": { "type": "Point", "coordinates": [ 4.84327, 49.87918 ] } },
{ "type": "Feature", "properties": { "gml_id": "ETABLISSEMENTS_POLLUEURS.731", "identifiant": "0005701093", "idetab": "731", "nom": "BOURGUIGNON BARRE PERE ET FILS", "codeape": "2550A", "cp": "08800" }, "geometry": { "type": "Point", "coordinates": [ 4.84441, 49.88229 ] } },
{ "type": "Feature", "properties": { "gml_id": "ETABLISSEMENTS_POLLUEURS.12825", "identifiant": "0005702796", "idetab": "12825", "nom": "LA FONTE ARDENNAISE", "codeape": "2752Z", "cp": "08440" }, "geometry": { "type": "Point", "coordinates": [ 4.82348, 49.73186 ] } },
{ "type": "Feature", "properties": { "gml_id": "ETABLISSEMENTS_POLLUEURS.590370", "identifiant": "0005702866", "idetab": "590370", "nom": "POMMIER NEUFMANIL", "codeape": "2572Z", "cp": "08700" }, "geometry": { "type": "Point", "coordinates": [ 4.79533, 49.81249 ] } },
{ "type": "Feature", "properties": { "gml_id": "ETABLISSEMENTS_POLLUEURS.597044", "identifiant": "0005703008", "idetab": "597044", "nom": "ESKA", "codeape": "3832Z", "cp": "08440" }, "geometry": { "type": "Point", "coordinates": [ 4.84137, 49.72275 ] } },
{ "type": "Feature", "properties": { "gml_id": "ETABLISSEMENTS_POLLUEURS.8947", "identifiant": "0005703023", "idetab": "8947", "nom": "ETABLISSEMENTS RAYMOND BARRE", "codeape": "2550A", "cp": "08800" }, "geometry": { "type": "Point", "coordinates": [ 4.84234, 49.87972 ] } },
{ "type": "Feature", "properties": { "gml_id": "ETABLISSEMENTS_POLLUEURS.12255", "identifiant": "0005703107", "idetab": "12255", "nom": "GOCYK KUZMIR SARL", "codeape": "3832Z", "cp": "08440" }, "geometry": { "type": "Point", "coordinates": [ 4.825321, 49.736678 ] } },
{ "type": "Feature", "properties": { "gml_id": "ETABLISSEMENTS_POLLUEURS.8948", "identifiant": "0005703113", "idetab": "8948", "nom": "STEVENIN NOLLEVAUX", "codeape": "2550A", "cp": "08800" }, "geometry": { "type": "Point", "coordinates": [ 4.840596, 49.886949 ] } },
{ "type": "Feature", "properties": { "gml_id": "ETABLISSEMENTS_POLLUEURS.11091", "identifiant": "08488003", "idetab": "11091", "nom": "GAEC FORGET", "codeape": "0141Z", "cp": "08840" }, "geometry": { "type": "Point", "coordinates": [ 4.825759, 49.745654 ] } },
{ "type": "Feature", "properties": { "gml_id": "ETABLISSEMENTS_POLLUEURS.597374", "identifiant": "0005704567", "idetab": "597374", "nom": "VOIES NAVIGABLES DE FRANCE", "codeape": "8413Z", "cp": "08450" }, "geometry": { "type": "Point", "coordinates": [ 4.86713, 49.61142 ] } },
{ "type": "Feature", "properties": { "gml_id": "ETABLISSEMENTS_POLLUEURS.758", "identifiant": "0005701218", "idetab": "758", "nom": "AGC AUTOMOTIVE EUROPE DONCHERY PLANT", "codeape": "261A", "cp": "08350" }, "geometry": { "type": "Point", "coordinates": [ 4.869597, 49.699876 ] } },
{ "type": "Feature", "properties": { "gml_id": "ETABLISSEMENTS_POLLUEURS.741", "identifiant": "0005701139", "idetab": "741", "nom": "DELPHI SITE DE DONCHERY", "codeape": "2932Z", "cp": "08350" }, "geometry": { "type": "Point", "coordinates": [ 4.869597, 49.699876 ] } },
{ "type": "Feature", "properties": { "gml_id": "ETABLISSEMENTS_POLLUEURS.597354", "identifiant": "0005703036", "idetab": "597354", "nom": "RAYNAUD", "codeape": "2550B", "cp": "08350" }, "geometry": { "type": "Point", "coordinates": [ 4.88134, 49.70482 ] } },
{ "type": "Feature", "properties": { "gml_id": "ETABLISSEMENTS_POLLUEURS.597992", "identifiant": "0003013958", "idetab": "597992", "nom": "DU CHATEAU DE GIZAUCOURT", "codeape": "0111Z", "cp": "51800" }, "geometry": { "type": "Point", "coordinates": [ 4.88459, 49.02148 ] } },
{ "type": "Feature", "properties": { "gml_id": "ETABLISSEMENTS_POLLUEURS.587847", "identifiant": "0005703983", "idetab": "587847", "nom": "ALBEA TUBES FRANCE", "codeape": "2222Z", "cp": "51800" }, "geometry": { "type": "Point", "coordinates": [ 4.886495, 49.074566 ] } },
{ "type": "Feature", "properties": { "gml_id": "ETABLISSEMENTS_POLLUEURS.893", "identifiant": "0005701844", "idetab": "893", "nom": "ALBEA", "codeape": "2222Z", "cp": "51800" }, "geometry": { "type": "Point", "coordinates": [ 4.887129, 49.18855 ] } },
{ "type": "Feature", "properties": { "gml_id": "ETABLISSEMENTS_POLLUEURS.12824", "identifiant": "0005702791", "idetab": "12824", "nom": "ALBÉA TUBES FRANCE SAS", "codeape": "2222Z", "cp": "51800" }, "geometry": { "type": "Point", "coordinates": [ 4.892476, 49.090113 ] } },
{ "type": "Feature", "properties": { "gml_id": "ETABLISSEMENTS_POLLUEURS.591425", "identifiant": "0005704733", "idetab": "591425", "nom": "EURL ANODUR", "codeape": "2561Z", "cp": "51800" }, "geometry": { "type": "Point", "coordinates": [ 4.9017, 49.08507 ] } },
{ "type": "Feature", "properties": { "gml_id": "ETABLISSEMENTS_POLLUEURS.745", "identifiant": "0005701152", "idetab": "745", "nom": "AFS SEDAN SAS", "codeape": "2891Z", "cp": "08200" }, "geometry": { "type": "Point", "coordinates": [ 4.91056, 49.69723 ] } },
{ "type": "Feature", "properties": { "gml_id": "ETABLISSEMENTS_POLLUEURS.746", "identifiant": "0005701153", "idetab": "746", "nom": "ACTEGA RHENACOAT", "codeape": "2030Z", "cp": "08200" }, "geometry": { "type": "Point", "coordinates": [ 4.91068, 49.70724 ] } },
{ "type": "Feature", "properties": { "gml_id": "ETABLISSEMENTS_POLLUEURS.7834", "identifiant": "0005703071", "idetab": "7834", "nom": "ARS-AGENCE RENOVATION DES SOLS(TECSOM)", "codeape": "2223Z", "cp": "08200" }, "geometry": { "type": "Point", "coordinates": [ 4.91509, 49.705683 ] } },
{ "type": "Feature", "properties": { "gml_id": "ETABLISSEMENTS_POLLUEURS.597229", "identifiant": "0005703146", "idetab": "597229", "nom": "GROUPEMENT DE COOPERATION SANITAIRE INTER HOSPITALIER DES ARDENNES", "codeape": "8412Z", "cp": "08200" }, "geometry": { "type": "Point", "coordinates": [ 4.91798, 49.69252 ] } },
{ "type": "Feature", "properties": { "gml_id": "ETABLISSEMENTS_POLLUEURS.744", "identifiant": "0005701149", "idetab": "744", "nom": "TARKETT FRANCE", "codeape": "2223Z", "cp": "08200" }, "geometry": { "type": "Point", "coordinates": [ 4.91948, 49.70426 ] } },
{ "type": "Feature", "properties": { "gml_id": "ETABLISSEMENTS_POLLUEURS.14034", "identifiant": "0005701214", "idetab": "14034", "nom": "SUEZ RV NORD EST", "codeape": "3821Z", "cp": "08200" }, "geometry": { "type": "Point", "coordinates": [ 4.92184, 49.69211 ] } },
{ "type": "Feature", "properties": { "gml_id": "ETABLISSEMENTS_POLLUEURS.597445", "identifiant": "0005702995", "idetab": "597445", "nom": "PONCELET", "codeape": "3832Z", "cp": "08200" }, "geometry": { "type": "Point", "coordinates": [ 4.93979, 49.68348 ] } },
{ "type": "Feature", "properties": { "gml_id": "ETABLISSEMENTS_POLLUEURS.938", "identifiant": "0005702209", "idetab": "938", "nom": "SEDAN ENERGIE", "codeape": "3530Z", "cp": "08200" }, "geometry": { "type": "Point", "coordinates": [ 4.94823, 49.69687 ] } },
{ "type": "Feature", "properties": { "gml_id": "ETABLISSEMENTS_POLLUEURS.7829", "identifiant": "0005702355", "idetab": "7829", "nom": "UNILIN SAS", "codeape": "1621Z", "cp": "08140" }, "geometry": { "type": "Point", "coordinates": [ 4.95079, 49.6961 ] } },
{ "type": "Feature", "properties": { "gml_id": "ETABLISSEMENTS_POLLUEURS.743", "identifiant": "0005701147", "idetab": "743", "nom": "T2I", "codeape": "2550A", "cp": "08450" }, "geometry": { "type": "Point", "coordinates": [ 4.95622, 49.60481 ] } },
{ "type": "Feature", "properties": { "gml_id": "ETABLISSEMENTS_POLLUEURS.597315", "identifiant": "0005701212", "idetab": "597315", "nom": "FONDERIES VIGNON", "codeape": "2451Z", "cp": "08450" }, "geometry": { "type": "Point", "coordinates": [ 4.9614, 49.61822 ] } },
{ "type": "Feature", "properties": { "gml_id": "ETABLISSEMENTS_POLLUEURS.752", "identifiant": "0005701180", "idetab": "752", "nom": "SUEZ RV NORD EST", "codeape": "3821Z", "cp": "08240" }, "geometry": { "type": "Point", "coordinates": [ 4.9782, 49.49296 ] } },
{ "type": "Feature", "properties": { "gml_id": "ETABLISSEMENTS_POLLUEURS.881", "identifiant": "0005701747", "idetab": "881", "nom": "R.V.A", "codeape": "3832Z", "cp": "51800" }, "geometry": { "type": "Point", "coordinates": [ 4.99482, 49.1078 ] } },
{ "type": "Feature", "properties": { "gml_id": "ETABLISSEMENTS_POLLUEURS.597555", "identifiant": "0055100310", "idetab": "597555", "nom": "GAEC RECONNU DUTHOIT PHILIPPOTEAUX", "codeape": "0141Z", "cp": "51800" }, "geometry": { "type": "Point", "coordinates": [ 4.86356, 49.22387 ] } },
{ "type": "Feature", "properties": { "gml_id": "ETABLISSEMENTS_POLLUEURS.599358", "identifiant": "0100007150", "idetab": "599358", "nom": "ARDENNE METROPOLE", "codeape": "8411Z", "cp": "08000" }, "geometry": { "type": "Point", "coordinates": [ 4.90247, 49.69545 ] } },
{ "type": "Feature", "properties": { "gml_id": "ETABLISSEMENTS_POLLUEURS.806", "identifiant": "0005701451", "idetab": "806", "nom": "LUZEAL", "codeape": "1091Z", "cp": "51490" }, "geometry": { "type": "Point", "coordinates": [ 4.34304, 49.29973 ] } },
{ "type": "Feature", "properties": { "gml_id": "ETABLISSEMENTS_POLLUEURS.589907", "identifiant": "0009000298", "idetab": "589907", "nom": "501 RCC", "codeape": "8559A", "cp": "51400" }, "geometry": { "type": "Point", "coordinates": [ 4.36, 49.14 ] } },
{ "type": "Feature", "properties": { "gml_id": "ETABLISSEMENTS_POLLUEURS.8934", "identifiant": "0005701174", "idetab": "8934", "nom": "SMURFIT KAPPA FRANCE", "codeape": "1721A", "cp": "08300" }, "geometry": { "type": "Point", "coordinates": [ 4.361774, 49.507493 ] } },
{ "type": "Feature", "properties": { "gml_id": "ETABLISSEMENTS_POLLUEURS.9707", "identifiant": "0005701427", "idetab": "9707", "nom": "MONDI LEMBACEL", "codeape": "1721C", "cp": "51490" }, "geometry": { "type": "Point", "coordinates": [ 4.36232, 49.29349 ] } },
{ "type": "Feature", "properties": { "gml_id": "ETABLISSEMENTS_POLLUEURS.7192", "identifiant": "0009000121", "idetab": "7192", "nom": "8° RMAT MOURMELON", "codeape": "8422Z", "cp": "51400" }, "geometry": { "type": "Point", "coordinates": [ 4.36458, 49.13814 ] } },
{ "type": "Feature", "properties": { "gml_id": "ETABLISSEMENTS_POLLUEURS.751", "identifiant": "0005701178", "idetab": "751", "nom": "SMURFIT KAPPA PAPIER RECYCLE FRANCE", "codeape": "1712Z", "cp": "08300" }, "geometry": { "type": "Point", "coordinates": [ 4.36534, 49.49927 ] } },
{ "type": "Feature", "properties": { "gml_id": "ETABLISSEMENTS_POLLUEURS.801", "identifiant": "0005701428", "idetab": "801", "nom": "CRISTAL - UNIONETS DE BAZANCOURT SITE DE BETHENIVILLE", "codeape": "158H", "cp": "51490" }, "geometry": { "type": "Point", "coordinates": [ 4.367784, 49.293054 ] } },
{ "type": "Feature", "properties": { "gml_id": "ETABLISSEMENTS_POLLUEURS.757", "identifiant": "0005701215", "idetab": "757", "nom": "SMURFIT WESTROCK FRANCE", "codeape": "1721A", "cp": "08300" }, "geometry": { "type": "Point", "coordinates": [ 4.37808, 49.51904 ] } },
{ "type": "Feature", "properties": { "gml_id": "ETABLISSEMENTS_POLLUEURS.596113", "identifiant": "0005701217", "idetab": "596113", "nom": "ALIANE", "codeape": "7010Z", "cp": "08300" }, "geometry": { "type": "Point", "coordinates": [ 4.37921, 49.50613 ] } },
{ "type": "Feature", "properties": { "gml_id": "ETABLISSEMENTS_POLLUEURS.597518", "identifiant": "0005703050", "idetab": "597518", "nom": "SAS FERRARI", "codeape": "3832Z", "cp": "08300" }, "geometry": { "type": "Point", "coordinates": [ 4.37989, 49.50581 ] } },
{ "type": "Feature", "properties": { "gml_id": "ETABLISSEMENTS_POLLUEURS.597466", "identifiant": "0005701175", "idetab": "597466", "nom": "SAS FERRARI", "codeape": "3832Z", "cp": "08300" }, "geometry": { "type": "Point", "coordinates": [ 4.38434, 49.50225 ] } },
{ "type": "Feature", "properties": { "gml_id": "ETABLISSEMENTS_POLLUEURS.5418", "identifiant": "0009000003", "idetab": "5418", "nom": "CAPCIA-51ÈME RI", "codeape": "8422Z", "cp": "51400" }, "geometry": { "type": "Point", "coordinates": [ 4.38711, 49.1326 ] } },
{ "type": "Feature", "properties": { "gml_id": "ETABLISSEMENTS_POLLUEURS.7195", "identifiant": "0009000125", "idetab": "7195", "nom": "CRE BOUY", "codeape": "8422Z", "cp": "51400" }, "geometry": { "type": "Point", "coordinates": [ 4.38714, 49.1327 ] } },
{ "type": "Feature", "properties": { "gml_id": "ETABLISSEMENTS_POLLUEURS.598290", "identifiant": "0005702816", "idetab": "598290", "nom": "GIE CHARDONNEUSE", "codeape": "7022Z", "cp": "08130" }, "geometry": { "type": "Point", "coordinates": [ 4.47895, 49.41875 ] } },
{ "type": "Feature", "properties": { "gml_id": "ETABLISSEMENTS_POLLUEURS.597501", "identifiant": "0005704139", "idetab": "597501", "nom": "UNITE DE METHANISATION AGRICOLE DE PAUVRES", "codeape": "3521Z", "cp": "08130" }, "geometry": { "type": "Point", "coordinates": [ 4.48239, 49.41639 ] } },
{ "type": "Feature", "properties": { "gml_id": "ETABLISSEMENTS_POLLUEURS.750", "identifiant": "0005701177", "idetab": "750", "nom": "LUZEAL", "codeape": "1091Z", "cp": "08310" }, "geometry": { "type": "Point", "coordinates": [ 4.48705, 49.410419 ] } },
{ "type": "Feature", "properties": { "gml_id": "ETABLISSEMENTS_POLLUEURS.4260", "identifiant": "0005702707", "idetab": "4260", "nom": "LEBRONZE ALLOYS", "codeape": "2444Z", "cp": "51600" }, "geometry": { "type": "Point", "coordinates": [ 4.52312, 49.1266 ] } },
{ "type": "Feature", "properties": { "gml_id": "ETABLISSEMENTS_POLLUEURS.589228", "identifiant": "0009000297", "idetab": "589228", "nom": "40IÈME RA", "codeape": "8424Z", "cp": "51601" }, "geometry": { "type": "Point", "coordinates": [ 4.532118, 49.130121 ] } },
{ "type": "Feature", "properties": { "gml_id": "ETABLISSEMENTS_POLLUEURS.12109", "identifiant": "0005701761", "idetab": "12109", "nom": "SOCIETE SUIPPASE DE RECUPERATION LAURENT ET DISLAIRE", "codeape": "3831Z", "cp": "51600" }, "geometry": { "type": "Point", "coordinates": [ 4.535631, 49.122907 ] } },
{ "type": "Feature", "properties": { "gml_id": "ETABLISSEMENTS_POLLUEURS.885", "identifiant": "0005701763", "idetab": "885", "nom": "LEBRONZE ALLOYS", "codeape": "2444Z", "cp": "51600" }, "geometry": { "type": "Point", "coordinates": [ 4.53748, 49.1271 ] } },
{ "type": "Feature", "properties": { "gml_id": "ETABLISSEMENTS_POLLUEURS.596579", "identifiant": "0009000367", "idetab": "596579", "nom": "DIRECTION GENERALE DE LA SECURITE CIVILE ET DE LA GESTION DES CRISES", "codeape": "8425Z", "cp": "51600" }, "geometry": { "type": "Point", "coordinates": [ 4.54993, 49.11931 ] } },
{ "type": "Feature", "properties": { "gml_id": "ETABLISSEMENTS_POLLUEURS.590631", "identifiant": "0009000325", "idetab": "590631", "nom": "ELOCA MOURMELON", "codeape": "8422Z", "cp": "51400" }, "geometry": { "type": "Point", "coordinates": [ 4.558611, 49.169167 ] } },
{ "type": "Feature", "properties": { "gml_id": "ETABLISSEMENTS_POLLUEURS.12826", "identifiant": "0005702821", "idetab": "12826", "nom": "ARDEN PIECES AUTO", "codeape": "4511Z", "cp": "08130" }, "geometry": { "type": "Point", "coordinates": [ 4.57871, 49.48566 ] } },
{ "type": "Feature", "properties": { "gml_id": "ETABLISSEMENTS_POLLUEURS.7828", "identifiant": "0005702211", "idetab": "7828", "nom": "FORGEX MACHINING", "codeape": "2562A", "cp": "08400" }, "geometry": { "type": "Point", "coordinates": [ 4.68812, 49.39391 ] } },
{ "type": "Feature", "properties": { "gml_id": "ETABLISSEMENTS_POLLUEURS.598546", "identifiant": "0005703066", "idetab": "598546", "nom": "COMMUNAUTE COMMUNES ARGONNE ARDENNAISE", "codeape": "3811Z", "cp": "08400" }, "geometry": { "type": "Point", "coordinates": [ 4.69338, 49.39362 ] } },
{ "type": "Feature", "properties": { "gml_id": "ETABLISSEMENTS_POLLUEURS.749", "identifiant": "0005701165", "idetab": "749", "nom": "NESTLE FRANCE", "codeape": "1051D", "cp": "08400" }, "geometry": { "type": "Point", "coordinates": [ 4.74563, 49.30989 ] } },
{ "type": "Feature", "properties": { "gml_id": "ETABLISSEMENTS_POLLUEURS.12258", "identifiant": "0005703765", "idetab": "12258", "nom": "ARDENNES COMPOST", "codeape": "3821Z", "cp": "08400" }, "geometry": { "type": "Point", "coordinates": [ 4.765547, 49.322614 ] } },
{ "type": "Feature", "properties": { "gml_id": "ETABLISSEMENTS_POLLUEURS.596497", "identifiant": "0009000368", "idetab": "596497", "nom": "DIRECTION GENERALE DE LA SECURITE CIVILE ET DE LA GESTION DES CRISES", "codeape": "8425Z", "cp": "51400" }, "geometry": { "type": "Point", "coordinates": [ 4.34844, 49.13753 ] } },
{ "type": "Feature", "properties": { "gml_id": "ETABLISSEMENTS_POLLUEURS.599328", "identifiant": "0009000380", "idetab": "599328", "nom": "PARC D'ENTRAINEMENT CHAMPAGNE", "codeape": "2540Z", "cp": "51400" }, "geometry": { "type": "Point", "coordinates": [ 4.37863, 49.12795 ] } },
{ "type": "Feature", "properties": { "gml_id": "ETABLISSEMENTS_POLLUEURS.597043", "identifiant": "0050800011", "idetab": "597043", "nom": "GAEC LOUISIANE", "codeape": "0111Z", "cp": "08310" }, "geometry": { "type": "Point", "coordinates": [ 4.42529, 49.42613 ] } },
{ "type": "Feature", "properties": { "gml_id": "ETABLISSEMENTS_POLLUEURS.597122", "identifiant": "0050800301", "idetab": "597122", "nom": "ROSE ET VERT", "codeape": "0146Z", "cp": "08310" }, "geometry": { "type": "Point", "coordinates": [ 4.53922, 49.36735 ] } },
{ "type": "Feature", "properties": { "gml_id": "ETABLISSEMENTS_POLLUEURS.597146", "identifiant": "0050800313", "idetab": "597146", "nom": "GAEC RECONNU HUREAU", "codeape": "0111Z", "cp": "08310" }, "geometry": { "type": "Point", "coordinates": [ 4.48967, 49.37186 ] } },
{ "type": "Feature", "properties": { "gml_id": "ETABLISSEMENTS_POLLUEURS.597193", "identifiant": "0050800401", "idetab": "597193", "nom": "EARL TIMOTHEE", "codeape": "0142Z", "cp": "08310" }, "geometry": { "type": "Point", "coordinates": [ 4.49393, 49.4139 ] } },
{ "type": "Feature", "properties": { "gml_id": "ETABLISSEMENTS_POLLUEURS.597113", "identifiant": "0050800405", "idetab": "597113", "nom": "EARL GOBERT", "codeape": "0111Z", "cp": "08300" }, "geometry": { "type": "Point", "coordinates": [ 4.35355, 49.44925 ] } },
{ "type": "Feature", "properties": { "gml_id": "ETABLISSEMENTS_POLLUEURS.597631", "identifiant": "0050800469", "idetab": "597631", "nom": "EARL HERBIN", "codeape": "0150Z", "cp": "08310" }, "geometry": { "type": "Point", "coordinates": [ 4.49306, 49.32576 ] } },
{ "type": "Feature", "properties": { "gml_id": "ETABLISSEMENTS_POLLUEURS.597192", "identifiant": "0050800470", "idetab": "597192", "nom": "EARL REGNIER- MIQUEL", "codeape": "0111Z", "cp": "08310" }, "geometry": { "type": "Point", "coordinates": [ 4.493, 49.3257 ] } },
{ "type": "Feature", "properties": { "gml_id": "ETABLISSEMENTS_POLLUEURS.597217", "identifiant": "0050800501", "idetab": "597217", "nom": "AVICOLE DE LA MALMAISON", "codeape": "0147Z", "cp": "08270" }, "geometry": { "type": "Point", "coordinates": [ 4.392207, 49.586892 ] } },
{ "type": "Feature", "properties": { "gml_id": "ETABLISSEMENTS_POLLUEURS.597764", "identifiant": "0055100168", "idetab": "597764", "nom": "JAUNET", "codeape": "0111Z", "cp": "51800" }, "geometry": { "type": "Point", "coordinates": [ 4.74893, 49.11035 ] } },
{ "type": "Feature", "properties": { "gml_id": "ETABLISSEMENTS_POLLUEURS.595810", "identifiant": "0055100182", "idetab": "595810", "nom": "EARL DE LA FORGE", "codeape": "0111Z", "cp": "51600" }, "geometry": { "type": "Point", "coordinates": [ 4.68677, 49.13797 ] } },
{ "type": "Feature", "properties": { "gml_id": "ETABLISSEMENTS_POLLUEURS.598088", "identifiant": "0055100280", "idetab": "598088", "nom": "EARL DU BERCEAU", "codeape": "0150Z", "cp": "51600" }, "geometry": { "type": "Point", "coordinates": [ 4.49547, 49.24061 ] } },
{ "type": "Feature", "properties": { "gml_id": "ETABLISSEMENTS_POLLUEURS.595462", "identifiant": "0055100307", "idetab": "595462", "nom": "PYCORETTE", "codeape": "0147Z", "cp": "51600" }, "geometry": { "type": "Point", "coordinates": [ 4.46611, 49.23584 ] } },
{ "type": "Feature", "properties": { "gml_id": "ETABLISSEMENTS_POLLUEURS.598325", "identifiant": "0100000120", "idetab": "598325", "nom": "OLIVA", "codeape": "3821Z", "cp": "08310" }, "geometry": { "type": "Point", "coordinates": [ 4.53892, 49.36639 ] } },
{ "type": "Feature", "properties": { "gml_id": "ETABLISSEMENTS_POLLUEURS.598471", "identifiant": "0100002540", "idetab": "598471", "nom": "REGNIER-ROUSSY", "codeape": "0147Z", "cp": "08310" }, "geometry": { "type": "Point", "coordinates": [ 4.49104, 49.32568 ] } },
{ "type": "Feature", "properties": { "gml_id": "ETABLISSEMENTS_POLLUEURS.5410", "identifiant": "08014090", "idetab": "5410", "nom": "EARL LOUISIANE", "codeape": "012G", "cp": "08310" }, "geometry": { "type": "Point", "coordinates": [ 4.423607, 49.436211 ] } },
{ "type": "Feature", "properties": { "gml_id": "ETABLISSEMENTS_POLLUEURS.7107", "identifiant": "08250031", "idetab": "7107", "nom": "EARL RATHUEVILLE", "codeape": "0146Z", "cp": "08310" }, "geometry": { "type": "Point", "coordinates": [ 4.545324, 49.394447 ] } },
{ "type": "Feature", "properties": { "gml_id": "ETABLISSEMENTS_POLLUEURS.7443", "identifiant": "51517062", "idetab": "7443", "nom": "SCEA DE LA HAIE DES PRES", "codeape": "0147Z", "cp": "51600" }, "geometry": { "type": "Point", "coordinates": [ 4.472554, 49.244166 ] } },
{ "type": "Feature", "properties": { "gml_id": "ETABLISSEMENTS_POLLUEURS.596982", "identifiant": "0055100015", "idetab": "596982", "nom": "SCEA AVI 4000", "codeape": "0147Z", "cp": "51800" }, "geometry": { "type": "Point", "coordinates": [ 4.70495, 49.01901 ] } },
{ "type": "Feature", "properties": { "gml_id": "ETABLISSEMENTS_POLLUEURS.597481", "identifiant": "0003014202", "idetab": "597481", "nom": "ARVA ENERGIES", "codeape": "3821Z", "cp": "51800" }, "geometry": { "type": "Point", "coordinates": [ 4.69227, 49.03178 ] } },
{ "type": "Feature", "properties": { "gml_id": "ETABLISSEMENTS_POLLUEURS.597396", "identifiant": "0003012111", "idetab": "597396", "nom": "METHABEL", "codeape": "3521Z", "cp": "51600" }, "geometry": { "type": "Point", "coordinates": [ 4.58931, 49.05312 ] } },
{ "type": "Feature", "properties": { "gml_id": "ETABLISSEMENTS_POLLUEURS.882", "identifiant": "0005701751", "idetab": "882", "nom": "LUZEAL", "codeape": "1091Z", "cp": "51600" }, "geometry": { "type": "Point", "coordinates": [ 4.62438, 49.0618 ] } },
{ "type": "Feature", "properties": { "gml_id": "ETABLISSEMENTS_POLLUEURS.589231", "identifiant": "0009000301", "idetab": "589231", "nom": "132E RIC RÉGIMENT D'INFANTERIE CYNOTECHNIQUE", "codeape": "8422Z", "cp": "51600" }, "geometry": { "type": "Point", "coordinates": [ 4.49368, 49.09824 ] } },
{ "type": "Feature", "properties": { "gml_id": "ETABLISSEMENTS_POLLUEURS.595825", "identifiant": "0055100086", "idetab": "595825", "nom": "SCEA DU POMMIER SAUVAGE", "codeape": "0146Z", "cp": "51600" }, "geometry": { "type": "Point", "coordinates": [ 4.50066, 49.04798 ] } },
{ "type": "Feature", "properties": { "gml_id": "ETABLISSEMENTS_POLLUEURS.595633", "identifiant": "0055100298", "idetab": "595633", "nom": "BOURON", "codeape": "0111Z", "cp": "51600" }, "geometry": { "type": "Point", "coordinates": [ 4.58243, 49.05474 ] } },
{ "type": "Feature", "properties": { "gml_id": "ETABLISSEMENTS_POLLUEURS.595832", "identifiant": "0055100300", "idetab": "595832", "nom": "MODE", "codeape": "0111Z", "cp": "51600" }, "geometry": { "type": "Point", "coordinates": [ 4.58063, 49.05603 ] } },
{ "type": "Feature", "properties": { "gml_id": "ETABLISSEMENTS_POLLUEURS.595905", "identifiant": "0055100302", "idetab": "595905", "nom": "LES PLUMES DU BOVET", "codeape": "0147Z", "cp": "51600" }, "geometry": { "type": "Point", "coordinates": [ 4.62439, 49.06177 ] } },
{ "type": "Feature", "properties": { "gml_id": "ETABLISSEMENTS_POLLUEURS.591062", "identifiant": "0055100351", "idetab": "591062", "nom": "EARL LE ROUX", "codeape": "0150Z", "cp": "51460" }, "geometry": { "type": "Point", "coordinates": [ 4.61088, 49.01607 ] } },
{ "type": "Feature", "properties": { "gml_id": "ETABLISSEMENTS_POLLUEURS.7441", "identifiant": "51292001", "idetab": "7441", "nom": "SCEA DU VAL DEFFONTAINES", "codeape": "0147Z", "cp": "51460" }, "geometry": { "type": "Point", "coordinates": [ 4.735532, 49.005236 ] } },
{ "type": "Feature", "properties": { "gml_id": "ETABLISSEMENTS_POLLUEURS.8375", "identifiant": "51572047", "idetab": "8375", "nom": "EARL LE ROUX", "codeape": "0111Z", "cp": "51460" }, "geometry": { "type": "Point", "coordinates": [ 4.614181, 49.02618 ] } },
{ "type": "Feature", "properties": { "gml_id": "ETABLISSEMENTS_POLLUEURS.845", "identifiant": "0005701557", "idetab": "845", "nom": "CHARLES HEIDSIECK SAS", "codeape": "1102A", "cp": "51050" }, "geometry": { "type": "Point", "coordinates": [ 4.01328, 49.21534 ] } },
{ "type": "Feature", "properties": { "gml_id": "ETABLISSEMENTS_POLLUEURS.815", "identifiant": "0005701477", "idetab": "815", "nom": "SOC CHAUFFE COMBUST REPAR APPAREIL MECAN", "codeape": "3530Z", "cp": "51050" }, "geometry": { "type": "Point", "coordinates": [ 4.01781, 49.2208 ] } },
{ "type": "Feature", "properties": { "gml_id": "ETABLISSEMENTS_POLLUEURS.14038", "identifiant": "0005701846", "idetab": "14038", "nom": "SEYFERT CHAMPAGNE SAS", "codeape": "1721A", "cp": "51100" }, "geometry": { "type": "Point", "coordinates": [ 4.10281, 49.22509 ] } },
{ "type": "Feature", "properties": { "gml_id": "ETABLISSEMENTS_POLLUEURS.588642", "identifiant": "0005703461", "idetab": "588642", "nom": "EAU ET FEU", "codeape": "2059Z", "cp": "51050" }, "geometry": { "type": "Point", "coordinates": [ 4.09445, 49.22594 ] } },
{ "type": "Feature", "properties": { "gml_id": "ETABLISSEMENTS_POLLUEURS.9715", "identifiant": "0005702802", "idetab": "9715", "nom": "SIBELCO GREEN SOLUTIONS", "codeape": "4644Z", "cp": "51050" }, "geometry": { "type": "Point", "coordinates": [ 4.08329, 49.22614 ] } },
{ "type": "Feature", "properties": { "gml_id": "ETABLISSEMENTS_POLLUEURS.819", "identifiant": "0005701486", "idetab": "819", "nom": "CENTRE HOSPITALIER UNIVERSITAIRE REIMS", "codeape": "8610Z", "cp": "51100" }, "geometry": { "type": "Point", "coordinates": [ 4.02588, 49.22934 ] } },
{ "type": "Feature", "properties": { "gml_id": "ETABLISSEMENTS_POLLUEURS.12251", "identifiant": "0005702770", "idetab": "12251", "nom": "PARFUMERIE ET CHIMIE", "codeape": "2042Z", "cp": "51050" }, "geometry": { "type": "Point", "coordinates": [ 4.08776, 49.22936 ] } },
{ "type": "Feature", "properties": { "gml_id": "ETABLISSEMENTS_POLLUEURS.813", "identifiant": "0005701475", "idetab": "813", "nom": "O-I FRANCE SAS", "codeape": "2313Z", "cp": "51050" }, "geometry": { "type": "Point", "coordinates": [ 4.0488, 49.23348 ] } },
{ "type": "Feature", "properties": { "gml_id": "ETABLISSEMENTS_POLLUEURS.11611", "identifiant": "0005701461", "idetab": "11611", "nom": "KEVIN PIERMAY", "codeape": "4532Z", "cp": "51050" }, "geometry": { "type": "Point", "coordinates": [ 4.06052, 49.23378 ] } },
{ "type": "Feature", "properties": { "gml_id": "ETABLISSEMENTS_POLLUEURS.809", "identifiant": "0005701463", "idetab": "809", "nom": "REMOISE DE VALORISATION DES DECHET.", "codeape": "3821Z", "cp": "51050" }, "geometry": { "type": "Point", "coordinates": [ 4.05071, 49.23471 ] } },
{ "type": "Feature", "properties": { "gml_id": "ETABLISSEMENTS_POLLUEURS.12243", "identifiant": "0005701610", "idetab": "12243", "nom": "WESTLAKE COMPOUNDS FRANCE", "codeape": "2016Z", "cp": "51100" }, "geometry": { "type": "Point", "coordinates": [ 4.05517, 49.23515 ] } },
{ "type": "Feature", "properties": { "gml_id": "ETABLISSEMENTS_POLLUEURS.860", "identifiant": "0005701661", "idetab": "860", "nom": "M H C S", "codeape": "1102A", "cp": "51050" }, "geometry": { "type": "Point", "coordinates": [ 4.04743, 49.23594 ] } },
{ "type": "Feature", "properties": { "gml_id": "ETABLISSEMENTS_POLLUEURS.861", "identifiant": "0005701662", "idetab": "861", "nom": "VRANKEN-POMMERY PRODUCTION", "codeape": "1102A", "cp": "51100" }, "geometry": { "type": "Point", "coordinates": [ 4.05007, 49.24407 ] } },
{ "type": "Feature", "properties": { "gml_id": "ETABLISSEMENTS_POLLUEURS.12827", "identifiant": "0005702994", "idetab": "12827", "nom": "M H C S", "codeape": "1102A", "cp": "51100" }, "geometry": { "type": "Point", "coordinates": [ 4.054173, 49.244786 ] } },
{ "type": "Feature", "properties": { "gml_id": "ETABLISSEMENTS_POLLUEURS.816", "identifiant": "0005701479", "idetab": "816", "nom": "HENKEL FRANCE", "codeape": "245A", "cp": "51058" }, "geometry": { "type": "Point", "coordinates": [ 4.045983, 49.250335 ] } },
{ "type": "Feature", "properties": { "gml_id": "ETABLISSEMENTS_POLLUEURS.956", "identifiant": "0005702555", "idetab": "956", "nom": "PTC", "codeape": "2229A", "cp": "51683" }, "geometry": { "type": "Point", "coordinates": [ 4.034609, 49.255907 ] } },
{ "type": "Feature", "properties": { "gml_id": "ETABLISSEMENTS_POLLUEURS.891", "identifiant": "0005701827", "idetab": "891", "nom": "TAITTINGER C.C.V.C.", "codeape": "159F", "cp": "51100" }, "geometry": { "type": "Point", "coordinates": [ 4.034609, 49.255907 ] } },
{ "type": "Feature", "properties": { "gml_id": "ETABLISSEMENTS_POLLUEURS.814", "identifiant": "0005701476", "idetab": "814", "nom": "EHPF ÉTABLISSEMENT SOREMAM", "codeape": "297A", "cp": "51058" }, "geometry": { "type": "Point", "coordinates": [ 4.034609, 49.255907 ] } },
{ "type": "Feature", "properties": { "gml_id": "ETABLISSEMENTS_POLLUEURS.859", "identifiant": "0005701659", "idetab": "859", "nom": "ASTRAZENECA REIMS", "codeape": "8292Z", "cp": "51689" }, "geometry": { "type": "Point", "coordinates": [ 4.034609, 49.255907 ] } },
{ "type": "Feature", "properties": { "gml_id": "ETABLISSEMENTS_POLLUEURS.863", "identifiant": "0005701670", "idetab": "863", "nom": "LA BOULANGERIE DE L'EUROPE", "codeape": "", "cp": "51100" }, "geometry": { "type": "Point", "coordinates": [ 4.034609, 49.255907 ] } },
{ "type": "Feature", "properties": { "gml_id": "ETABLISSEMENTS_POLLUEURS.818", "identifiant": "0005701482", "idetab": "818", "nom": "BIGARD", "codeape": "1011Z", "cp": "51100" }, "geometry": { "type": "Point", "coordinates": [ 4.034609, 49.255907 ] } },
{ "type": "Feature", "properties": { "gml_id": "ETABLISSEMENTS_POLLUEURS.598838", "identifiant": "0005701488", "idetab": "598838", "nom": "GRANDS MOULINS DE PARIS", "codeape": "1061A", "cp": "51100" }, "geometry": { "type": "Point", "coordinates": [ 4.01333, 49.25768 ] } },
{ "type": "Feature", "properties": { "gml_id": "ETABLISSEMENTS_POLLUEURS.4247", "identifiant": "0005701622", "idetab": "4247", "nom": "G H MUMM ET CIE", "codeape": "1102A", "cp": "51050" }, "geometry": { "type": "Point", "coordinates": [ 4.0372, 49.26356 ] } },
{ "type": "Feature", "properties": { "gml_id": "ETABLISSEMENTS_POLLUEURS.811", "identifiant": "0005701467", "idetab": "811", "nom": "CHARBONNEAUX BRABANT SA", "codeape": "1084Z", "cp": "51050" }, "geometry": { "type": "Point", "coordinates": [ 4.03381, 49.26486 ] } },
{ "type": "Feature", "properties": { "gml_id": "ETABLISSEMENTS_POLLUEURS.4250", "identifiant": "0005701815", "idetab": "4250", "nom": "TERROIRS ET VIGNERONS DE CHAMPAGNE", "codeape": "1102A", "cp": "51100" }, "geometry": { "type": "Point", "coordinates": [ 4.03694, 49.26509 ] } },
{ "type": "Feature", "properties": { "gml_id": "ETABLISSEMENTS_POLLUEURS.12248", "identifiant": "0005702369", "idetab": "12248", "nom": "HAULOTTE GROUP", "codeape": "2822Z", "cp": "51050" }, "geometry": { "type": "Point", "coordinates": [ 4.00627, 49.26525 ] } },
{ "type": "Feature", "properties": { "gml_id": "ETABLISSEMENTS_POLLUEURS.820", "identifiant": "0005701489", "idetab": "820", "nom": "FORBO SARLINO", "codeape": "4673B", "cp": "51050" }, "geometry": { "type": "Point", "coordinates": [ 4.04522, 49.26734 ] } },
{ "type": "Feature", "properties": { "gml_id": "ETABLISSEMENTS_POLLUEURS.7821", "identifiant": "0005701564", "idetab": "7821", "nom": "AUTO PIECES", "codeape": "4532Z", "cp": "51100" }, "geometry": { "type": "Point", "coordinates": [ 4.06653, 49.26755 ] } },
{ "type": "Feature", "properties": { "gml_id": "ETABLISSEMENTS_POLLUEURS.817", "identifiant": "0005701480", "idetab": "817", "nom": "VALEO SYSTEMES THERMIQUES", "codeape": "2811Z", "cp": "51100" }, "geometry": { "type": "Point", "coordinates": [ 4.0084, 49.27017 ] } },
{ "type": "Feature", "properties": { "gml_id": "ETABLISSEMENTS_POLLUEURS.855", "identifiant": "0005701604", "idetab": "855", "nom": "DELPHARM REIMS", "codeape": "2120Z", "cp": "51050" }, "geometry": { "type": "Point", "coordinates": [ 4.00289, 49.27082 ] } },
{ "type": "Feature", "properties": { "gml_id": "ETABLISSEMENTS_POLLUEURS.9708", "identifiant": "0005701457", "idetab": "9708", "nom": "REIMS ENROBES", "codeape": "2399Z", "cp": "51100" }, "geometry": { "type": "Point", "coordinates": [ 4.064219, 49.271804 ] } },
{ "type": "Feature", "properties": { "gml_id": "ETABLISSEMENTS_POLLUEURS.12818", "identifiant": "0005701603", "idetab": "12818", "nom": "ATELIERS ROCHE", "codeape": "2562B", "cp": "51050" }, "geometry": { "type": "Point", "coordinates": [ 4.06556, 49.2719 ] } },
{ "type": "Feature", "properties": { "gml_id": "ETABLISSEMENTS_POLLUEURS.588635", "identifiant": "0005701862", "idetab": "588635", "nom": "ARCELORMITTAL CENTRES DE SERVICES", "codeape": "4672Z", "cp": "51050" }, "geometry": { "type": "Point", "coordinates": [ 4.00085, 49.27272 ] } },
{ "type": "Feature", "properties": { "gml_id": "ETABLISSEMENTS_POLLUEURS.11617", "identifiant": "0005701837", "idetab": "11617", "nom": "PIECES AUTO 2001", "codeape": "4520A", "cp": "51050" }, "geometry": { "type": "Point", "coordinates": [ 4.07187, 49.27326 ] } },
{ "type": "Feature", "properties": { "gml_id": "ETABLISSEMENTS_POLLUEURS.11618", "identifiant": "0005701882", "idetab": "11618", "nom": "MYTNIK SAAF", "codeape": "3831Z", "cp": "51420" }, "geometry": { "type": "Point", "coordinates": [ 4.08678, 49.27351 ] } },
{ "type": "Feature", "properties": { "gml_id": "ETABLISSEMENTS_POLLUEURS.11613", "identifiant": "0005701618", "idetab": "11613", "nom": "MYTNIK JOSETTE", "codeape": "3831Z", "cp": "51420" }, "geometry": { "type": "Point", "coordinates": [ 4.08532, 49.273648 ] } },
{ "type": "Feature", "properties": { "gml_id": "ETABLISSEMENTS_POLLUEURS.11626", "identifiant": "0005703310", "idetab": "11626", "nom": "SOCIETE DU JOURNAL L'UNION", "codeape": "5813Z", "cp": "51100" }, "geometry": { "type": "Point", "coordinates": [ 4.002532, 49.274859 ] } },
{ "type": "Feature", "properties": { "gml_id": "ETABLISSEMENTS_POLLUEURS.11620", "identifiant": "0005702232", "idetab": "11620", "nom": "DANIEL LECUYER", "codeape": "4532Z", "cp": "51450" }, "geometry": { "type": "Point", "coordinates": [ 4.05294, 49.27708 ] } },
{ "type": "Feature", "properties": { "gml_id": "ETABLISSEMENTS_POLLUEURS.12240", "identifiant": "0005701472", "idetab": "12240", "nom": "ARCELORMITTAL CONSTRUCTION FRANCE", "codeape": "2433Z", "cp": "51370" }, "geometry": { "type": "Point", "coordinates": [ 4.00034, 49.27738 ] } },
{ "type": "Feature", "properties": { "gml_id": "ETABLISSEMENTS_POLLUEURS.11615", "identifiant": "0005701625", "idetab": "11615", "nom": "ESKA", "codeape": "3832Z", "cp": "51370" }, "geometry": { "type": "Point", "coordinates": [ 4.00034, 49.27738 ] } },
{ "type": "Feature", "properties": { "gml_id": "ETABLISSEMENTS_POLLUEURS.598569", "identifiant": "0005701454", "idetab": "598569", "nom": "INITIAL", "codeape": "7729Z", "cp": "51721" }, "geometry": { "type": "Point", "coordinates": [ 4.01862, 49.28824 ] } },
{ "type": "Feature", "properties": { "gml_id": "ETABLISSEMENTS_POLLUEURS.951", "identifiant": "0005702428", "idetab": "951", "nom": "BRINK TOWING SYSTEMS SARL", "codeape": "2932Z", "cp": "51450" }, "geometry": { "type": "Point", "coordinates": [ 4.03039, 49.28856 ] } },
{ "type": "Feature", "properties": { "gml_id": "ETABLISSEMENTS_POLLUEURS.592894", "identifiant": "0055100045", "idetab": "592894", "nom": "SCEA AV B", "codeape": "0147Z", "cp": "51220" }, "geometry": { "type": "Point", "coordinates": [ 4.02084, 49.33903 ] } },
{ "type": "Feature", "properties": { "gml_id": "ETABLISSEMENTS_POLLUEURS.590717", "identifiant": "0050800333", "idetab": "590717", "nom": "AVICOLE VERZEAUX", "codeape": "0147Z", "cp": "08310" }, "geometry": { "type": "Point", "coordinates": [ 4.28627, 49.3788 ] } },
{ "type": "Feature", "properties": { "gml_id": "ETABLISSEMENTS_POLLUEURS.592820", "identifiant": "0050800483", "idetab": "592820", "nom": "GENTILS", "codeape": "0111Z", "cp": "08300" }, "geometry": { "type": "Point", "coordinates": [ 4.24055, 49.41468 ] } },
{ "type": "Feature", "properties": { "gml_id": "ETABLISSEMENTS_POLLUEURS.592890", "identifiant": "0050800128", "idetab": "592890", "nom": "EARL DES DUPUIT", "codeape": "0150Z", "cp": "08300" }, "geometry": { "type": "Point", "coordinates": [ 4.28076, 49.41531 ] } },
{ "type": "Feature", "properties": { "gml_id": "ETABLISSEMENTS_POLLUEURS.597010", "identifiant": "0050200643", "idetab": "597010", "nom": "EARL JULIEN LAPOINTE", "codeape": "0150Z", "cp": "02190" }, "geometry": { "type": "Point", "coordinates": [ 4.00953, 49.45285 ] } },
{ "type": "Feature", "properties": { "gml_id": "ETABLISSEMENTS_POLLUEURS.597182", "identifiant": "0050800046", "idetab": "597182", "nom": "SCEA DES FAUCHERELLES", "codeape": "0147Z", "cp": "08300" }, "geometry": { "type": "Point", "coordinates": [ 4.254867, 49.47013 ] } },
{ "type": "Feature", "properties": { "gml_id": "ETABLISSEMENTS_POLLUEURS.597163", "identifiant": "0050800045", "idetab": "597163", "nom": "SOCIETE CIVILE AVICOLE DES CARRIERES", "codeape": "0147Z", "cp": "08300" }, "geometry": { "type": "Point", "coordinates": [ 4.25264, 49.47904 ] } },
{ "type": "Feature", "properties": { "gml_id": "ETABLISSEMENTS_POLLUEURS.591056", "identifiant": "0055100052", "idetab": "591056", "nom": "LES ELEVEURS DE LA CHAMPAGNE", "codeape": "1012Z", "cp": "51110" }, "geometry": { "type": "Point", "coordinates": [ 4.14955, 49.31588 ] } },
{ "type": "Feature", "properties": { "gml_id": "ETABLISSEMENTS_POLLUEURS.596067", "identifiant": "0055100393", "idetab": "596067", "nom": "BOUY GUILLAUME", "codeape": "0147Z", "cp": "51420" }, "geometry": { "type": "Point", "coordinates": [ 4.11485, 49.29773 ] } },
{ "type": "Feature", "properties": { "gml_id": "ETABLISSEMENTS_POLLUEURS.5411", "identifiant": "08038090", "idetab": "5411", "nom": "SCEA AVICOLE DES CARRIÈRES", "codeape": "0147Z", "cp": "08300" }, "geometry": { "type": "Point", "coordinates": [ 4.253358, 49.482616 ] } },
{ "type": "Feature", "properties": { "gml_id": "ETABLISSEMENTS_POLLUEURS.5412", "identifiant": "08038091", "idetab": "5412", "nom": "SCEA DES FAUCHERELLES", "codeape": "0147Z", "cp": "08300" }, "geometry": { "type": "Point", "coordinates": [ 4.253358, 49.482616 ] } },
{ "type": "Feature", "properties": { "gml_id": "ETABLISSEMENTS_POLLUEURS.5413", "identifiant": "08111090", "idetab": "5413", "nom": "EARL DES DUPUIT", "codeape": "0147Z", "cp": "08300" }, "geometry": { "type": "Point", "coordinates": [ 4.280222, 49.427358 ] } },
{ "type": "Feature", "properties": { "gml_id": "ETABLISSEMENTS_POLLUEURS.5417", "identifiant": "08397090", "idetab": "5417", "nom": "EARL GENTILS", "codeape": "0150Z", "cp": "08300" }, "geometry": { "type": "Point", "coordinates": [ 4.246034, 49.422648 ] } },
{ "type": "Feature", "properties": { "gml_id": "ETABLISSEMENTS_POLLUEURS.7439", "identifiant": "51101001", "idetab": "7439", "nom": "LES ELEVEURS DE LA CHAMPAGNE", "codeape": "1012Z", "cp": "51420" }, "geometry": { "type": "Point", "coordinates": [ 4.133752, 49.298445 ] } },
{ "type": "Feature", "properties": { "gml_id": "ETABLISSEMENTS_POLLUEURS.14044", "identifiant": "0005702795", "idetab": "14044", "nom": "MHCS MOËT HENNESSY CHAMPAGNE ET SERVICES", "codeape": "1102A", "cp": "51530" }, "geometry": { "type": "Point", "coordinates": [ 4.036909, 49.007052 ] } },
{ "type": "Feature", "properties": { "gml_id": "ETABLISSEMENTS_POLLUEURS.838", "identifiant": "0005701542", "idetab": "838", "nom": "MANUFACTORY EVER GRES - M E G", "codeape": "2331Z", "cp": "51530" }, "geometry": { "type": "Point", "coordinates": [ 4.039874, 49.011756 ] } },
{ "type": "Feature", "properties": { "gml_id": "ETABLISSEMENTS_POLLUEURS.839", "identifiant": "0005701543", "idetab": "839", "nom": "VERALLIA FRANCE", "codeape": "2313Z", "cp": "51530" }, "geometry": { "type": "Point", "coordinates": [ 4.04715, 49.0225 ] } },
{ "type": "Feature", "properties": { "gml_id": "ETABLISSEMENTS_POLLUEURS.12239", "identifiant": "0005701446", "idetab": "12239", "nom": "DISTILLERIE JEAN GOYARD", "codeape": "1101Z", "cp": "51160" }, "geometry": { "type": "Point", "coordinates": [ 4.04096, 49.04436 ] } },
{ "type": "Feature", "properties": { "gml_id": "ETABLISSEMENTS_POLLUEURS.11614", "identifiant": "0005701619", "idetab": "11614", "nom": "FL AUTO", "codeape": "4511Z", "cp": "51160" }, "geometry": { "type": "Point", "coordinates": [ 4.03858, 49.045539 ] } },
{ "type": "Feature", "properties": { "gml_id": "ETABLISSEMENTS_POLLUEURS.4246", "identifiant": "0005701447", "idetab": "4246", "nom": "AMCOR FLEXIBLE CAPSULES FRANCE", "codeape": "2592Z", "cp": "51160" }, "geometry": { "type": "Point", "coordinates": [ 4.01837, 49.05004 ] } }
]
}
