{
"type": "FeatureCollection",
"name": "ms:ETABLISSEMENTS_POLLUEURS",
"crs": { "type": "name", "properties": { "name": "urn:ogc:def:crs:OGC:1.3:CRS84" } },
"features": [
{ "type": "Feature", "properties": { "gml_id": "ETABLISSEMENTS_POLLUEURS.9607", "identifiant": "0005203129", "idetab": "9607", "nom": "CARRIERES DE THIVIERS", "codeape": "0812Z", "cp": "24700" }, "geometry": { "type": "Point", "coordinates": [ 0.04392, 45.00143 ] } },
{ "type": "Feature", "properties": { "gml_id": "ETABLISSEMENTS_POLLUEURS.3936", "identifiant": "0005200110", "idetab": "3936", "nom": "COREX BOARD ATLANTIC", "codeape": "1712Z", "cp": "24700" }, "geometry": { "type": "Point", "coordinates": [ 0.036, 45.01519 ] } },
{ "type": "Feature", "properties": { "gml_id": "ETABLISSEMENTS_POLLUEURS.6082", "identifiant": "0005200145", "idetab": "6082", "nom": "KSB SAS", "codeape": "2814Z", "cp": "24490" }, "geometry": { "type": "Point", "coordinates": [ 0.00633, 45.15107 ] } },
{ "type": "Feature", "properties": { "gml_id": "ETABLISSEMENTS_POLLUEURS.598041", "identifiant": "0003106578", "idetab": "598041", "nom": "AUTOMOTIVE CELLS COMPANY SE", "codeape": "7112B", "cp": "16440" }, "geometry": { "type": "Point", "coordinates": [ 0.0695, 45.62791 ] } },
{ "type": "Feature", "properties": { "gml_id": "ETABLISSEMENTS_POLLUEURS.596739", "identifiant": "0003105353", "idetab": "596739", "nom": "GRAND ANGOULEME", "codeape": "8411Z", "cp": "16730" }, "geometry": { "type": "Point", "coordinates": [ 0.10248, 45.68404 ] } },
{ "type": "Feature", "properties": { "gml_id": "ETABLISSEMENTS_POLLUEURS.6222", "identifiant": "0005207121", "idetab": "6222", "nom": "S. MIXTE DEP. POUR LA GESTION ET LE TRAIT. DES DECHETS MENAGERS ET ASSIMILES", "codeape": "3821Z", "cp": "24400" }, "geometry": { "type": "Point", "coordinates": [ 0.24822, 45.03824 ] } },
{ "type": "Feature", "properties": { "gml_id": "ETABLISSEMENTS_POLLUEURS.590298", "identifiant": "0005212625", "idetab": "590298", "nom": "S. MIXTE DEP. POUR LA GESTION ET LE TRAIT. DES DECHETS MENAGERS ET ASSIMILES", "codeape": "3821Z", "cp": "24700" }, "geometry": { "type": "Point", "coordinates": [ 0.11682, 45.01214 ] } },
{ "type": "Feature", "properties": { "gml_id": "ETABLISSEMENTS_POLLUEURS.590299", "identifiant": "0005212627", "idetab": "590299", "nom": "S. MIXTE DEP. POUR LA GESTION ET LE TRAIT. DES DECHETS MENAGERS ET ASSIMILES", "codeape": "3821Z", "cp": "24400" }, "geometry": { "type": "Point", "coordinates": [ 0.35832, 45.03914 ] } },
{ "type": "Feature", "properties": { "gml_id": "ETABLISSEMENTS_POLLUEURS.592452", "identifiant": "0007202155", "idetab": "592452", "nom": "ROCAMAT", "codeape": "0811Z", "cp": "16440" }, "geometry": { "type": "Point", "coordinates": [ 0.0246, 45.63021 ] } },
{ "type": "Feature", "properties": { "gml_id": "ETABLISSEMENTS_POLLUEURS.589893", "identifiant": "0007203434", "idetab": "589893", "nom": "COMPAGNIE EUROPEENNE DE PAPETERIE", "codeape": "1723Z", "cp": "16440" }, "geometry": { "type": "Point", "coordinates": [ 0.0582, 45.59489 ] } },
{ "type": "Feature", "properties": { "gml_id": "ETABLISSEMENTS_POLLUEURS.11069", "identifiant": "0007203261", "idetab": "11069", "nom": "RECUPERATION JOSEPH SABATIER SAS", "codeape": "3832Z", "cp": "16440" }, "geometry": { "type": "Point", "coordinates": [ 0.06394, 45.63136 ] } },
{ "type": "Feature", "properties": { "gml_id": "ETABLISSEMENTS_POLLUEURS.8122", "identifiant": "0007201300", "idetab": "8122", "nom": "TECHNIMA FRANCE SAS", "codeape": "2030Z", "cp": "16440" }, "geometry": { "type": "Point", "coordinates": [ 0.06394, 45.63136 ] } },
{ "type": "Feature", "properties": { "gml_id": "ETABLISSEMENTS_POLLUEURS.3213", "identifiant": "0007201321", "idetab": "3213", "nom": "SAFT", "codeape": "2720Z", "cp": "16440" }, "geometry": { "type": "Point", "coordinates": [ 0.06863, 45.63193 ] } },
{ "type": "Feature", "properties": { "gml_id": "ETABLISSEMENTS_POLLUEURS.597448", "identifiant": "0007206275", "idetab": "597448", "nom": "SUEZ RV CHARENTE LIMOUSIN", "codeape": "3832Z", "cp": "16440" }, "geometry": { "type": "Point", "coordinates": [ 0.06775, 45.62877 ] } },
{ "type": "Feature", "properties": { "gml_id": "ETABLISSEMENTS_POLLUEURS.13288", "identifiant": "0007207419", "idetab": "13288", "nom": "SAFT UNITÉ LITHIUM-ION", "codeape": "4531Z", "cp": "16440" }, "geometry": { "type": "Point", "coordinates": [ 0.056095, 45.625463 ] } },
{ "type": "Feature", "properties": { "gml_id": "ETABLISSEMENTS_POLLUEURS.588162", "identifiant": "0007207765", "idetab": "588162", "nom": "S.C.O.T.P.A. - SOCIETE COOPERATIVE OUVRIERE DE TRAVAUX PUBLICS DE L'ATLANTIQUE", "codeape": "4211Z", "cp": "16440" }, "geometry": { "type": "Point", "coordinates": [ 0.01451, 45.56321 ] } },
{ "type": "Feature", "properties": { "gml_id": "ETABLISSEMENTS_POLLUEURS.590619", "identifiant": "0007211822", "idetab": "590619", "nom": "ARTS ENERGY", "codeape": "2720Z", "cp": "16440" }, "geometry": { "type": "Point", "coordinates": [ 0.06622, 45.631442 ] } },
{ "type": "Feature", "properties": { "gml_id": "ETABLISSEMENTS_POLLUEURS.3215", "identifiant": "0007201362", "idetab": "3215", "nom": "AHLSTROM SPECIALTIES", "codeape": "1712Z", "cp": "16390" }, "geometry": { "type": "Point", "coordinates": [ 0.26174, 45.29975 ] } },
{ "type": "Feature", "properties": { "gml_id": "ETABLISSEMENTS_POLLUEURS.588415", "identifiant": "0005209699", "idetab": "588415", "nom": "S. MIXTE DEP. POUR LA GESTION ET LE TRAIT. DES DECHETS MENAGERS ET ASSIMILES", "codeape": "3821Z", "cp": "24600" }, "geometry": { "type": "Point", "coordinates": [ 0.28639, 45.21615 ] } },
{ "type": "Feature", "properties": { "gml_id": "ETABLISSEMENTS_POLLUEURS.599129", "identifiant": "0005212256", "idetab": "599129", "nom": "S. MIXTE DEP. POUR LA GESTION ET LE TRAIT. DES DECHETS MENAGERS ET ASSIMILES", "codeape": "3821Z", "cp": "24600" }, "geometry": { "type": "Point", "coordinates": [ 0.35416, 45.25323 ] } },
{ "type": "Feature", "properties": { "gml_id": "ETABLISSEMENTS_POLLUEURS.10502", "identifiant": "0005200180", "idetab": "10502", "nom": "AUTO CASSE 24 SNC", "codeape": "4532Z", "cp": "24600" }, "geometry": { "type": "Point", "coordinates": [ 0.358055, 45.228619 ] } },
{ "type": "Feature", "properties": { "gml_id": "ETABLISSEMENTS_POLLUEURS.12686", "identifiant": "0005200235", "idetab": "12686", "nom": "SAS TRANSMETAL", "codeape": "3832Z", "cp": "24600" }, "geometry": { "type": "Point", "coordinates": [ 0.362216, 45.262365 ] } },
{ "type": "Feature", "properties": { "gml_id": "ETABLISSEMENTS_POLLUEURS.595798", "identifiant": "0005202904", "idetab": "595798", "nom": "LAFARGE GRANULATS", "codeape": "0812Z", "cp": "24320" }, "geometry": { "type": "Point", "coordinates": [ 0.42975, 45.34631 ] } },
{ "type": "Feature", "properties": { "gml_id": "ETABLISSEMENTS_POLLUEURS.597480", "identifiant": "0005207711", "idetab": "597480", "nom": "GROUPE MEAC S.A.S.", "codeape": "0811Z", "cp": "24320" }, "geometry": { "type": "Point", "coordinates": [ 0.43998, 45.34241 ] } },
{ "type": "Feature", "properties": { "gml_id": "ETABLISSEMENTS_POLLUEURS.594997", "identifiant": "0005208903", "idetab": "594997", "nom": "GROUPE MEAC S.A.S.", "codeape": "0811Z", "cp": "24320" }, "geometry": { "type": "Point", "coordinates": [ 0.44625, 45.3393 ] } },
{ "type": "Feature", "properties": { "gml_id": "ETABLISSEMENTS_POLLUEURS.589534", "identifiant": "0005211902", "idetab": "589534", "nom": "S. MIXTE DEP. POUR LA GESTION ET LE TRAIT. DES DECHETS MENAGERS ET ASSIMILES", "codeape": "3821Z", "cp": "24190" }, "geometry": { "type": "Point", "coordinates": [ 0.4647, 45.10976 ] } },
{ "type": "Feature", "properties": { "gml_id": "ETABLISSEMENTS_POLLUEURS.202", "identifiant": "0005200118", "idetab": "202", "nom": "INTERSPRAY", "codeape": "2042Z", "cp": "24190" }, "geometry": { "type": "Point", "coordinates": [ 0.47582, 45.09943 ] } },
{ "type": "Feature", "properties": { "gml_id": "ETABLISSEMENTS_POLLUEURS.7688", "identifiant": "0005205338", "idetab": "7688", "nom": "HOFFMANN MICROTECH", "codeape": "0899Z", "cp": "24340" }, "geometry": { "type": "Point", "coordinates": [ 0.491506, 45.399848 ] } },
{ "type": "Feature", "properties": { "gml_id": "ETABLISSEMENTS_POLLUEURS.3937", "identifiant": "0005200156", "idetab": "3937", "nom": "CHAUX DE SAINT ASTIER", "codeape": "2352Z", "cp": "24110" }, "geometry": { "type": "Point", "coordinates": [ 0.52949, 45.14537 ] } },
{ "type": "Feature", "properties": { "gml_id": "ETABLISSEMENTS_POLLUEURS.588408", "identifiant": "0005208311", "idetab": "588408", "nom": "DECONS AQUITAINE", "codeape": "3832Z", "cp": "24110" }, "geometry": { "type": "Point", "coordinates": [ 0.54209, 45.14832 ] } },
{ "type": "Feature", "properties": { "gml_id": "ETABLISSEMENTS_POLLUEURS.590296", "identifiant": "0005212463", "idetab": "590296", "nom": "S. MIXTE DEP. POUR LA GESTION ET LE TRAIT. DES DECHETS MENAGERS ET ASSIMILES", "codeape": "3821Z", "cp": "24110" }, "geometry": { "type": "Point", "coordinates": [ 0.54317, 45.14663 ] } },
{ "type": "Feature", "properties": { "gml_id": "ETABLISSEMENTS_POLLUEURS.588399", "identifiant": "0005207166", "idetab": "588399", "nom": "LIANTS DU PÉRIGORD SARL", "codeape": "2014Z", "cp": "24110" }, "geometry": { "type": "Point", "coordinates": [ 0.554292, 45.148417 ] } },
{ "type": "Feature", "properties": { "gml_id": "ETABLISSEMENTS_POLLUEURS.11480", "identifiant": "0005200108", "idetab": "11480", "nom": "RECUP AUTOS 24", "codeape": "3831Z", "cp": "24110" }, "geometry": { "type": "Point", "coordinates": [ 0.58743, 45.152 ] } },
{ "type": "Feature", "properties": { "gml_id": "ETABLISSEMENTS_POLLUEURS.3233", "identifiant": "0007202944", "idetab": "3233", "nom": "STATION DE CHAZELLES", "codeape": "4950Z", "cp": "16380" }, "geometry": { "type": "Point", "coordinates": [ 0.367657, 45.647979 ] } },
{ "type": "Feature", "properties": { "gml_id": "ETABLISSEMENTS_POLLUEURS.8700", "identifiant": "0007205900", "idetab": "8700", "nom": "VALOM", "codeape": "3811Z", "cp": "16600" }, "geometry": { "type": "Point", "coordinates": [ 0.271199, 45.680603 ] } },
{ "type": "Feature", "properties": { "gml_id": "ETABLISSEMENTS_POLLUEURS.11062", "identifiant": "0007203002", "idetab": "11062", "nom": "ETS MAYOUX", "codeape": "4532Z", "cp": "16600" }, "geometry": { "type": "Point", "coordinates": [ 0.271199, 45.680603 ] } },
{ "type": "Feature", "properties": { "gml_id": "ETABLISSEMENTS_POLLUEURS.8145", "identifiant": "0007202370", "idetab": "8145", "nom": "ADLER PELZER FRANCE WEST", "codeape": "1393Z", "cp": "16600" }, "geometry": { "type": "Point", "coordinates": [ 0.30265, 45.69418 ] } },
{ "type": "Feature", "properties": { "gml_id": "ETABLISSEMENTS_POLLUEURS.7050", "identifiant": "0007201536", "idetab": "7050", "nom": "SUEZ RV CHARENTE LIMOUSIN", "codeape": "3832Z", "cp": "16600" }, "geometry": { "type": "Point", "coordinates": [ 0.27394, 45.70308 ] } },
{ "type": "Feature", "properties": { "gml_id": "ETABLISSEMENTS_POLLUEURS.11079", "identifiant": "0007206786", "idetab": "11079", "nom": "ETABLISSEMENTS MAYOUX", "codeape": "4532Z", "cp": "16590" }, "geometry": { "type": "Point", "coordinates": [ 0.28553, 45.70857 ] } },
{ "type": "Feature", "properties": { "gml_id": "ETABLISSEMENTS_POLLUEURS.11419", "identifiant": "0007207532", "idetab": "11419", "nom": "SUEZ ORGANIQUE", "codeape": "3821Z", "cp": "16290" }, "geometry": { "type": "Point", "coordinates": [ 0.00047, 45.71067 ] } },
{ "type": "Feature", "properties": { "gml_id": "ETABLISSEMENTS_POLLUEURS.589883", "identifiant": "0007200198", "idetab": "589883", "nom": "LES SABLIERES DE LA TARDOIRE", "codeape": "0812Z", "cp": "16110" }, "geometry": { "type": "Point", "coordinates": [ 0.38506, 45.71215 ] } },
{ "type": "Feature", "properties": { "gml_id": "ETABLISSEMENTS_POLLUEURS.8150", "identifiant": "0007202862", "idetab": "8150", "nom": "MOTEUR LEROY SOMER", "codeape": "2711Z", "cp": "16430" }, "geometry": { "type": "Point", "coordinates": [ 0.204553, 45.714355 ] } },
{ "type": "Feature", "properties": { "gml_id": "ETABLISSEMENTS_POLLUEURS.590614", "identifiant": "0007207204", "idetab": "590614", "nom": "WILLIAM SABATIER RECYCLAGE", "codeape": "3832Z", "cp": "16430" }, "geometry": { "type": "Point", "coordinates": [ 0.14463, 45.7359 ] } },
{ "type": "Feature", "properties": { "gml_id": "ETABLISSEMENTS_POLLUEURS.12454", "identifiant": "0007204052", "idetab": "12454", "nom": "CASSE AUTO TAPONNAT", "codeape": "3831Z", "cp": "16110" }, "geometry": { "type": "Point", "coordinates": [ 0.40472, 45.74774 ] } },
{ "type": "Feature", "properties": { "gml_id": "ETABLISSEMENTS_POLLUEURS.598648", "identifiant": "0007202500", "idetab": "598648", "nom": "ITM LOGISTIQUE EQUIPEMENT DE LA MAISON INTERNATIONAL", "codeape": "5210B", "cp": "16560" }, "geometry": { "type": "Point", "coordinates": [ 0.19448, 45.77544 ] } },
{ "type": "Feature", "properties": { "gml_id": "ETABLISSEMENTS_POLLUEURS.591715", "identifiant": "0051600004", "idetab": "591715", "nom": "GAEC DU MONAT", "codeape": "0146Z", "cp": "16110" }, "geometry": { "type": "Point", "coordinates": [ 0.34857, 45.77873 ] } },
{ "type": "Feature", "properties": { "gml_id": "ETABLISSEMENTS_POLLUEURS.589201", "identifiant": "0007211750", "idetab": "589201", "nom": "EUROVIA POITOU CHARENTE LIMOUSIN", "codeape": "4211Z", "cp": "16560" }, "geometry": { "type": "Point", "coordinates": [ 0.281903, 45.807945 ] } },
{ "type": "Feature", "properties": { "gml_id": "ETABLISSEMENTS_POLLUEURS.590600", "identifiant": "0007200017", "idetab": "590600", "nom": "CDMR AUSSAC", "codeape": "0812Z", "cp": "16560" }, "geometry": { "type": "Point", "coordinates": [ 0.21303, 45.83105 ] } },
{ "type": "Feature", "properties": { "gml_id": "ETABLISSEMENTS_POLLUEURS.594096", "identifiant": "0007201144", "idetab": "594096", "nom": "HEIDELBERG MATERIALS FRANCE GRANULATS", "codeape": "0812Z", "cp": "16230" }, "geometry": { "type": "Point", "coordinates": [ 0.1918, 45.84042 ] } },
{ "type": "Feature", "properties": { "gml_id": "ETABLISSEMENTS_POLLUEURS.11049", "identifiant": "0007201833", "idetab": "11049", "nom": "SERVICES AUTOS 16", "codeape": "4677Z", "cp": "16230" }, "geometry": { "type": "Point", "coordinates": [ 0.180672, 45.860461 ] } },
{ "type": "Feature", "properties": { "gml_id": "ETABLISSEMENTS_POLLUEURS.591628", "identifiant": "0007208527", "idetab": "591628", "nom": "ETABLISSEMENTS PINTAUD", "codeape": "2020Z", "cp": "16230" }, "geometry": { "type": "Point", "coordinates": [ 0.1651, 45.87771 ] } },
{ "type": "Feature", "properties": { "gml_id": "ETABLISSEMENTS_POLLUEURS.594838", "identifiant": "0051600252", "idetab": "594838", "nom": "SCEA COPIMA", "codeape": "0146Z", "cp": "16140" }, "geometry": { "type": "Point", "coordinates": [ 0.07626, 45.88172 ] } },
{ "type": "Feature", "properties": { "gml_id": "ETABLISSEMENTS_POLLUEURS.8127", "identifiant": "0007201391", "idetab": "8127", "nom": "MOTEURS LEROY SOMER", "codeape": "2711Z", "cp": "16230" }, "geometry": { "type": "Point", "coordinates": [ 0.17905, 45.88273 ] } },
{ "type": "Feature", "properties": { "gml_id": "ETABLISSEMENTS_POLLUEURS.590732", "identifiant": "0051600103", "idetab": "590732", "nom": "SOCIETE CIVILE D'EXPLOITATION AGRICOLE GUILLAUME", "codeape": "0146Z", "cp": "16260" }, "geometry": { "type": "Point", "coordinates": [ 0.40546, 45.90408 ] } },
{ "type": "Feature", "properties": { "gml_id": "ETABLISSEMENTS_POLLUEURS.594239", "identifiant": "0007201706", "idetab": "594239", "nom": "CALCAIRES ET DIORITES DU MOULIN DU ROC", "codeape": "0812Z", "cp": "16140" }, "geometry": { "type": "Point", "coordinates": [ 0.02447, 45.92668 ] } },
{ "type": "Feature", "properties": { "gml_id": "ETABLISSEMENTS_POLLUEURS.594873", "identifiant": "0051600408", "idetab": "594873", "nom": "SCEA KERGHYL", "codeape": "0146Z", "cp": "16700" }, "geometry": { "type": "Point", "coordinates": [ 0.36907, 45.9897 ] } },
{ "type": "Feature", "properties": { "gml_id": "ETABLISSEMENTS_POLLUEURS.594837", "identifiant": "0051600313", "idetab": "594837", "nom": "SCEA POLYPORCS", "codeape": "0146Z", "cp": "16700" }, "geometry": { "type": "Point", "coordinates": [ 0.36907, 45.9897 ] } },
{ "type": "Feature", "properties": { "gml_id": "ETABLISSEMENTS_POLLUEURS.599175", "identifiant": "0003102507", "idetab": "599175", "nom": "SOCIETE DE TRAVAUX PUBLICS ET RURAUX", "codeape": "4312A", "cp": "16350" }, "geometry": { "type": "Point", "coordinates": [ 0.41818, 45.99184 ] } },
{ "type": "Feature", "properties": { "gml_id": "ETABLISSEMENTS_POLLUEURS.7295", "identifiant": "16068142", "idetab": "7295", "nom": "EARL GUILLAUME", "codeape": "0146Z", "cp": "16260" }, "geometry": { "type": "Point", "coordinates": [ 0.394479, 45.900716 ] } },
{ "type": "Feature", "properties": { "gml_id": "ETABLISSEMENTS_POLLUEURS.3210", "identifiant": "0007201226", "idetab": "3210", "nom": "GRANDANGOULÊME", "codeape": "3821Z", "cp": "16400" }, "geometry": { "type": "Point", "coordinates": [ 0.096606, 45.631248 ] } },
{ "type": "Feature", "properties": { "gml_id": "ETABLISSEMENTS_POLLUEURS.5362", "identifiant": "0007202098", "idetab": "5362", "nom": "CARTONNERIE DE LA BOEME", "codeape": "1712Z", "cp": "16400" }, "geometry": { "type": "Point", "coordinates": [ 0.101884, 45.608152 ] } },
{ "type": "Feature", "properties": { "gml_id": "ETABLISSEMENTS_POLLUEURS.5334", "identifiant": "0007201297", "idetab": "5334", "nom": "SITA SUD OUEST - CET DE LA COURONNE", "codeape": "3821Z", "cp": "16400" }, "geometry": { "type": "Point", "coordinates": [ 0.101884, 45.608152 ] } },
{ "type": "Feature", "properties": { "gml_id": "ETABLISSEMENTS_POLLUEURS.7057", "identifiant": "0007201986", "idetab": "7057", "nom": "SNPE", "codeape": "2051Z", "cp": "16000" }, "geometry": { "type": "Point", "coordinates": [ 0.103544, 45.662632 ] } },
{ "type": "Feature", "properties": { "gml_id": "ETABLISSEMENTS_POLLUEURS.5357", "identifiant": "0007201656", "idetab": "5357", "nom": "PAPETERIE SAINT MICHEL - GROUPE THIOLLET", "codeape": "1712Z", "cp": "16470" }, "geometry": { "type": "Point", "coordinates": [ 0.106469, 45.650669 ] } },
{ "type": "Feature", "properties": { "gml_id": "ETABLISSEMENTS_POLLUEURS.3221", "identifiant": "0007201529", "idetab": "3221", "nom": "LAFARGE CIMENTS", "codeape": "2351Z", "cp": "16400" }, "geometry": { "type": "Point", "coordinates": [ 0.10921, 45.60888 ] } },
{ "type": "Feature", "properties": { "gml_id": "ETABLISSEMENTS_POLLUEURS.3232", "identifiant": "0007202778", "idetab": "3232", "nom": "ROUSSELOT ANGOULEME", "codeape": "2059Z", "cp": "16000" }, "geometry": { "type": "Point", "coordinates": [ 0.11495, 45.64259 ] } },
{ "type": "Feature", "properties": { "gml_id": "ETABLISSEMENTS_POLLUEURS.590611", "identifiant": "0007203089", "idetab": "590611", "nom": "LIPPI LA CLOTURE - UNITÉ 4", "codeape": "4778C", "cp": "16440" }, "geometry": { "type": "Point", "coordinates": [ 0.120961, 45.577071 ] } },
{ "type": "Feature", "properties": { "gml_id": "ETABLISSEMENTS_POLLUEURS.10227", "identifiant": "0007201449", "idetab": "10227", "nom": "LIPPI LA CLOTURE", "codeape": "2593Z", "cp": "16440" }, "geometry": { "type": "Point", "coordinates": [ 0.124114, 45.556196 ] } },
{ "type": "Feature", "properties": { "gml_id": "ETABLISSEMENTS_POLLUEURS.3219", "identifiant": "0007201394", "idetab": "3219", "nom": "MOTEURS LEROY SOMER", "codeape": "2451Z", "cp": "16000" }, "geometry": { "type": "Point", "coordinates": [ 0.13362, 45.63858 ] } },
{ "type": "Feature", "properties": { "gml_id": "ETABLISSEMENTS_POLLUEURS.8126", "identifiant": "0007201390", "idetab": "8126", "nom": "MOTEURS LEROY SOMER", "codeape": "2451Z", "cp": "16000" }, "geometry": { "type": "Point", "coordinates": [ 0.13363, 45.6399 ] } },
{ "type": "Feature", "properties": { "gml_id": "ETABLISSEMENTS_POLLUEURS.588140", "identifiant": "0007201395", "idetab": "588140", "nom": "MOTEURS LEROY SOMER", "codeape": "2711Z", "cp": "16000" }, "geometry": { "type": "Point", "coordinates": [ 0.14033, 45.6449 ] } },
{ "type": "Feature", "properties": { "gml_id": "ETABLISSEMENTS_POLLUEURS.5370", "identifiant": "0007202994", "idetab": "5370", "nom": "IPC - INDUSTRIE PAPETERIE CHARENTAISE", "codeape": "1723Z", "cp": "16710" }, "geometry": { "type": "Point", "coordinates": [ 0.140681, 45.675593 ] } },
{ "type": "Feature", "properties": { "gml_id": "ETABLISSEMENTS_POLLUEURS.13722", "identifiant": "0007202613", "idetab": "13722", "nom": "CHARENTAISE DE MATERIAUX ENROBES", "codeape": "2399Z", "cp": "16000" }, "geometry": { "type": "Point", "coordinates": [ 0.14428, 45.62644 ] } },
{ "type": "Feature", "properties": { "gml_id": "ETABLISSEMENTS_POLLUEURS.9248", "identifiant": "0007202762", "idetab": "9248", "nom": "PIECES AUTO 16", "codeape": "4677Z", "cp": "16000" }, "geometry": { "type": "Point", "coordinates": [ 0.14471, 45.62655 ] } },
{ "type": "Feature", "properties": { "gml_id": "ETABLISSEMENTS_POLLUEURS.13723", "identifiant": "0007202755", "idetab": "13723", "nom": "SARP SUD-OUEST", "codeape": "3700Z", "cp": "16000" }, "geometry": { "type": "Point", "coordinates": [ 0.14569, 45.62581 ] } },
{ "type": "Feature", "properties": { "gml_id": "ETABLISSEMENTS_POLLUEURS.8128", "identifiant": "0007201393", "idetab": "8128", "nom": "MOTEURS LEROY SOMER", "codeape": "2711Z", "cp": "16015" }, "geometry": { "type": "Point", "coordinates": [ 0.161742, 45.648445 ] } },
{ "type": "Feature", "properties": { "gml_id": "ETABLISSEMENTS_POLLUEURS.7064", "identifiant": "0007202756", "idetab": "7064", "nom": "GRANDANGOULEME (COMPOSTAGE)", "codeape": "3821Z", "cp": "16000" }, "geometry": { "type": "Point", "coordinates": [ 0.161742, 45.648445 ] } },
{ "type": "Feature", "properties": { "gml_id": "ETABLISSEMENTS_POLLUEURS.3208", "identifiant": "0007201135", "idetab": "3208", "nom": "ANGOULEME TRAITEMENT DE SURFACE", "codeape": "2561Z", "cp": "16000" }, "geometry": { "type": "Point", "coordinates": [ 0.161742, 45.648445 ] } },
{ "type": "Feature", "properties": { "gml_id": "ETABLISSEMENTS_POLLUEURS.8142", "identifiant": "0007202063", "idetab": "8142", "nom": "SOCIETE INDUSTRIELLE DE RECUPERATION DES METAUX", "codeape": "3832Z", "cp": "16160" }, "geometry": { "type": "Point", "coordinates": [ 0.16426, 45.67935 ] } },
{ "type": "Feature", "properties": { "gml_id": "ETABLISSEMENTS_POLLUEURS.11061", "identifiant": "0007202981", "idetab": "11061", "nom": "RECUP 16", "codeape": "3831Z", "cp": "16160" }, "geometry": { "type": "Point", "coordinates": [ 0.17254, 45.68011 ] } },
{ "type": "Feature", "properties": { "gml_id": "ETABLISSEMENTS_POLLUEURS.5337", "identifiant": "0007201320", "idetab": "5337", "nom": "IDEAL STANDARD INDUSTRIES FRANCE", "codeape": "2342Z", "cp": "16160" }, "geometry": { "type": "Point", "coordinates": [ 0.173554, 45.673451 ] } },
{ "type": "Feature", "properties": { "gml_id": "ETABLISSEMENTS_POLLUEURS.596759", "identifiant": "0007203132", "idetab": "596759", "nom": "S.C.O.T.P.A. - SOCIETE COOPERATIVE OUVRIERE DE TRAVAUX PUBLICS DE L'ATLANTIQUE", "codeape": "4211Z", "cp": "16160" }, "geometry": { "type": "Point", "coordinates": [ 0.17519, 45.68744 ] } },
{ "type": "Feature", "properties": { "gml_id": "ETABLISSEMENTS_POLLUEURS.9240", "identifiant": "0007201193", "idetab": "9240", "nom": "JANOSCHKA ANGOULEME", "codeape": "1813Z", "cp": "16160" }, "geometry": { "type": "Point", "coordinates": [ 0.17519, 45.68744 ] } },
{ "type": "Feature", "properties": { "gml_id": "ETABLISSEMENTS_POLLUEURS.5341", "identifiant": "0007201392", "idetab": "5341", "nom": "MOTEURS LEROY SOMER", "codeape": "2711Z", "cp": "16160" }, "geometry": { "type": "Point", "coordinates": [ 0.17546, 45.66387 ] } },
{ "type": "Feature", "properties": { "gml_id": "ETABLISSEMENTS_POLLUEURS.5369", "identifiant": "0007202984", "idetab": "5369", "nom": "SOCIETE ANONYME FONDERIE ET MECANIQUE (SAFEM)", "codeape": "2451Z", "cp": "16340" }, "geometry": { "type": "Point", "coordinates": [ 0.191001, 45.662896 ] } },
{ "type": "Feature", "properties": { "gml_id": "ETABLISSEMENTS_POLLUEURS.5374", "identifiant": "0007203172", "idetab": "5374", "nom": "SCHNEIDER ELECTRIC-SITE DE L'ISLE D'ESPAGNAC", "codeape": "2712Z", "cp": "16340" }, "geometry": { "type": "Point", "coordinates": [ 0.191001, 45.662896 ] } },
{ "type": "Feature", "properties": { "gml_id": "ETABLISSEMENTS_POLLUEURS.3231", "identifiant": "0007202768", "idetab": "3231", "nom": "COVERIS FLEXIBLES (ANGOULEME) FRANCE", "codeape": "2221Z", "cp": "16340" }, "geometry": { "type": "Point", "coordinates": [ 0.198312, 45.670094 ] } },
{ "type": "Feature", "properties": { "gml_id": "ETABLISSEMENTS_POLLUEURS.11046", "identifiant": "0007201491", "idetab": "11046", "nom": "SCHNEIDER ELECTRIC FRANCE", "codeape": "2712Z", "cp": "16340" }, "geometry": { "type": "Point", "coordinates": [ 0.19996, 45.66981 ] } },
{ "type": "Feature", "properties": { "gml_id": "ETABLISSEMENTS_POLLUEURS.5339", "identifiant": "0007201363", "idetab": "5339", "nom": "ALAMIGEON", "codeape": "1712Z", "cp": "16600" }, "geometry": { "type": "Point", "coordinates": [ 0.202097, 45.67837 ] } },
{ "type": "Feature", "properties": { "gml_id": "ETABLISSEMENTS_POLLUEURS.3228", "identifiant": "0007202185", "idetab": "3228", "nom": "SOYAUX PLASTIQUES COMPLEXAGES", "codeape": "2222Z", "cp": "16800" }, "geometry": { "type": "Point", "coordinates": [ 0.20612, 45.63622 ] } },
{ "type": "Feature", "properties": { "gml_id": "ETABLISSEMENTS_POLLUEURS.5380", "identifiant": "0007203658", "idetab": "5380", "nom": "NAVAL GROUP", "codeape": "3011Z", "cp": "16600" }, "geometry": { "type": "Point", "coordinates": [ 0.22028, 45.68057 ] } },
{ "type": "Feature", "properties": { "gml_id": "ETABLISSEMENTS_POLLUEURS.3234", "identifiant": "0007202957", "idetab": "3234", "nom": "PAPETERIES DE VEUZE", "codeape": "1712Z", "cp": "16600" }, "geometry": { "type": "Point", "coordinates": [ 0.239052, 45.664373 ] } },
{ "type": "Feature", "properties": { "gml_id": "ETABLISSEMENTS_POLLUEURS.8594", "identifiant": "0007202946", "idetab": "8594", "nom": "VALOBOIS", "codeape": "3821Z", "cp": "16410" }, "geometry": { "type": "Point", "coordinates": [ 0.243998, 45.606822 ] } },
{ "type": "Feature", "properties": { "gml_id": "ETABLISSEMENTS_POLLUEURS.9250", "identifiant": "0007202786", "idetab": "9250", "nom": "SOC INDUST DIVERSES APPLIC CAOUTCHOUC", "codeape": "2219Z", "cp": "16600" }, "geometry": { "type": "Point", "coordinates": [ 0.2466, 45.6644 ] } },
{ "type": "Feature", "properties": { "gml_id": "ETABLISSEMENTS_POLLUEURS.592508", "identifiant": "0007206026", "idetab": "592508", "nom": "LOCATEX", "codeape": "9601A", "cp": "16160" }, "geometry": { "type": "Point", "coordinates": [ 0.17682, 45.66695 ] } },
{ "type": "Feature", "properties": { "gml_id": "ETABLISSEMENTS_POLLUEURS.598719", "identifiant": "0007206675", "idetab": "598719", "nom": "COMMUNAUTE D AGGLOMERATION DU GRAND ANGOULEME GRANDANGOULEME", "codeape": "8411Z", "cp": "16400" }, "geometry": { "type": "Point", "coordinates": [ 0.20802, 45.63242 ] } },
{ "type": "Feature", "properties": { "gml_id": "ETABLISSEMENTS_POLLUEURS.596691", "identifiant": "0007206683", "idetab": "596691", "nom": "GRAND ANGOULEME", "codeape": "8411Z", "cp": "16340" }, "geometry": { "type": "Point", "coordinates": [ 0.19983, 45.67171 ] } },
{ "type": "Feature", "properties": { "gml_id": "ETABLISSEMENTS_POLLUEURS.13730", "identifiant": "0007209317", "idetab": "13730", "nom": "SARL AUTO CASSE 2000", "codeape": "4677Z", "cp": "16410" }, "geometry": { "type": "Point", "coordinates": [ 0.243998, 45.606822 ] } },
{ "type": "Feature", "properties": { "gml_id": "ETABLISSEMENTS_POLLUEURS.590733", "identifiant": "0051600206", "idetab": "590733", "nom": "AUCHAN HYPERMARCHE", "codeape": "4711F", "cp": "16400" }, "geometry": { "type": "Point", "coordinates": [ 0.09539, 45.61089 ] } },
{ "type": "Feature", "properties": { "gml_id": "ETABLISSEMENTS_POLLUEURS.13424", "identifiant": "16113010", "idetab": "13424", "nom": "AUCHAN LA COURONNE", "codeape": "4711F", "cp": "16400" }, "geometry": { "type": "Point", "coordinates": [ 0.161387, 45.657438 ] } },
{ "type": "Feature", "properties": { "gml_id": "ETABLISSEMENTS_POLLUEURS.9613", "identifiant": "0005206270", "idetab": "9613", "nom": "OMYA SAS", "codeape": "2399Z", "cp": "24340" }, "geometry": { "type": "Point", "coordinates": [ 0.40522, 45.46261 ] } },
{ "type": "Feature", "properties": { "gml_id": "ETABLISSEMENTS_POLLUEURS.13956", "identifiant": "0005204823", "idetab": "13956", "nom": "OMYA SAS", "codeape": "7010Z", "cp": "24340" }, "geometry": { "type": "Point", "coordinates": [ 0.408098, 45.468493 ] } },
{ "type": "Feature", "properties": { "gml_id": "ETABLISSEMENTS_POLLUEURS.589896", "identifiant": "0007209710", "idetab": "589896", "nom": "MAROQUINERIE DE LA TARDOIRE", "codeape": "1512Z", "cp": "16220" }, "geometry": { "type": "Point", "coordinates": [ 0.498455, 45.66604 ] } },
{ "type": "Feature", "properties": { "gml_id": "ETABLISSEMENTS_POLLUEURS.5378", "identifiant": "0007203533", "idetab": "5378", "nom": "CET DE ROUZEDE", "codeape": "3811Z", "cp": "16220" }, "geometry": { "type": "Point", "coordinates": [ 0.55417, 45.708524 ] } },
{ "type": "Feature", "properties": { "gml_id": "ETABLISSEMENTS_POLLUEURS.12684", "identifiant": "0005200208", "idetab": "12684", "nom": "ETABLISSEMNTS VAZEUX", "codeape": "3832Z", "cp": "24300" }, "geometry": { "type": "Point", "coordinates": [ 0.595843, 45.583231 ] } },
{ "type": "Feature", "properties": { "gml_id": "ETABLISSEMENTS_POLLUEURS.11485", "identifiant": "0005208627", "idetab": "11485", "nom": "AUTO 24", "codeape": "4677Z", "cp": "24360" }, "geometry": { "type": "Point", "coordinates": [ 0.603947, 45.652045 ] } },
{ "type": "Feature", "properties": { "gml_id": "ETABLISSEMENTS_POLLUEURS.588396", "identifiant": "0005206215", "idetab": "588396", "nom": "S. MIXTE DEP. POUR LA GESTION ET LE TRAIT. DES DECHETS MENAGERS ET ASSIMILES", "codeape": "3821Z", "cp": "24300" }, "geometry": { "type": "Point", "coordinates": [ 0.63168, 45.49606 ] } },
{ "type": "Feature", "properties": { "gml_id": "ETABLISSEMENTS_POLLUEURS.12867", "identifiant": "0006000401", "idetab": "12867", "nom": "S.A.S ANDRIEUX", "codeape": "1013A", "cp": "87440" }, "geometry": { "type": "Point", "coordinates": [ 0.75808, 45.705092 ] } },
{ "type": "Feature", "properties": { "gml_id": "ETABLISSEMENTS_POLLUEURS.8777", "identifiant": "0005203364", "idetab": "8777", "nom": "CARRIERES DE THIVIERS", "codeape": "0812Z", "cp": "24800" }, "geometry": { "type": "Point", "coordinates": [ 0.90617, 45.43242 ] } },
{ "type": "Feature", "properties": { "gml_id": "ETABLISSEMENTS_POLLUEURS.589368", "identifiant": "0052401932", "idetab": "589368", "nom": "ARCADIE SUD OUEST THIVIERS", "codeape": "1011Z", "cp": "24800" }, "geometry": { "type": "Point", "coordinates": [ 0.924203, 45.420277 ] } },
{ "type": "Feature", "properties": { "gml_id": "ETABLISSEMENTS_POLLUEURS.10355", "identifiant": "24551001", "idetab": "10355", "nom": "SARL SOCIETE PERIGOURDINE D'ABATTAGE", "codeape": "1011Z", "cp": "24800" }, "geometry": { "type": "Point", "coordinates": [ 0.923973, 45.429272 ] } },
{ "type": "Feature", "properties": { "gml_id": "ETABLISSEMENTS_POLLUEURS.12281", "identifiant": "0006003309", "idetab": "12281", "nom": "ISDND SMURFIT CRAMAUD 2 ET 2 BIS", "codeape": "1712Z", "cp": "87600" }, "geometry": { "type": "Point", "coordinates": [ 0.848177, 45.79982 ] } },
{ "type": "Feature", "properties": { "gml_id": "ETABLISSEMENTS_POLLUEURS.590607", "identifiant": "0007202481", "idetab": "590607", "nom": "TUILERIE BRIQUETERIE DE CHARDAT R.MALMANCHE", "codeape": "2332Z", "cp": "16310" }, "geometry": { "type": "Point", "coordinates": [ 0.52939, 45.80024 ] } },
{ "type": "Feature", "properties": { "gml_id": "ETABLISSEMENTS_POLLUEURS.592131", "identifiant": "0003103059", "idetab": "592131", "nom": "SMURFIT KAPPA PAPIER RECYCLE FRANCE", "codeape": "1712Z", "cp": "87600" }, "geometry": { "type": "Point", "coordinates": [ 0.84943, 45.80509 ] } },
{ "type": "Feature", "properties": { "gml_id": "ETABLISSEMENTS_POLLUEURS.590735", "identifiant": "0051600637", "idetab": "590735", "nom": "SCEA DE MARGNAC", "codeape": "0146Z", "cp": "16310" }, "geometry": { "type": "Point", "coordinates": [ 0.49771, 45.81284 ] } },
{ "type": "Feature", "properties": { "gml_id": "ETABLISSEMENTS_POLLUEURS.589647", "identifiant": "0006003037", "idetab": "589647", "nom": "ISDND ROCHECHOUART (SETRAD)", "codeape": "3821Z", "cp": "87600" }, "geometry": { "type": "Point", "coordinates": [ 0.82145, 45.825357 ] } },
{ "type": "Feature", "properties": { "gml_id": "ETABLISSEMENTS_POLLUEURS.6571", "identifiant": "0006003128", "idetab": "6571", "nom": "ISDND DE ROCHECHOUART", "codeape": "3821Z", "cp": "87600" }, "geometry": { "type": "Point", "coordinates": [ 0.82145, 45.825357 ] } },
{ "type": "Feature", "properties": { "gml_id": "ETABLISSEMENTS_POLLUEURS.590401", "identifiant": "0006003136", "idetab": "590401", "nom": "CET DE ROCHECHOUART", "codeape": "3821Z", "cp": "87600" }, "geometry": { "type": "Point", "coordinates": [ 0.82145, 45.825357 ] } },
{ "type": "Feature", "properties": { "gml_id": "ETABLISSEMENTS_POLLUEURS.8973", "identifiant": "0006000317", "idetab": "8973", "nom": "DS SMITH PACKAGING CONSUMER", "codeape": "1721A", "cp": "87600" }, "geometry": { "type": "Point", "coordinates": [ 0.832036, 45.832409 ] } },
{ "type": "Feature", "properties": { "gml_id": "ETABLISSEMENTS_POLLUEURS.590601", "identifiant": "0007200102", "idetab": "590601", "nom": "CDMR GENOUILLAC", "codeape": "0812Z", "cp": "16270" }, "geometry": { "type": "Point", "coordinates": [ 0.60073, 45.83883 ] } },
{ "type": "Feature", "properties": { "gml_id": "ETABLISSEMENTS_POLLUEURS.4367", "identifiant": "0006000385", "idetab": "4367", "nom": "SYLVAMO FRANCE SA", "codeape": "1712Z", "cp": "87720" }, "geometry": { "type": "Point", "coordinates": [ 0.82809, 45.86907 ] } },
{ "type": "Feature", "properties": { "gml_id": "ETABLISSEMENTS_POLLUEURS.8595", "identifiant": "0007202968", "idetab": "8595", "nom": "SYLVAMO FRANCE SA", "codeape": "1712Z", "cp": "16150" }, "geometry": { "type": "Point", "coordinates": [ 0.79586, 45.87019 ] } },
{ "type": "Feature", "properties": { "gml_id": "ETABLISSEMENTS_POLLUEURS.1224", "identifiant": "0006000314", "idetab": "1224", "nom": "SMURFIT KAPPA PAPIER RECYCLE FRANCE", "codeape": "1712Z", "cp": "87720" }, "geometry": { "type": "Point", "coordinates": [ 0.81422, 45.87212 ] } },
{ "type": "Feature", "properties": { "gml_id": "ETABLISSEMENTS_POLLUEURS.1244", "identifiant": "0006000454", "idetab": "1244", "nom": "SETHELEC", "codeape": "3511Z", "cp": "87720" }, "geometry": { "type": "Point", "coordinates": [ 0.81444, 45.87215 ] } },
{ "type": "Feature", "properties": { "gml_id": "ETABLISSEMENTS_POLLUEURS.592188", "identifiant": "0006003019", "idetab": "592188", "nom": "SPECIALTY MINERALS FRANCE", "codeape": "2013B", "cp": "87720" }, "geometry": { "type": "Point", "coordinates": [ 0.81862, 45.87308 ] } },
{ "type": "Feature", "properties": { "gml_id": "ETABLISSEMENTS_POLLUEURS.9740", "identifiant": "0006003024", "idetab": "9740", "nom": "LA BOISOURCE - EN ABREGE BOISOURCE", "codeape": "3511Z", "cp": "87720" }, "geometry": { "type": "Point", "coordinates": [ 0.81911, 45.87322 ] } },
{ "type": "Feature", "properties": { "gml_id": "ETABLISSEMENTS_POLLUEURS.1243", "identifiant": "0006000449", "idetab": "1243", "nom": "EUROCUP", "codeape": "2020Z", "cp": "87200" }, "geometry": { "type": "Point", "coordinates": [ 0.90642, 45.88251 ] } },
{ "type": "Feature", "properties": { "gml_id": "ETABLISSEMENTS_POLLUEURS.3211", "identifiant": "0007201287", "idetab": "3211", "nom": "TERREAL", "codeape": "2332Z", "cp": "16270" }, "geometry": { "type": "Point", "coordinates": [ 0.57404, 45.88337 ] } },
{ "type": "Feature", "properties": { "gml_id": "ETABLISSEMENTS_POLLUEURS.7041", "identifiant": "0007201225", "idetab": "7041", "nom": "CHROME DUR INDUSTRIEL MC 16", "codeape": "2561Z", "cp": "16270" }, "geometry": { "type": "Point", "coordinates": [ 0.50698, 45.88488 ] } },
{ "type": "Feature", "properties": { "gml_id": "ETABLISSEMENTS_POLLUEURS.9249", "identifiant": "0007202770", "idetab": "9249", "nom": "LAMIRANDE", "codeape": "1721A", "cp": "16150" }, "geometry": { "type": "Point", "coordinates": [ 0.671935, 45.887043 ] } },
{ "type": "Feature", "properties": { "gml_id": "ETABLISSEMENTS_POLLUEURS.1260", "identifiant": "0006002119", "idetab": "1260", "nom": "SOCIETE NOUVELLE MEGISSERIE COLOMBIER", "codeape": "1511Z", "cp": "87200" }, "geometry": { "type": "Point", "coordinates": [ 0.886857, 45.888218 ] } },
{ "type": "Feature", "properties": { "gml_id": "ETABLISSEMENTS_POLLUEURS.12456", "identifiant": "0007206714", "idetab": "12456", "nom": "SARL NIVELLE RECYCLAGE", "codeape": "3811Z", "cp": "16270" }, "geometry": { "type": "Point", "coordinates": [ 0.592414, 45.888735 ] } },
{ "type": "Feature", "properties": { "gml_id": "ETABLISSEMENTS_POLLUEURS.5349", "identifiant": "0007201508", "idetab": "5349", "nom": "BMI PRODUCTION FRANCE", "codeape": "2332Z", "cp": "16270" }, "geometry": { "type": "Point", "coordinates": [ 0.57579, 45.89628 ] } },
{ "type": "Feature", "properties": { "gml_id": "ETABLISSEMENTS_POLLUEURS.587863", "identifiant": "0006001679", "idetab": "587863", "nom": "SAICA PACK FRANCE", "codeape": "1721A", "cp": "87200" }, "geometry": { "type": "Point", "coordinates": [ 0.91767, 45.90339 ] } },
{ "type": "Feature", "properties": { "gml_id": "ETABLISSEMENTS_POLLUEURS.594550", "identifiant": "0007200011", "idetab": "594550", "nom": "SABLES DE SAINT MARTIN", "codeape": "0812Z", "cp": "16490" }, "geometry": { "type": "Point", "coordinates": [ 0.57087, 45.96842 ] } },
{ "type": "Feature", "properties": { "gml_id": "ETABLISSEMENTS_POLLUEURS.599338", "identifiant": "0100030424", "idetab": "599338", "nom": "NGE ROUTES", "codeape": "4211Z", "cp": "19270" }, "geometry": { "type": "Point", "coordinates": [ 0.60383, 45.83858 ] } },
{ "type": "Feature", "properties": { "gml_id": "ETABLISSEMENTS_POLLUEURS.9344", "identifiant": "16416136", "idetab": "9344", "nom": "GAEC DE MARGNAC", "codeape": "0146Z", "cp": "16310" }, "geometry": { "type": "Point", "coordinates": [ 0.499639, 45.80439 ] } },
{ "type": "Feature", "properties": { "gml_id": "ETABLISSEMENTS_POLLUEURS.11275", "identifiant": "87135002", "idetab": "11275", "nom": "PANAVI SAINT AUVENT", "codeape": "1071A", "cp": "87130" }, "geometry": { "type": "Point", "coordinates": [ 0.933588, 45.812929 ] } },
{ "type": "Feature", "properties": { "gml_id": "ETABLISSEMENTS_POLLUEURS.595273", "identifiant": "0005209360", "idetab": "595273", "nom": "KALHYGE 1", "codeape": "9601A", "cp": "24650" }, "geometry": { "type": "Point", "coordinates": [ 0.65442, 45.19008 ] } },
{ "type": "Feature", "properties": { "gml_id": "ETABLISSEMENTS_POLLUEURS.594898", "identifiant": "0052400552", "idetab": "594898", "nom": "AUCHAN HYPERMARCHE", "codeape": "4711F", "cp": "24430" }, "geometry": { "type": "Point", "coordinates": [ 0.65704, 45.18685 ] } },
{ "type": "Feature", "properties": { "gml_id": "ETABLISSEMENTS_POLLUEURS.6214", "identifiant": "0005206393", "idetab": "6214", "nom": "AUCHAN - PÉRIGUEUX-MARSAC", "codeape": "4711F", "cp": "24430" }, "geometry": { "type": "Point", "coordinates": [ 0.660242, 45.184261 ] } },
{ "type": "Feature", "properties": { "gml_id": "ETABLISSEMENTS_POLLUEURS.12730", "identifiant": "0005208272", "idetab": "12730", "nom": "FLASH AUTO PERIGUEUX MARSAC", "codeape": "4520A", "cp": "24430" }, "geometry": { "type": "Point", "coordinates": [ 0.6672, 45.18211 ] } },
{ "type": "Feature", "properties": { "gml_id": "ETABLISSEMENTS_POLLUEURS.6199", "identifiant": "0005205366", "idetab": "6199", "nom": "EUROVIA LIANTS SUD OUEST", "codeape": "2399Z", "cp": "24660" }, "geometry": { "type": "Point", "coordinates": [ 0.69009, 45.19387 ] } },
{ "type": "Feature", "properties": { "gml_id": "ETABLISSEMENTS_POLLUEURS.12093", "identifiant": "0005200135", "idetab": "12093", "nom": "EVIOSYS PACKAGING FRANCE S.A.S.", "codeape": "2592Z", "cp": "24000" }, "geometry": { "type": "Point", "coordinates": [ 0.70376, 45.18604 ] } },
{ "type": "Feature", "properties": { "gml_id": "ETABLISSEMENTS_POLLUEURS.590804", "identifiant": "0052401517", "idetab": "590804", "nom": "MADEMOISELLE DESSERTS", "codeape": "1071A", "cp": "24530" }, "geometry": { "type": "Point", "coordinates": [ 0.705154, 45.363772 ] } },
{ "type": "Feature", "properties": { "gml_id": "ETABLISSEMENTS_POLLUEURS.10501", "identifiant": "0005200136", "idetab": "10501", "nom": "SNCF VOYAGEURS", "codeape": "4910Z", "cp": "24000" }, "geometry": { "type": "Point", "coordinates": [ 0.70594, 45.19326 ] } },
{ "type": "Feature", "properties": { "gml_id": "ETABLISSEMENTS_POLLUEURS.13957", "identifiant": "0005205485", "idetab": "13957", "nom": "ARCELORMITTAL WIRE FRANCE", "codeape": "2434Z", "cp": "24000" }, "geometry": { "type": "Point", "coordinates": [ 0.70666, 45.18407 ] } },
{ "type": "Feature", "properties": { "gml_id": "ETABLISSEMENTS_POLLUEURS.588394", "identifiant": "0005205968", "idetab": "588394", "nom": "S. MIXTE DEP. POUR LA GESTION ET LE TRAIT. DES DECHETS MENAGERS ET ASSIMILES", "codeape": "3821Z", "cp": "24660" }, "geometry": { "type": "Point", "coordinates": [ 0.70873, 45.15405 ] } },
{ "type": "Feature", "properties": { "gml_id": "ETABLISSEMENTS_POLLUEURS.591730", "identifiant": "0052400005", "idetab": "591730", "nom": "DES DEUX ETANGS", "codeape": "0150Z", "cp": "24460" }, "geometry": { "type": "Point", "coordinates": [ 0.72583, 45.27909 ] } },
{ "type": "Feature", "properties": { "gml_id": "ETABLISSEMENTS_POLLUEURS.598967", "identifiant": "0005214073", "idetab": "598967", "nom": "S. MIXTE DEP. POUR LA GESTION ET LE TRAIT. DES DECHETS MENAGERS ET ASSIMILES", "codeape": "3821Z", "cp": "24380" }, "geometry": { "type": "Point", "coordinates": [ 0.7301, 45.05574 ] } },
{ "type": "Feature", "properties": { "gml_id": "ETABLISSEMENTS_POLLUEURS.590289", "identifiant": "0005208282", "idetab": "590289", "nom": "SARP SUD-OUEST", "codeape": "3700Z", "cp": "24750" }, "geometry": { "type": "Point", "coordinates": [ 0.7555, 45.17551 ] } },
{ "type": "Feature", "properties": { "gml_id": "ETABLISSEMENTS_POLLUEURS.588385", "identifiant": "0005200222", "idetab": "588385", "nom": "DEPANNAGE PH VERDIER SAS", "codeape": "4520A", "cp": "24750" }, "geometry": { "type": "Point", "coordinates": [ 0.763635, 45.188976 ] } },
{ "type": "Feature", "properties": { "gml_id": "ETABLISSEMENTS_POLLUEURS.6078", "identifiant": "0005200039", "idetab": "6078", "nom": "LA POSTE", "codeape": "5310Z", "cp": "24750" }, "geometry": { "type": "Point", "coordinates": [ 0.76741, 45.17894 ] } },
{ "type": "Feature", "properties": { "gml_id": "ETABLISSEMENTS_POLLUEURS.590803", "identifiant": "0052401464", "idetab": "590803", "nom": "SOBEVAL", "codeape": "1011Z", "cp": "24750" }, "geometry": { "type": "Point", "coordinates": [ 0.76743, 45.169029 ] } },
{ "type": "Feature", "properties": { "gml_id": "ETABLISSEMENTS_POLLUEURS.587770", "identifiant": "0005205233", "idetab": "587770", "nom": "SANDERS PERIGORD", "codeape": "1091Z", "cp": "24750" }, "geometry": { "type": "Point", "coordinates": [ 0.77419, 45.18149 ] } },
{ "type": "Feature", "properties": { "gml_id": "ETABLISSEMENTS_POLLUEURS.12183", "identifiant": "0005205384", "idetab": "12183", "nom": "SOCIETE INDUSTRIELLE DE RECUPERATION DES METAUX", "codeape": "3832Z", "cp": "24750" }, "geometry": { "type": "Point", "coordinates": [ 0.779, 45.18211 ] } },
{ "type": "Feature", "properties": { "gml_id": "ETABLISSEMENTS_POLLUEURS.591357", "identifiant": "0005208719", "idetab": "591357", "nom": "SUEZ RV SUD OUEST", "codeape": "3811Z", "cp": "24750" }, "geometry": { "type": "Point", "coordinates": [ 0.78076, 45.18657 ] } },
{ "type": "Feature", "properties": { "gml_id": "ETABLISSEMENTS_POLLUEURS.596584", "identifiant": "0005207324", "idetab": "596584", "nom": "S. MIXTE DEP. POUR LA GESTION ET LE TRAIT. DES DECHETS MENAGERS ET ASSIMILES", "codeape": "3821Z", "cp": "24750" }, "geometry": { "type": "Point", "coordinates": [ 0.78483, 45.18003 ] } },
{ "type": "Feature", "properties": { "gml_id": "ETABLISSEMENTS_POLLUEURS.599102", "identifiant": "0052401029", "idetab": "599102", "nom": "DELMOND FOIES GRAS", "codeape": "1012Z", "cp": "24750" }, "geometry": { "type": "Point", "coordinates": [ 0.7894, 45.15348 ] } },
{ "type": "Feature", "properties": { "gml_id": "ETABLISSEMENTS_POLLUEURS.588419", "identifiant": "0005211406", "idetab": "588419", "nom": "SUEZ RV SUD OUEST", "codeape": "3811Z", "cp": "24330" }, "geometry": { "type": "Point", "coordinates": [ 0.81889, 45.15735 ] } },
{ "type": "Feature", "properties": { "gml_id": "ETABLISSEMENTS_POLLUEURS.9608", "identifiant": "0005203250", "idetab": "9608", "nom": "IMERYS CERAMICS FRANCE", "codeape": "0812Z", "cp": "24800" }, "geometry": { "type": "Point", "coordinates": [ 0.83136, 45.3972 ] } },
{ "type": "Feature", "properties": { "gml_id": "ETABLISSEMENTS_POLLUEURS.597422", "identifiant": "0005214140", "idetab": "597422", "nom": "IMERYS CERAMICS FRANCE", "codeape": "0812Z", "cp": "24800" }, "geometry": { "type": "Point", "coordinates": [ 0.83628, 45.39919 ] } },
{ "type": "Feature", "properties": { "gml_id": "ETABLISSEMENTS_POLLUEURS.12709", "identifiant": "0005204806", "idetab": "12709", "nom": "CALCAIRES ET DIORITE DU PERIGORD", "codeape": "0812Z", "cp": "24420" }, "geometry": { "type": "Point", "coordinates": [ 0.9024, 45.28574 ] } },
{ "type": "Feature", "properties": { "gml_id": "ETABLISSEMENTS_POLLUEURS.11178", "identifiant": "24002011", "idetab": "11178", "nom": "GAEC DE LA VALLEE DU MARET", "codeape": "0146Z", "cp": "24460" }, "geometry": { "type": "Point", "coordinates": [ 0.749465, 45.300578 ] } },
{ "type": "Feature", "properties": { "gml_id": "ETABLISSEMENTS_POLLUEURS.10351", "identifiant": "24053001", "idetab": "10351", "nom": "SOBEVAL", "codeape": "1011Z", "cp": "24750" }, "geometry": { "type": "Point", "coordinates": [ 0.767176, 45.178022 ] } },
{ "type": "Feature", "properties": { "gml_id": "ETABLISSEMENTS_POLLUEURS.10352", "identifiant": "24129001", "idetab": "10352", "nom": "MADEMOISELLE DESSERTS VALADE", "codeape": "1071A", "cp": "24530" }, "geometry": { "type": "Point", "coordinates": [ 0.709285, 45.39201 ] } },
{ "type": "Feature", "properties": { "gml_id": "ETABLISSEMENTS_POLLUEURS.7352", "identifiant": "24256002", "idetab": "7352", "nom": "FROMARSAC", "codeape": "1051C", "cp": "24430" }, "geometry": { "type": "Point", "coordinates": [ 0.669512, 45.190421 ] } },
{ "type": "Feature", "properties": { "gml_id": "ETABLISSEMENTS_POLLUEURS.8337", "identifiant": "24308102", "idetab": "8337", "nom": "SARL DES MAINES", "codeape": "0146Z", "cp": "24460" }, "geometry": { "type": "Point", "coordinates": [ 0.868768, 45.355174 ] } },
{ "type": "Feature", "properties": { "gml_id": "ETABLISSEMENTS_POLLUEURS.7689", "identifiant": "0005205695", "idetab": "7689", "nom": "BERNIER FRERES", "codeape": "3299Z", "cp": "24160" }, "geometry": { "type": "Point", "coordinates": [ 0.9574, 45.33629 ] } },
{ "type": "Feature", "properties": { "gml_id": "ETABLISSEMENTS_POLLUEURS.6201", "identifiant": "0005205417", "idetab": "6201", "nom": "PAPREC AGRO", "codeape": "3832Z", "cp": "24800" }, "geometry": { "type": "Point", "coordinates": [ 0.9583, 45.45393 ] } },
{ "type": "Feature", "properties": { "gml_id": "ETABLISSEMENTS_POLLUEURS.6080", "identifiant": "0005200096", "idetab": "6080", "nom": "SUEZ RV SUD OUEST", "codeape": "3811Z", "cp": "24330" }, "geometry": { "type": "Point", "coordinates": [ 0.96014, 45.09547 ] } },
{ "type": "Feature", "properties": { "gml_id": "ETABLISSEMENTS_POLLUEURS.594349", "identifiant": "0005204821", "idetab": "594349", "nom": "CMC", "codeape": "0812Z", "cp": "24210" }, "geometry": { "type": "Point", "coordinates": [ 0.99637, 45.17941 ] } },
{ "type": "Feature", "properties": { "gml_id": "ETABLISSEMENTS_POLLUEURS.12276", "identifiant": "0006001467", "idetab": "12276", "nom": "HENAULT", "codeape": "3832Z", "cp": "87520" }, "geometry": { "type": "Point", "coordinates": [ 0.98108, 45.91847 ] } },
{ "type": "Feature", "properties": { "gml_id": "ETABLISSEMENTS_POLLUEURS.595783", "identifiant": "0006003299", "idetab": "595783", "nom": "SYND DEPT ELIMINATION DECHETS MENAGERS", "codeape": "3811Z", "cp": "87230" }, "geometry": { "type": "Point", "coordinates": [ 0.97196, 45.64518 ] } }
]
}
