{
"type": "FeatureCollection",
"name": "ms:ETABLISSEMENTS_POLLUEURS",
"crs": { "type": "name", "properties": { "name": "urn:ogc:def:crs:OGC:1.3:CRS84" } },
"features": [
{ "type": "Feature", "properties": { "gml_id": "ETABLISSEMENTS_POLLUEURS.592353", "identifiant": "0005805937", "idetab": "592353", "nom": "CENTRALE BIOGAZ DU NEUBOURG", "codeape": "3511Z", "cp": "27110" }, "geometry": { "type": "Point", "coordinates": [ 0.91561, 49.14103 ] } },
{ "type": "Feature", "properties": { "gml_id": "ETABLISSEMENTS_POLLUEURS.8511", "identifiant": "0005802214", "idetab": "8511", "nom": "SYNDICAT MIXTE POUR L'ETUDE ET LE TRAITEMENT DES ORDURES MENAGERES DE L'EURE", "codeape": "3821Z", "cp": "27110" }, "geometry": { "type": "Point", "coordinates": [ 0.92693, 49.15308 ] } },
{ "type": "Feature", "properties": { "gml_id": "ETABLISSEMENTS_POLLUEURS.1086", "identifiant": "0005800924", "idetab": "1086", "nom": "AJINOMOTO FROZEN FOODS FRANCE", "codeape": "1085Z", "cp": "27110" }, "geometry": { "type": "Point", "coordinates": [ 0.91441, 49.15511 ] } },
{ "type": "Feature", "properties": { "gml_id": "ETABLISSEMENTS_POLLUEURS.11650", "identifiant": "0005804987", "idetab": "11650", "nom": "ECOSYS", "codeape": "3821Z", "cp": "27370" }, "geometry": { "type": "Point", "coordinates": [ 0.935292, 49.20823 ] } },
{ "type": "Feature", "properties": { "gml_id": "ETABLISSEMENTS_POLLUEURS.1002", "identifiant": "0005800386", "idetab": "1002", "nom": "SAIPOL", "codeape": "1041A", "cp": "76530" }, "geometry": { "type": "Point", "coordinates": [ 0.97059, 49.34603 ] } },
{ "type": "Feature", "properties": { "gml_id": "ETABLISSEMENTS_POLLUEURS.10630", "identifiant": "0005801656", "idetab": "10630", "nom": "NOVADIS", "codeape": "5210A", "cp": "76530" }, "geometry": { "type": "Point", "coordinates": [ 0.9797, 49.34354 ] } },
{ "type": "Feature", "properties": { "gml_id": "ETABLISSEMENTS_POLLUEURS.1164", "identifiant": "0005802314", "idetab": "1164", "nom": "I.S.P. GRAND-COURONNE SAS", "codeape": "7219Z", "cp": "76530" }, "geometry": { "type": "Point", "coordinates": [ 0.984, 49.34395 ] } },
{ "type": "Feature", "properties": { "gml_id": "ETABLISSEMENTS_POLLUEURS.7857", "identifiant": "0005801605", "idetab": "7857", "nom": "EURL MAGREN", "codeape": "4520A", "cp": "76530" }, "geometry": { "type": "Point", "coordinates": [ 0.93344, 49.34494 ] } },
{ "type": "Feature", "properties": { "gml_id": "ETABLISSEMENTS_POLLUEURS.597473", "identifiant": "0005804051", "idetab": "597473", "nom": "SAS HIGHWAY FRANCE LOGISTICS 8", "codeape": "6820B", "cp": "76530" }, "geometry": { "type": "Point", "coordinates": [ 0.980768, 49.347301 ] } },
{ "type": "Feature", "properties": { "gml_id": "ETABLISSEMENTS_POLLUEURS.12032", "identifiant": "0030100239", "idetab": "12032", "nom": "RECYCL'AUTO", "codeape": "3831Z", "cp": "27670" }, "geometry": { "type": "Point", "coordinates": [ 0.952836, 49.293825 ] } },
{ "type": "Feature", "properties": { "gml_id": "ETABLISSEMENTS_POLLUEURS.590819", "identifiant": "0052700629", "idetab": "590819", "nom": "SCEA DE LA SALLE COQUEREL", "codeape": "0116Z", "cp": "27110" }, "geometry": { "type": "Point", "coordinates": [ 0.992909, 49.142049 ] } },
{ "type": "Feature", "properties": { "gml_id": "ETABLISSEMENTS_POLLUEURS.12855", "identifiant": "0005804127", "idetab": "12855", "nom": "BIO COGELYO NORMANDIE", "codeape": "3530Z", "cp": "76530" }, "geometry": { "type": "Point", "coordinates": [ 0.99572, 49.36075 ] } },
{ "type": "Feature", "properties": { "gml_id": "ETABLISSEMENTS_POLLUEURS.11648", "identifiant": "0005803594", "idetab": "11648", "nom": "EQIOM", "codeape": "2351Z", "cp": "76530" }, "geometry": { "type": "Point", "coordinates": [ 0.99572, 49.36075 ] } },
{ "type": "Feature", "properties": { "gml_id": "ETABLISSEMENTS_POLLUEURS.10635", "identifiant": "0005803207", "idetab": "10635", "nom": "SEA-TANK ROUEN", "codeape": "5210B", "cp": "76530" }, "geometry": { "type": "Point", "coordinates": [ 0.99572, 49.36075 ] } },
{ "type": "Feature", "properties": { "gml_id": "ETABLISSEMENTS_POLLUEURS.12849", "identifiant": "0005801791", "idetab": "12849", "nom": "BACHELET-BONNEFOND", "codeape": "3700Z", "cp": "76480" }, "geometry": { "type": "Point", "coordinates": [ 0.91668, 49.50632 ] } },
{ "type": "Feature", "properties": { "gml_id": "ETABLISSEMENTS_POLLUEURS.6430", "identifiant": "0005800322", "idetab": "6430", "nom": "SOC NOISEENNE OUTILLAGE DE PRESSE SNOP", "codeape": "2932Z", "cp": "76480" }, "geometry": { "type": "Point", "coordinates": [ 0.9231, 49.51876 ] } },
{ "type": "Feature", "properties": { "gml_id": "ETABLISSEMENTS_POLLUEURS.595126", "identifiant": "0005801527", "idetab": "595126", "nom": "YVES MADELINE", "codeape": "3700Z", "cp": "76360" }, "geometry": { "type": "Point", "coordinates": [ 0.94868, 49.52878 ] } },
{ "type": "Feature", "properties": { "gml_id": "ETABLISSEMENTS_POLLUEURS.1118", "identifiant": "0005801305", "idetab": "1118", "nom": "FERRERO FRANCE", "codeape": "1082Z", "cp": "76360" }, "geometry": { "type": "Point", "coordinates": [ 0.93194, 49.52962 ] } },
{ "type": "Feature", "properties": { "gml_id": "ETABLISSEMENTS_POLLUEURS.982", "identifiant": "0005800334", "idetab": "982", "nom": "TECUMSEH BARENTIN S.A.S", "codeape": "2711Z", "cp": "76360" }, "geometry": { "type": "Point", "coordinates": [ 0.955, 49.550493 ] } },
{ "type": "Feature", "properties": { "gml_id": "ETABLISSEMENTS_POLLUEURS.4266", "identifiant": "0005800344", "idetab": "4266", "nom": "GAILLIARD", "codeape": "172A", "cp": "76360" }, "geometry": { "type": "Point", "coordinates": [ 0.955, 49.550493 ] } },
{ "type": "Feature", "properties": { "gml_id": "ETABLISSEMENTS_POLLUEURS.4299", "identifiant": "0005801021", "idetab": "4299", "nom": "DE SUTTER FRERES", "codeape": "", "cp": "76730" }, "geometry": { "type": "Point", "coordinates": [ 0.929004, 49.776478 ] } },
{ "type": "Feature", "properties": { "gml_id": "ETABLISSEMENTS_POLLUEURS.11634", "identifiant": "0005801196", "idetab": "11634", "nom": "HERVIEUX SOS DEPANNAGE", "codeape": "4520A", "cp": "76450" }, "geometry": { "type": "Point", "coordinates": [ 0.679393, 49.79012 ] } },
{ "type": "Feature", "properties": { "gml_id": "ETABLISSEMENTS_POLLUEURS.1092", "identifiant": "0005801029", "idetab": "1092", "nom": "SOCIETE DES POLYMERES TECHNIQUES", "codeape": "2016Z", "cp": "76450" }, "geometry": { "type": "Point", "coordinates": [ 0.63836, 49.79054 ] } },
{ "type": "Feature", "properties": { "gml_id": "ETABLISSEMENTS_POLLUEURS.1006", "identifiant": "0005800398", "idetab": "1006", "nom": "CRISTAL UNION", "codeape": "1081Z", "cp": "76740" }, "geometry": { "type": "Point", "coordinates": [ 0.83244, 49.8097 ] } },
{ "type": "Feature", "properties": { "gml_id": "ETABLISSEMENTS_POLLUEURS.12841", "identifiant": "0005801045", "idetab": "12841", "nom": "SI.DE.FO", "codeape": "1091Z", "cp": "76740" }, "geometry": { "type": "Point", "coordinates": [ 0.849945, 49.81189 ] } },
{ "type": "Feature", "properties": { "gml_id": "ETABLISSEMENTS_POLLUEURS.7847", "identifiant": "0005801023", "idetab": "7847", "nom": "LEGRAND NORMANDIE", "codeape": "312A", "cp": "76730" }, "geometry": { "type": "Point", "coordinates": [ 0.950158, 49.814441 ] } },
{ "type": "Feature", "properties": { "gml_id": "ETABLISSEMENTS_POLLUEURS.1154", "identifiant": "0005801877", "idetab": "1154", "nom": "VAL LAQUAGE VT", "codeape": "2313Z", "cp": "76860" }, "geometry": { "type": "Point", "coordinates": [ 0.9573, 49.86703 ] } },
{ "type": "Feature", "properties": { "gml_id": "ETABLISSEMENTS_POLLUEURS.1157", "identifiant": "0005802088", "idetab": "1157", "nom": "2H ENERGY", "codeape": "2711Z", "cp": "76400" }, "geometry": { "type": "Point", "coordinates": [ 0.353328, 49.739882 ] } },
{ "type": "Feature", "properties": { "gml_id": "ETABLISSEMENTS_POLLUEURS.11644", "identifiant": "0005802241", "idetab": "11644", "nom": "SARL ECO GARAGE EX. GALLAIS", "codeape": "3812Z", "cp": "76400" }, "geometry": { "type": "Point", "coordinates": [ 0.364335, 49.708624 ] } },
{ "type": "Feature", "properties": { "gml_id": "ETABLISSEMENTS_POLLUEURS.1163", "identifiant": "0005802304", "idetab": "1163", "nom": "LUNOR DISTRIBUTION", "codeape": "1039A", "cp": "76810" }, "geometry": { "type": "Point", "coordinates": [ 0.91359, 49.82163 ] } },
{ "type": "Feature", "properties": { "gml_id": "ETABLISSEMENTS_POLLUEURS.8514", "identifiant": "0005802751", "idetab": "8514", "nom": "VALOR'CAUX", "codeape": "3821Z", "cp": "76740" }, "geometry": { "type": "Point", "coordinates": [ 0.87678, 49.78564 ] } },
{ "type": "Feature", "properties": { "gml_id": "ETABLISSEMENTS_POLLUEURS.8516", "identifiant": "0005802753", "idetab": "8516", "nom": "VALOR'CAUX", "codeape": "3821Z", "cp": "76450" }, "geometry": { "type": "Point", "coordinates": [ 0.660697, 49.760123 ] } },
{ "type": "Feature", "properties": { "gml_id": "ETABLISSEMENTS_POLLUEURS.11362", "identifiant": "0005802785", "idetab": "11362", "nom": "LUDOVIC DUFOUR", "codeape": "3821Z", "cp": "76890" }, "geometry": { "type": "Point", "coordinates": [ 0.988895, 49.710607 ] } },
{ "type": "Feature", "properties": { "gml_id": "ETABLISSEMENTS_POLLUEURS.12271", "identifiant": "0005803463", "idetab": "12271", "nom": "TRAITEUR DE PARIS", "codeape": "1089Z", "cp": "76400" }, "geometry": { "type": "Point", "coordinates": [ 0.364335, 49.708624 ] } },
{ "type": "Feature", "properties": { "gml_id": "ETABLISSEMENTS_POLLUEURS.9728", "identifiant": "0005803799", "idetab": "9728", "nom": "INSERDECO", "codeape": "1812Z", "cp": "76860" }, "geometry": { "type": "Point", "coordinates": [ 0.95855, 49.86725 ] } },
{ "type": "Feature", "properties": { "gml_id": "ETABLISSEMENTS_POLLUEURS.12854", "identifiant": "0005803901", "idetab": "12854", "nom": "PATISSERIE PASQUIER SAINT VALERY", "codeape": "1071A", "cp": "76460" }, "geometry": { "type": "Point", "coordinates": [ 0.72063, 49.85004 ] } },
{ "type": "Feature", "properties": { "gml_id": "ETABLISSEMENTS_POLLUEURS.12857", "identifiant": "0005805043", "idetab": "12857", "nom": "SUEZ RV OSIS NORD BARENTIN", "codeape": "3700Z", "cp": "76360" }, "geometry": { "type": "Point", "coordinates": [ 0.955, 49.550493 ] } },
{ "type": "Feature", "properties": { "gml_id": "ETABLISSEMENTS_POLLUEURS.596479", "identifiant": "0005805841", "idetab": "596479", "nom": "CENTRALE BIOGAZ DES HAUTES FALAISES", "codeape": "3511Z", "cp": "76400" }, "geometry": { "type": "Point", "coordinates": [ 0.34842, 49.74782 ] } },
{ "type": "Feature", "properties": { "gml_id": "ETABLISSEMENTS_POLLUEURS.588665", "identifiant": "0005806072", "idetab": "588665", "nom": "IKOS ENVIRONNEMENT", "codeape": "3812Z", "cp": "76560" }, "geometry": { "type": "Point", "coordinates": [ 0.78961, 49.7184 ] } },
{ "type": "Feature", "properties": { "gml_id": "ETABLISSEMENTS_POLLUEURS.591884", "identifiant": "0009069904", "idetab": "591884", "nom": "ELECTRICITE DE FRANCE", "codeape": "3511Z", "cp": "76450" }, "geometry": { "type": "Point", "coordinates": [ 0.6333, 49.7759 ] } },
{ "type": "Feature", "properties": { "gml_id": "ETABLISSEMENTS_POLLUEURS.591172", "identifiant": "0057600240", "idetab": "591172", "nom": "SCEA DU BEAUDROUARD", "codeape": "0146Z", "cp": "76450" }, "geometry": { "type": "Point", "coordinates": [ 0.69048, 49.75613 ] } },
{ "type": "Feature", "properties": { "gml_id": "ETABLISSEMENTS_POLLUEURS.591260", "identifiant": "0069902002", "idetab": "591260", "nom": "EDF - CNPE DE PALUEL", "codeape": "3511Z", "cp": "76450" }, "geometry": { "type": "Point", "coordinates": [ 0.631995, 49.786212 ] } },
{ "type": "Feature", "properties": { "gml_id": "ETABLISSEMENTS_POLLUEURS.598939", "identifiant": "0100000853", "idetab": "598939", "nom": "BIONORROIS", "codeape": "3521Z", "cp": "76740" }, "geometry": { "type": "Point", "coordinates": [ 0.82806, 49.81034 ] } },
{ "type": "Feature", "properties": { "gml_id": "ETABLISSEMENTS_POLLUEURS.10450", "identifiant": "76128460", "idetab": "10450", "nom": "EARL DU BEAUDROUARD", "codeape": "0146Z", "cp": "76450" }, "geometry": { "type": "Point", "coordinates": [ 0.641136, 49.758362 ] } },
{ "type": "Feature", "properties": { "gml_id": "ETABLISSEMENTS_POLLUEURS.5938", "identifiant": "76327030", "idetab": "5938", "nom": "SARL CLIPORC", "codeape": "0146Z", "cp": "76810" }, "geometry": { "type": "Point", "coordinates": [ 0.914762, 49.818976 ] } },
{ "type": "Feature", "properties": { "gml_id": "ETABLISSEMENTS_POLLUEURS.7700", "identifiant": "0005300968", "idetab": "7700", "nom": "CIDRERIES DU CALVADOS LA FERMIÈRE", "codeape": "1103Z", "cp": "14140" }, "geometry": { "type": "Point", "coordinates": [ 0.150396, 49.00501 ] } },
{ "type": "Feature", "properties": { "gml_id": "ETABLISSEMENTS_POLLUEURS.7701", "identifiant": "0005300973", "idetab": "7701", "nom": "FROMAGERIE DE LIVAROT", "codeape": "1051C", "cp": "14140" }, "geometry": { "type": "Point", "coordinates": [ 0.15137, 49.00142 ] } },
{ "type": "Feature", "properties": { "gml_id": "ETABLISSEMENTS_POLLUEURS.7702", "identifiant": "0005301058", "idetab": "7702", "nom": "SOGAL", "codeape": "2561Z", "cp": "14290" }, "geometry": { "type": "Point", "coordinates": [ 0.408257, 49.023044 ] } },
{ "type": "Feature", "properties": { "gml_id": "ETABLISSEMENTS_POLLUEURS.7723", "identifiant": "0005303657", "idetab": "7723", "nom": "SOCIETE FROMAGERE D'ORBEC", "codeape": "1051C", "cp": "14290" }, "geometry": { "type": "Point", "coordinates": [ 0.40928, 49.01476 ] } },
{ "type": "Feature", "properties": { "gml_id": "ETABLISSEMENTS_POLLUEURS.11535", "identifiant": "0005303426", "idetab": "11535", "nom": "DEPANN'AUTO", "codeape": "4520A", "cp": "14290" }, "geometry": { "type": "Point", "coordinates": [ 0.411471, 49.017496 ] } },
{ "type": "Feature", "properties": { "gml_id": "ETABLISSEMENTS_POLLUEURS.6244", "identifiant": "0005300868", "idetab": "6244", "nom": "GJR2L", "codeape": "2561Z", "cp": "14290" }, "geometry": { "type": "Point", "coordinates": [ 0.41518, 49.023112 ] } },
{ "type": "Feature", "properties": { "gml_id": "ETABLISSEMENTS_POLLUEURS.590311", "identifiant": "0005302850", "idetab": "590311", "nom": "SOC NOISEENNE OUTILLAGE DE PRESSE SNOP", "codeape": "2932Z", "cp": "14290" }, "geometry": { "type": "Point", "coordinates": [ 0.4204, 49.0221 ] } },
{ "type": "Feature", "properties": { "gml_id": "ETABLISSEMENTS_POLLUEURS.6436", "identifiant": "0005800461", "idetab": "6436", "nom": "BAP INDUSTRIE", "codeape": "2561Z", "cp": "27270" }, "geometry": { "type": "Point", "coordinates": [ 0.529747, 49.009088 ] } },
{ "type": "Feature", "properties": { "gml_id": "ETABLISSEMENTS_POLLUEURS.6447", "identifiant": "0005800614", "idetab": "6447", "nom": "APLIFIL", "codeape": "2599B", "cp": "27270" }, "geometry": { "type": "Point", "coordinates": [ 0.53927, 49.01646 ] } },
{ "type": "Feature", "properties": { "gml_id": "ETABLISSEMENTS_POLLUEURS.6292", "identifiant": "0005302845", "idetab": "6292", "nom": "ATOS", "codeape": "2712Z", "cp": "14100" }, "geometry": { "type": "Point", "coordinates": [ 0.29534, 49.12705 ] } },
{ "type": "Feature", "properties": { "gml_id": "ETABLISSEMENTS_POLLUEURS.12196", "identifiant": "0005302837", "idetab": "12196", "nom": "SARL M D F", "codeape": "2561Z", "cp": "14340" }, "geometry": { "type": "Point", "coordinates": [ 0.148444, 49.132757 ] } },
{ "type": "Feature", "properties": { "gml_id": "ETABLISSEMENTS_POLLUEURS.4009", "identifiant": "0005302849", "idetab": "4009", "nom": "LACTALIS NESTLE ULTRA-FRAIS MARQUES", "codeape": "1051A", "cp": "14100" }, "geometry": { "type": "Point", "coordinates": [ 0.22889, 49.13675 ] } },
{ "type": "Feature", "properties": { "gml_id": "ETABLISSEMENTS_POLLUEURS.589546", "identifiant": "0005301111", "idetab": "589546", "nom": "AXE METAL", "codeape": "2550B", "cp": "14100" }, "geometry": { "type": "Point", "coordinates": [ 0.16515, 49.13797 ] } },
{ "type": "Feature", "properties": { "gml_id": "ETABLISSEMENTS_POLLUEURS.7699", "identifiant": "0005300964", "idetab": "7699", "nom": "SAINT-GOBAIN ABRASIF", "codeape": "2573B", "cp": "14100" }, "geometry": { "type": "Point", "coordinates": [ 0.226259, 49.142576 ] } },
{ "type": "Feature", "properties": { "gml_id": "ETABLISSEMENTS_POLLUEURS.7718", "identifiant": "0005302847", "idetab": "7718", "nom": "PLYSOROL EUROPE LISIEUX", "codeape": "1621Z", "cp": "14102" }, "geometry": { "type": "Point", "coordinates": [ 0.226259, 49.142576 ] } },
{ "type": "Feature", "properties": { "gml_id": "ETABLISSEMENTS_POLLUEURS.11544", "identifiant": "0005305105", "idetab": "11544", "nom": "RECYCLAGE FMC", "codeape": "3832Z", "cp": "14100" }, "geometry": { "type": "Point", "coordinates": [ 0.226259, 49.142576 ] } },
{ "type": "Feature", "properties": { "gml_id": "ETABLISSEMENTS_POLLUEURS.4002", "identifiant": "0005300961", "idetab": "4002", "nom": "LISIEUX ENERGIE", "codeape": "3530Z", "cp": "14100" }, "geometry": { "type": "Point", "coordinates": [ 0.25063, 49.14401 ] } },
{ "type": "Feature", "properties": { "gml_id": "ETABLISSEMENTS_POLLUEURS.11501", "identifiant": "0005300776", "idetab": "11501", "nom": "GLOS AUTOMOBILES", "codeape": "4520A", "cp": "14100" }, "geometry": { "type": "Point", "coordinates": [ 0.283059, 49.145112 ] } },
{ "type": "Feature", "properties": { "gml_id": "ETABLISSEMENTS_POLLUEURS.6241", "identifiant": "0005300775", "idetab": "6241", "nom": "KNORR BREMSE", "codeape": "2932Z", "cp": "14100" }, "geometry": { "type": "Point", "coordinates": [ 0.28076, 49.145807 ] } },
{ "type": "Feature", "properties": { "gml_id": "ETABLISSEMENTS_POLLUEURS.599112", "identifiant": "0005303596", "idetab": "599112", "nom": "OPELLA HEALTHCARE INTERNATIONAL SAS", "codeape": "2120Z", "cp": "14100" }, "geometry": { "type": "Point", "coordinates": [ 0.27327, 49.14736 ] } },
{ "type": "Feature", "properties": { "gml_id": "ETABLISSEMENTS_POLLUEURS.7698", "identifiant": "0005300918", "idetab": "7698", "nom": "MARY RECYCLAGE", "codeape": "4532Z", "cp": "14100" }, "geometry": { "type": "Point", "coordinates": [ 0.27345, 49.14747 ] } },
{ "type": "Feature", "properties": { "gml_id": "ETABLISSEMENTS_POLLUEURS.6242", "identifiant": "0005300796", "idetab": "6242", "nom": "EUROPFIL NORMANDIE EPOXY", "codeape": "2561Z", "cp": "14100" }, "geometry": { "type": "Point", "coordinates": [ 0.266603, 49.147502 ] } },
{ "type": "Feature", "properties": { "gml_id": "ETABLISSEMENTS_POLLUEURS.8793", "identifiant": "0005300960", "idetab": "8793", "nom": "SODEL", "codeape": "2041Z", "cp": "14100" }, "geometry": { "type": "Point", "coordinates": [ 0.26127, 49.14842 ] } },
{ "type": "Feature", "properties": { "gml_id": "ETABLISSEMENTS_POLLUEURS.6297", "identifiant": "0005303459", "idetab": "6297", "nom": "FINITECH", "codeape": "2561Z", "cp": "14100" }, "geometry": { "type": "Point", "coordinates": [ 0.26537, 49.14864 ] } },
{ "type": "Feature", "properties": { "gml_id": "ETABLISSEMENTS_POLLUEURS.6293", "identifiant": "0005302846", "idetab": "6293", "nom": "CADECAP", "codeape": "2561Z", "cp": "14100" }, "geometry": { "type": "Point", "coordinates": [ 0.26537, 49.14864 ] } },
{ "type": "Feature", "properties": { "gml_id": "ETABLISSEMENTS_POLLUEURS.13969", "identifiant": "0005300914", "idetab": "13969", "nom": "ELECTRODIAM", "codeape": "2561Z", "cp": "14100" }, "geometry": { "type": "Point", "coordinates": [ 0.26508, 49.149814 ] } },
{ "type": "Feature", "properties": { "gml_id": "ETABLISSEMENTS_POLLUEURS.11542", "identifiant": "0005304623", "idetab": "11542", "nom": "PASSENAUD RECYCLAGE", "codeape": "3832Z", "cp": "14100" }, "geometry": { "type": "Point", "coordinates": [ 0.26483, 49.15148 ] } },
{ "type": "Feature", "properties": { "gml_id": "ETABLISSEMENTS_POLLUEURS.598606", "identifiant": "0005305335", "idetab": "598606", "nom": "COOPERATIVE D'APPROVISIONNEMENT NORMANDE", "codeape": "4617A", "cp": "14100" }, "geometry": { "type": "Point", "coordinates": [ 0.21712, 49.16843 ] } },
{ "type": "Feature", "properties": { "gml_id": "ETABLISSEMENTS_POLLUEURS.10619", "identifiant": "0005800819", "idetab": "10619", "nom": "CASSE AUTO ADR", "codeape": "4520A", "cp": "27230" }, "geometry": { "type": "Point", "coordinates": [ 0.441243, 49.132127 ] } },
{ "type": "Feature", "properties": { "gml_id": "ETABLISSEMENTS_POLLUEURS.13540", "identifiant": "0005802233", "idetab": "13540", "nom": "TAUTO CASS", "codeape": "4511Z", "cp": "27300" }, "geometry": { "type": "Point", "coordinates": [ 0.515855, 49.070636 ] } },
{ "type": "Feature", "properties": { "gml_id": "ETABLISSEMENTS_POLLUEURS.8625", "identifiant": "0030100105", "idetab": "8625", "nom": "SDOMODE VALORISLE - STATION DE BROYAGE DE DRUCOURT", "codeape": "3821Z", "cp": "27230" }, "geometry": { "type": "Point", "coordinates": [ 0.465229, 49.116521 ] } },
{ "type": "Feature", "properties": { "gml_id": "ETABLISSEMENTS_POLLUEURS.590085", "identifiant": "0051400104", "idetab": "590085", "nom": "ALVA", "codeape": "1041A", "cp": "14100" }, "geometry": { "type": "Point", "coordinates": [ 0.247069, 49.130753 ] } },
{ "type": "Feature", "properties": { "gml_id": "ETABLISSEMENTS_POLLUEURS.10328", "identifiant": "14069066", "idetab": "10328", "nom": "ALVA", "codeape": "1041A", "cp": "14100" }, "geometry": { "type": "Point", "coordinates": [ 0.246705, 49.139735 ] } },
{ "type": "Feature", "properties": { "gml_id": "ETABLISSEMENTS_POLLUEURS.1079", "identifiant": "0005800814", "idetab": "1079", "nom": "REBORN NORMANDIE", "codeape": "4669C", "cp": "27300" }, "geometry": { "type": "Point", "coordinates": [ 0.5832, 49.07269 ] } },
{ "type": "Feature", "properties": { "gml_id": "ETABLISSEMENTS_POLLUEURS.999", "identifiant": "0005800382", "idetab": "999", "nom": "SCHNEIDER ELECTRIC FRANCE", "codeape": "2712Z", "cp": "27170" }, "geometry": { "type": "Point", "coordinates": [ 0.77663, 49.07532 ] } },
{ "type": "Feature", "properties": { "gml_id": "ETABLISSEMENTS_POLLUEURS.6467", "identifiant": "0005801251", "idetab": "6467", "nom": "IPS IMPRIMERIES", "codeape": "1812Z", "cp": "27300" }, "geometry": { "type": "Point", "coordinates": [ 0.56854, 49.082102 ] } },
{ "type": "Feature", "properties": { "gml_id": "ETABLISSEMENTS_POLLUEURS.967", "identifiant": "0005800296", "idetab": "967", "nom": "FM TSN SAS", "codeape": "2561Z", "cp": "27300" }, "geometry": { "type": "Point", "coordinates": [ 0.595113, 49.088193 ] } },
{ "type": "Feature", "properties": { "gml_id": "ETABLISSEMENTS_POLLUEURS.4272", "identifiant": "0005800383", "idetab": "4272", "nom": "BEAUTE RECHERCHE ET PRODUCTION", "codeape": "2042Z", "cp": "27301" }, "geometry": { "type": "Point", "coordinates": [ 0.605963, 49.091514 ] } },
{ "type": "Feature", "properties": { "gml_id": "ETABLISSEMENTS_POLLUEURS.1090", "identifiant": "0005801001", "idetab": "1090", "nom": "A. M. D.", "codeape": "2041Z", "cp": "27300" }, "geometry": { "type": "Point", "coordinates": [ 0.605963, 49.091514 ] } },
{ "type": "Feature", "properties": { "gml_id": "ETABLISSEMENTS_POLLUEURS.979", "identifiant": "0005800330", "idetab": "979", "nom": "AEROCHIM", "codeape": "2042Z", "cp": "27300" }, "geometry": { "type": "Point", "coordinates": [ 0.61931, 49.09383 ] } },
{ "type": "Feature", "properties": { "gml_id": "ETABLISSEMENTS_POLLUEURS.10626", "identifiant": "0005801422", "idetab": "10626", "nom": "ARKEMA FRANCE", "codeape": "7219Z", "cp": "27470" }, "geometry": { "type": "Point", "coordinates": [ 0.74129, 49.09767 ] } },
{ "type": "Feature", "properties": { "gml_id": "ETABLISSEMENTS_POLLUEURS.989", "identifiant": "0005800355", "idetab": "989", "nom": "ARKEMA FRANCE", "codeape": "2016Z", "cp": "27470" }, "geometry": { "type": "Point", "coordinates": [ 0.7218, 49.10996 ] } },
{ "type": "Feature", "properties": { "gml_id": "ETABLISSEMENTS_POLLUEURS.10622", "identifiant": "0005801030", "idetab": "10622", "nom": "PASSENAUD RECYCLAGE", "codeape": "3832Z", "cp": "27300" }, "geometry": { "type": "Point", "coordinates": [ 0.58464, 49.11294 ] } },
{ "type": "Feature", "properties": { "gml_id": "ETABLISSEMENTS_POLLUEURS.592696", "identifiant": "0005802248", "idetab": "592696", "nom": "BZ SERVICES", "codeape": "1061A", "cp": "27110" }, "geometry": { "type": "Point", "coordinates": [ 0.88145, 49.13367 ] } },
{ "type": "Feature", "properties": { "gml_id": "ETABLISSEMENTS_POLLUEURS.12839", "identifiant": "0005800609", "idetab": "12839", "nom": "SAINT LOUIS SUCRE", "codeape": "1081Z", "cp": "27550" }, "geometry": { "type": "Point", "coordinates": [ 0.730351, 49.141536 ] } },
{ "type": "Feature", "properties": { "gml_id": "ETABLISSEMENTS_POLLUEURS.10620", "identifiant": "0005800958", "idetab": "10620", "nom": "APTAR FRANCE SAS", "codeape": "2222Z", "cp": "27110" }, "geometry": { "type": "Point", "coordinates": [ 0.90956, 49.15833 ] } },
{ "type": "Feature", "properties": { "gml_id": "ETABLISSEMENTS_POLLUEURS.6444", "identifiant": "0005800562", "idetab": "6444", "nom": "GEORGIA PACIFIC BRIONNE", "codeape": "212E", "cp": "27800" }, "geometry": { "type": "Point", "coordinates": [ 0.711285, 49.190511 ] } },
{ "type": "Feature", "properties": { "gml_id": "ETABLISSEMENTS_POLLUEURS.12111", "identifiant": "0005800959", "idetab": "12111", "nom": "COMPIN (SITE DE BRIONNE)", "codeape": "3020Z", "cp": "27800" }, "geometry": { "type": "Point", "coordinates": [ 0.711285, 49.190511 ] } },
{ "type": "Feature", "properties": { "gml_id": "ETABLISSEMENTS_POLLUEURS.6428", "identifiant": "0005800309", "idetab": "6428", "nom": "UGITECH S.A.", "codeape": "2410Z", "cp": "27800" }, "geometry": { "type": "Point", "coordinates": [ 0.717147, 49.198184 ] } },
{ "type": "Feature", "properties": { "gml_id": "ETABLISSEMENTS_POLLUEURS.6426", "identifiant": "0005800295", "idetab": "6426", "nom": "HOWA TRAMICO", "codeape": "2229A", "cp": "27800" }, "geometry": { "type": "Point", "coordinates": [ 0.7066, 49.21197 ] } },
{ "type": "Feature", "properties": { "gml_id": "ETABLISSEMENTS_POLLUEURS.11639", "identifiant": "0005801419", "idetab": "11639", "nom": "AUTO PIECES 27", "codeape": "3832Z", "cp": "27520" }, "geometry": { "type": "Point", "coordinates": [ 0.817869, 49.255343 ] } },
{ "type": "Feature", "properties": { "gml_id": "ETABLISSEMENTS_POLLUEURS.12264", "identifiant": "0005800979", "idetab": "12264", "nom": "NESTLE PURINA PETCARE FRANCE", "codeape": "1092Z", "cp": "27290" }, "geometry": { "type": "Point", "coordinates": [ 0.66072, 49.29419 ] } },
{ "type": "Feature", "properties": { "gml_id": "ETABLISSEMENTS_POLLUEURS.14056", "identifiant": "0005804941", "idetab": "14056", "nom": "GXO LOGISTICS OUEST FRANCE", "codeape": "5210B", "cp": "27520" }, "geometry": { "type": "Point", "coordinates": [ 0.8704, 49.30043 ] } },
{ "type": "Feature", "properties": { "gml_id": "ETABLISSEMENTS_POLLUEURS.8359", "identifiant": "0030100027", "idetab": "8359", "nom": "SYNDICAT DE PREVENTION, COLLECTE ET DE VALORISATION DES DECHETS DE L'OUEST DE L'EURE (PRECOVAL)", "codeape": "3811Z", "cp": "27800" }, "geometry": { "type": "Point", "coordinates": [ 0.75563, 49.23338 ] } },
{ "type": "Feature", "properties": { "gml_id": "ETABLISSEMENTS_POLLUEURS.8626", "identifiant": "0030100106", "idetab": "8626", "nom": "SDOMODE VALORISLE - PLATEFORME MULTIFILIÈRES DE BEAUMONTEL", "codeape": "3821Z", "cp": "27170" }, "geometry": { "type": "Point", "coordinates": [ 0.764262, 49.088676 ] } },
{ "type": "Feature", "properties": { "gml_id": "ETABLISSEMENTS_POLLUEURS.590817", "identifiant": "0052700020", "idetab": "590817", "nom": "EARL LES TRINQUETS", "codeape": "0147Z", "cp": "27170" }, "geometry": { "type": "Point", "coordinates": [ 0.857342, 49.045187 ] } },
{ "type": "Feature", "properties": { "gml_id": "ETABLISSEMENTS_POLLUEURS.590093", "identifiant": "0052700280", "idetab": "590093", "nom": "SOCOPA VIANDES", "codeape": "1011Z", "cp": "27110" }, "geometry": { "type": "Point", "coordinates": [ 0.90368, 49.15986 ] } },
{ "type": "Feature", "properties": { "gml_id": "ETABLISSEMENTS_POLLUEURS.5697", "identifiant": "27040151", "idetab": "5697", "nom": "EARL LES TRINQUETS", "codeape": "0147Z", "cp": "27170" }, "geometry": { "type": "Point", "coordinates": [ 0.862667, 49.053463 ] } },
{ "type": "Feature", "properties": { "gml_id": "ETABLISSEMENTS_POLLUEURS.8350", "identifiant": "27164116", "idetab": "8350", "nom": "EARL DE LA NEUVILLE DE COMBON", "codeape": "012G", "cp": "27170" }, "geometry": { "type": "Point", "coordinates": [ 0.890538, 49.109021 ] } },
{ "type": "Feature", "properties": { "gml_id": "ETABLISSEMENTS_POLLUEURS.7371", "identifiant": "27428001", "idetab": "7371", "nom": "SOCOPA VIANDES", "codeape": "1011Z", "cp": "27110" }, "geometry": { "type": "Point", "coordinates": [ 0.910674, 49.154301 ] } },
{ "type": "Feature", "properties": { "gml_id": "ETABLISSEMENTS_POLLUEURS.590068", "identifiant": "27482011", "idetab": "590068", "nom": "EARL HEUGHEBAERT", "codeape": "0113Z", "cp": "27370" }, "geometry": { "type": "Point", "coordinates": [ 0.895197, 49.207413 ] } },
{ "type": "Feature", "properties": { "gml_id": "ETABLISSEMENTS_POLLUEURS.7850", "identifiant": "0005801136", "idetab": "7850", "nom": "SARL ROYER", "codeape": "5221Z", "cp": "27560" }, "geometry": { "type": "Point", "coordinates": [ 0.568811, 49.195621 ] } },
{ "type": "Feature", "properties": { "gml_id": "ETABLISSEMENTS_POLLUEURS.6246", "identifiant": "0005301039", "idetab": "6246", "nom": "MCBRIDE S.A.S.", "codeape": "2041Z", "cp": "14590" }, "geometry": { "type": "Point", "coordinates": [ 0.359478, 49.199995 ] } },
{ "type": "Feature", "properties": { "gml_id": "ETABLISSEMENTS_POLLUEURS.6298", "identifiant": "0005303469", "idetab": "6298", "nom": "ASSOCIATION R'PUR", "codeape": "853H", "cp": "14000" }, "geometry": { "type": "Point", "coordinates": [ 0.36626, 49.204802 ] } },
{ "type": "Feature", "properties": { "gml_id": "ETABLISSEMENTS_POLLUEURS.1125", "identifiant": "0005801418", "idetab": "1125", "nom": "DISTILLERIE BUSNEL SAS", "codeape": "1101Z", "cp": "27260" }, "geometry": { "type": "Point", "coordinates": [ 0.37975, 49.24585 ] } },
{ "type": "Feature", "properties": { "gml_id": "ETABLISSEMENTS_POLLUEURS.7624", "identifiant": "0003001209", "idetab": "7624", "nom": "MULTI CHOC", "codeape": "3831Z", "cp": "27210" }, "geometry": { "type": "Point", "coordinates": [ 0.371931, 49.333086 ] } },
{ "type": "Feature", "properties": { "gml_id": "ETABLISSEMENTS_POLLUEURS.6458", "identifiant": "0005800969", "idetab": "6458", "nom": "SEEM-SEMRAC SN", "codeape": "2599B", "cp": "27500" }, "geometry": { "type": "Point", "coordinates": [ 0.53062, 49.34815 ] } },
{ "type": "Feature", "properties": { "gml_id": "ETABLISSEMENTS_POLLUEURS.1010", "identifiant": "0005800415", "idetab": "1010", "nom": "CARTONNERIE DE PONT AUDEMER", "codeape": "211C", "cp": "27500" }, "geometry": { "type": "Point", "coordinates": [ 0.510585, 49.353712 ] } },
{ "type": "Feature", "properties": { "gml_id": "ETABLISSEMENTS_POLLUEURS.7837", "identifiant": "0005800428", "idetab": "7837", "nom": "PRECIOHM", "codeape": "2612Z", "cp": "27500" }, "geometry": { "type": "Point", "coordinates": [ 0.510585, 49.353712 ] } },
{ "type": "Feature", "properties": { "gml_id": "ETABLISSEMENTS_POLLUEURS.8955", "identifiant": "0005801325", "idetab": "8955", "nom": "BISCHOF + KLEIN FRANCE", "codeape": "2222Z", "cp": "27500" }, "geometry": { "type": "Point", "coordinates": [ 0.50605, 49.35501 ] } },
{ "type": "Feature", "properties": { "gml_id": "ETABLISSEMENTS_POLLUEURS.4277", "identifiant": "0005800429", "idetab": "4277", "nom": "AHLSTROM SPECIALTIES", "codeape": "1712Z", "cp": "27500" }, "geometry": { "type": "Point", "coordinates": [ 0.50605, 49.35501 ] } },
{ "type": "Feature", "properties": { "gml_id": "ETABLISSEMENTS_POLLUEURS.1012", "identifiant": "0005800417", "idetab": "1012", "nom": "COSTIL PONT-AUDEMER UNT", "codeape": "191Z", "cp": "27500" }, "geometry": { "type": "Point", "coordinates": [ 0.498749, 49.360801 ] } },
{ "type": "Feature", "properties": { "gml_id": "ETABLISSEMENTS_POLLUEURS.7842", "identifiant": "0005800534", "idetab": "7842", "nom": "BAUDOUIN", "codeape": "266E", "cp": "76330" }, "geometry": { "type": "Point", "coordinates": [ 0.581572, 49.462052 ] } },
{ "type": "Feature", "properties": { "gml_id": "ETABLISSEMENTS_POLLUEURS.598705", "identifiant": "0003900272", "idetab": "598705", "nom": "PROLOGIS FRANCE LXXXVIII EURL", "codeape": "4110A", "cp": "76430" }, "geometry": { "type": "Point", "coordinates": [ 0.32984, 49.474 ] } },
{ "type": "Feature", "properties": { "gml_id": "ETABLISSEMENTS_POLLUEURS.596720", "identifiant": "0003900599", "idetab": "596720", "nom": "CA CAUX SEINE AGGLO", "codeape": "8411Z", "cp": "76330" }, "geometry": { "type": "Point", "coordinates": [ 0.58315, 49.48185 ] } },
{ "type": "Feature", "properties": { "gml_id": "ETABLISSEMENTS_POLLUEURS.4282", "identifiant": "0005800491", "idetab": "4282", "nom": "TMN SURFACE", "codeape": "2561Z", "cp": "76330" }, "geometry": { "type": "Point", "coordinates": [ 0.57468, 49.48249 ] } },
{ "type": "Feature", "properties": { "gml_id": "ETABLISSEMENTS_POLLUEURS.1135", "identifiant": "0005801560", "idetab": "1135", "nom": "STIG", "codeape": "741J", "cp": "76330" }, "geometry": { "type": "Point", "coordinates": [ 0.564125, 49.48823 ] } },
{ "type": "Feature", "properties": { "gml_id": "ETABLISSEMENTS_POLLUEURS.977", "identifiant": "0005800326", "idetab": "977", "nom": "SOCABU", "codeape": "241N", "cp": "76330" }, "geometry": { "type": "Point", "coordinates": [ 0.564125, 49.48823 ] } },
{ "type": "Feature", "properties": { "gml_id": "ETABLISSEMENTS_POLLUEURS.1015", "identifiant": "0005800427", "idetab": "1015", "nom": "PRIMAGAZ (RELAIS VRAC PRIMAGAZ PORT JÉRÔME)", "codeape": "515A", "cp": "76330" }, "geometry": { "type": "Point", "coordinates": [ 0.564125, 49.48823 ] } },
{ "type": "Feature", "properties": { "gml_id": "ETABLISSEMENTS_POLLUEURS.4287", "identifiant": "0005800519", "idetab": "4287", "nom": "EXXONMOBIL POLYMERES", "codeape": "241L", "cp": "76330" }, "geometry": { "type": "Point", "coordinates": [ 0.564125, 49.48823 ] } },
{ "type": "Feature", "properties": { "gml_id": "ETABLISSEMENTS_POLLUEURS.990", "identifiant": "0005800356", "idetab": "990", "nom": "TOTAL PETROCHEMICALS FRANCE NOTRE DAME DE GRAVENCHON", "codeape": "2014Z", "cp": "76330" }, "geometry": { "type": "Point", "coordinates": [ 0.564125, 49.48823 ] } },
{ "type": "Feature", "properties": { "gml_id": "ETABLISSEMENTS_POLLUEURS.985", "identifiant": "0005800348", "idetab": "985", "nom": "EXXONMOBIL CHEMICAL FRANCE", "codeape": "2014Z", "cp": "76330" }, "geometry": { "type": "Point", "coordinates": [ 0.56521, 49.48838 ] } },
{ "type": "Feature", "properties": { "gml_id": "ETABLISSEMENTS_POLLUEURS.4267", "identifiant": "0005800349", "idetab": "4267", "nom": "ESSO RAFFINAGE", "codeape": "1920Z", "cp": "76330" }, "geometry": { "type": "Point", "coordinates": [ 0.56521, 49.48838 ] } },
{ "type": "Feature", "properties": { "gml_id": "ETABLISSEMENTS_POLLUEURS.6450", "identifiant": "0005800677", "idetab": "6450", "nom": "LAVAOUEST", "codeape": "8121Z", "cp": "76170" }, "geometry": { "type": "Point", "coordinates": [ 0.52521, 49.48913 ] } },
{ "type": "Feature", "properties": { "gml_id": "ETABLISSEMENTS_POLLUEURS.591432", "identifiant": "0005800678", "idetab": "591432", "nom": "GCA LOGISTICS LE HAVRE", "codeape": "5210B", "cp": "76170" }, "geometry": { "type": "Point", "coordinates": [ 0.52521, 49.48913 ] } },
{ "type": "Feature", "properties": { "gml_id": "ETABLISSEMENTS_POLLUEURS.591433", "identifiant": "0005801111", "idetab": "591433", "nom": "DELISLE SAS", "codeape": "7010Z", "cp": "76170" }, "geometry": { "type": "Point", "coordinates": [ 0.5231, 49.49 ] } },
{ "type": "Feature", "properties": { "gml_id": "ETABLISSEMENTS_POLLUEURS.588654", "identifiant": "0005800256", "idetab": "588654", "nom": "LAFARGE GRANULATS", "codeape": "0812Z", "cp": "76430" }, "geometry": { "type": "Point", "coordinates": [ 0.337136, 49.491287 ] } },
{ "type": "Feature", "properties": { "gml_id": "ETABLISSEMENTS_POLLUEURS.599211", "identifiant": "0003901662", "idetab": "599211", "nom": "CENTRALE BIOMETHANE CAUX VALLEE DE SEINE", "codeape": "3511Z", "cp": "76170" }, "geometry": { "type": "Point", "coordinates": [ 0.4865, 49.49131 ] } },
{ "type": "Feature", "properties": { "gml_id": "ETABLISSEMENTS_POLLUEURS.8507", "identifiant": "0005800498", "idetab": "8507", "nom": "SOCIETE DE PROPRETE ET D'ENVIRONNEMENT DE NORMANDIE", "codeape": "3821Z", "cp": "76430" }, "geometry": { "type": "Point", "coordinates": [ 0.36424, 49.49314 ] } },
{ "type": "Feature", "properties": { "gml_id": "ETABLISSEMENTS_POLLUEURS.1016", "identifiant": "0005800433", "idetab": "1016", "nom": "LAFARGE CIMENTS", "codeape": "2351Z", "cp": "76430" }, "geometry": { "type": "Point", "coordinates": [ 0.38124, 49.49848 ] } },
{ "type": "Feature", "properties": { "gml_id": "ETABLISSEMENTS_POLLUEURS.1003", "identifiant": "0005800387", "idetab": "1003", "nom": "COMPAGNIE FRANCAISE ECO HUILE", "codeape": "3822Z", "cp": "76170" }, "geometry": { "type": "Point", "coordinates": [ 0.53694, 49.50341 ] } },
{ "type": "Feature", "properties": { "gml_id": "ETABLISSEMENTS_POLLUEURS.4316", "identifiant": "0005801788", "idetab": "4316", "nom": "FICOBEL", "codeape": "3530Z", "cp": "76170" }, "geometry": { "type": "Point", "coordinates": [ 0.53694, 49.50341 ] } },
{ "type": "Feature", "properties": { "gml_id": "ETABLISSEMENTS_POLLUEURS.1068", "identifiant": "0005800635", "idetab": "1068", "nom": "ARLANXEO ELASTOMERES FRANCE SAS", "codeape": "2017Z", "cp": "76170" }, "geometry": { "type": "Point", "coordinates": [ 0.53694, 49.50341 ] } },
{ "type": "Feature", "properties": { "gml_id": "ETABLISSEMENTS_POLLUEURS.1013", "identifiant": "0005800420", "idetab": "1013", "nom": "ECOLOGIC PETROLEUM RECOVERY", "codeape": "3822Z", "cp": "76170" }, "geometry": { "type": "Point", "coordinates": [ 0.53694, 49.50341 ] } },
{ "type": "Feature", "properties": { "gml_id": "ETABLISSEMENTS_POLLUEURS.598013", "identifiant": "0005801931", "idetab": "598013", "nom": "PROLOGIS FRANCE XVII EURL", "codeape": "6820B", "cp": "76430" }, "geometry": { "type": "Point", "coordinates": [ 0.33527, 49.47348 ] } },
{ "type": "Feature", "properties": { "gml_id": "ETABLISSEMENTS_POLLUEURS.598015", "identifiant": "0005802028", "idetab": "598015", "nom": "PROLOGIS FRANCE XIX EURL", "codeape": "6810Z", "cp": "76430" }, "geometry": { "type": "Point", "coordinates": [ 0.33523, 49.47349 ] } },
{ "type": "Feature", "properties": { "gml_id": "ETABLISSEMENTS_POLLUEURS.7862", "identifiant": "0005802180", "idetab": "7862", "nom": "OREADE SAS", "codeape": "3821Z", "cp": "76170" }, "geometry": { "type": "Point", "coordinates": [ 0.46744, 49.48622 ] } },
{ "type": "Feature", "properties": { "gml_id": "ETABLISSEMENTS_POLLUEURS.10632", "identifiant": "0005802301", "idetab": "10632", "nom": "AIR LIQUIDE HYDROGENE", "codeape": "2011Z", "cp": "76330" }, "geometry": { "type": "Point", "coordinates": [ 0.56521, 49.48838 ] } },
{ "type": "Feature", "properties": { "gml_id": "ETABLISSEMENTS_POLLUEURS.592416", "identifiant": "0005802678", "idetab": "592416", "nom": "GCA LOGISTICS LE HAVRE", "codeape": "5229B", "cp": "76170" }, "geometry": { "type": "Point", "coordinates": [ 0.5432, 49.49693 ] } },
{ "type": "Feature", "properties": { "gml_id": "ETABLISSEMENTS_POLLUEURS.8958", "identifiant": "0005803187", "idetab": "8958", "nom": "TEREOS STARCH & SWEETENERS LBN", "codeape": "2014Z", "cp": "76170" }, "geometry": { "type": "Point", "coordinates": [ 0.52521, 49.48913 ] } },
{ "type": "Feature", "properties": { "gml_id": "ETABLISSEMENTS_POLLUEURS.598478", "identifiant": "0005803514", "idetab": "598478", "nom": "PROLOGIS FRANCE LXIX EURL", "codeape": "6820B", "cp": "76430" }, "geometry": { "type": "Point", "coordinates": [ 0.33907, 49.47541 ] } },
{ "type": "Feature", "properties": { "gml_id": "ETABLISSEMENTS_POLLUEURS.591436", "identifiant": "0005803721", "idetab": "591436", "nom": "SENALIA UNION", "codeape": "5210B", "cp": "76170" }, "geometry": { "type": "Point", "coordinates": [ 0.52522, 49.48913 ] } },
{ "type": "Feature", "properties": { "gml_id": "ETABLISSEMENTS_POLLUEURS.11291", "identifiant": "0005803758", "idetab": "11291", "nom": "SDOMODE VALORISLE - PLATEFORME MULTIFILIÈRES DE MARTAINVILLE", "codeape": "3821Z", "cp": "27210" }, "geometry": { "type": "Point", "coordinates": [ 0.40573, 49.306405 ] } },
{ "type": "Feature", "properties": { "gml_id": "ETABLISSEMENTS_POLLUEURS.598016", "identifiant": "0005803908", "idetab": "598016", "nom": "PROLOGIS FRANCE LXXXIX EURL", "codeape": "6820B", "cp": "76430" }, "geometry": { "type": "Point", "coordinates": [ 0.3426, 49.46653 ] } },
{ "type": "Feature", "properties": { "gml_id": "ETABLISSEMENTS_POLLUEURS.11366", "identifiant": "0005803909", "idetab": "11366", "nom": "SCEA RENAULT LEBERQUER", "codeape": "0111Z", "cp": "76430" }, "geometry": { "type": "Point", "coordinates": [ 0.450153, 49.486995 ] } },
{ "type": "Feature", "properties": { "gml_id": "ETABLISSEMENTS_POLLUEURS.589633", "identifiant": "0005804436", "idetab": "589633", "nom": "BEUZEVILLE RECYCLAGE DEMOLITION METAUX", "codeape": "3832Z", "cp": "27210" }, "geometry": { "type": "Point", "coordinates": [ 0.35968, 49.34331 ] } },
{ "type": "Feature", "properties": { "gml_id": "ETABLISSEMENTS_POLLUEURS.589634", "identifiant": "0005804546", "idetab": "589634", "nom": "ETARES", "codeape": "3821Z", "cp": "76430" }, "geometry": { "type": "Point", "coordinates": [ 0.342598, 49.466533 ] } },
{ "type": "Feature", "properties": { "gml_id": "ETABLISSEMENTS_POLLUEURS.589635", "identifiant": "0005805802", "idetab": "589635", "nom": "LAVA LE HAVRE", "codeape": "8129B", "cp": "76430" }, "geometry": { "type": "Point", "coordinates": [ 0.36206, 49.4936 ] } },
{ "type": "Feature", "properties": { "gml_id": "ETABLISSEMENTS_POLLUEURS.11200", "identifiant": "0030100209", "idetab": "11200", "nom": "MULTI CHOC", "codeape": "3831Z", "cp": "27210" }, "geometry": { "type": "Point", "coordinates": [ 0.381373, 49.333665 ] } },
{ "type": "Feature", "properties": { "gml_id": "ETABLISSEMENTS_POLLUEURS.1018", "identifiant": "0005800435", "idetab": "1018", "nom": "COMPAGNIE INDUSTRIELLE MARITIME", "codeape": "5210B", "cp": "76058" }, "geometry": { "type": "Point", "coordinates": [ 0.09393, 49.51537 ] } },
{ "type": "Feature", "properties": { "gml_id": "ETABLISSEMENTS_POLLUEURS.7703", "identifiant": "0005301108", "idetab": "7703", "nom": "KALHYGE 2", "codeape": "9601A", "cp": "14800" }, "geometry": { "type": "Point", "coordinates": [ 0.09759, 49.340967 ] } },
{ "type": "Feature", "properties": { "gml_id": "ETABLISSEMENTS_POLLUEURS.6460", "identifiant": "0005801036", "idetab": "6460", "nom": "SIDEL BLOWING & SERVICES", "codeape": "2896Z", "cp": "76930" }, "geometry": { "type": "Point", "coordinates": [ 0.12338, 49.54349 ] } },
{ "type": "Feature", "properties": { "gml_id": "ETABLISSEMENTS_POLLUEURS.4262", "identifiant": "0005800301", "idetab": "4262", "nom": "MILLENNIUM INORGANIC CHEMICALS LE HAVRE", "codeape": "2012Z", "cp": "76600" }, "geometry": { "type": "Point", "coordinates": [ 0.12959, 49.500423 ] } },
{ "type": "Feature", "properties": { "gml_id": "ETABLISSEMENTS_POLLUEURS.597895", "identifiant": "0003901387", "idetab": "597895", "nom": "SIEMENS GAMESA RENEWABLE ENERGY S.A.S.", "codeape": "3320B", "cp": "76600" }, "geometry": { "type": "Point", "coordinates": [ 0.13511, 49.5052 ] } },
{ "type": "Feature", "properties": { "gml_id": "ETABLISSEMENTS_POLLUEURS.4273", "identifiant": "0005800388", "idetab": "4273", "nom": "SIEMENS ENERGY INDUSTRIAL TURBOMACHINERY LE HAVRE S.A.S.", "codeape": "2813Z", "cp": "76600" }, "geometry": { "type": "Point", "coordinates": [ 0.1397, 49.49464 ] } },
{ "type": "Feature", "properties": { "gml_id": "ETABLISSEMENTS_POLLUEURS.261", "identifiant": "0005300388", "idetab": "261", "nom": "DRESSER RAND SA.", "codeape": "291E", "cp": "76080" }, "geometry": { "type": "Point", "coordinates": [ 0.142351, 49.495939 ] } },
{ "type": "Feature", "properties": { "gml_id": "ETABLISSEMENTS_POLLUEURS.971", "identifiant": "0005800305", "idetab": "971", "nom": "TOURRES ET CIE VERRERIES DE GRAVILLE", "codeape": "2313Z", "cp": "76050" }, "geometry": { "type": "Point", "coordinates": [ 0.15597, 49.49561 ] } },
{ "type": "Feature", "properties": { "gml_id": "ETABLISSEMENTS_POLLUEURS.993", "identifiant": "0005800363", "idetab": "993", "nom": "SOC ETUDE REALIS POUR ENVIRON & PROCEDE", "codeape": "3822Z", "cp": "76067" }, "geometry": { "type": "Point", "coordinates": [ 0.15781, 49.48336 ] } },
{ "type": "Feature", "properties": { "gml_id": "ETABLISSEMENTS_POLLUEURS.4271", "identifiant": "0005800379", "idetab": "4271", "nom": "RESOCEANE", "codeape": "3530Z", "cp": "76610" }, "geometry": { "type": "Point", "coordinates": [ 0.17627, 49.51564 ] } },
{ "type": "Feature", "properties": { "gml_id": "ETABLISSEMENTS_POLLUEURS.590378", "identifiant": "0005800365", "idetab": "590378", "nom": "SOC ENTREPOSAGE PROD PETROLIER", "codeape": "5210B", "cp": "76600" }, "geometry": { "type": "Point", "coordinates": [ 0.18458, 49.49778 ] } },
{ "type": "Feature", "properties": { "gml_id": "ETABLISSEMENTS_POLLUEURS.7704", "identifiant": "0005301114", "idetab": "7704", "nom": "DIEUZY FRERES", "codeape": "9601A", "cp": "14130" }, "geometry": { "type": "Point", "coordinates": [ 0.184884, 49.350463 ] } },
{ "type": "Feature", "properties": { "gml_id": "ETABLISSEMENTS_POLLUEURS.10616", "identifiant": "0005800359", "idetab": "10616", "nom": "SOC HAVRAISE MANUTENTION PROD PETROLIERS", "codeape": "5210B", "cp": "76050" }, "geometry": { "type": "Point", "coordinates": [ 0.18541, 49.47971 ] } },
{ "type": "Feature", "properties": { "gml_id": "ETABLISSEMENTS_POLLUEURS.1017", "identifiant": "0005800434", "idetab": "1017", "nom": "COMPAGNIE INDUSTRIELLE MARITIME", "codeape": "5210B", "cp": "76280" }, "geometry": { "type": "Point", "coordinates": [ 0.191, 49.64106 ] } },
{ "type": "Feature", "properties": { "gml_id": "ETABLISSEMENTS_POLLUEURS.590313", "identifiant": "0005304634", "idetab": "590313", "nom": "TIPIAK PANIFICATION", "codeape": "1071A", "cp": "14130" }, "geometry": { "type": "Point", "coordinates": [ 0.19186, 49.28943 ] } },
{ "type": "Feature", "properties": { "gml_id": "ETABLISSEMENTS_POLLUEURS.8794", "identifiant": "0005301073", "idetab": "8794", "nom": "STATION AUTOMOBILE NORMANDE", "codeape": "4941A", "cp": "14130" }, "geometry": { "type": "Point", "coordinates": [ 0.19448, 49.29209 ] } },
{ "type": "Feature", "properties": { "gml_id": "ETABLISSEMENTS_POLLUEURS.991", "identifiant": "0005800357", "idetab": "991", "nom": "TOTALENERGIES PETROCHEMICALS FRANCE", "codeape": "2014Z", "cp": "76700" }, "geometry": { "type": "Point", "coordinates": [ 0.20609, 49.50488 ] } },
{ "type": "Feature", "properties": { "gml_id": "ETABLISSEMENTS_POLLUEURS.596749", "identifiant": "0003902135", "idetab": "596749", "nom": "LE HAVRE SEINE METROPOLE", "codeape": "3811Z", "cp": "76700" }, "geometry": { "type": "Point", "coordinates": [ 0.20724, 49.51894 ] } },
{ "type": "Feature", "properties": { "gml_id": "ETABLISSEMENTS_POLLUEURS.1127", "identifiant": "0005801435", "idetab": "1127", "nom": "GIRPI", "codeape": "2223Z", "cp": "76700" }, "geometry": { "type": "Point", "coordinates": [ 0.20343, 49.51784 ] } },
{ "type": "Feature", "properties": { "gml_id": "ETABLISSEMENTS_POLLUEURS.1151", "identifiant": "0005801839", "idetab": "1151", "nom": "COFFEX LE HAVRE", "codeape": "158P", "cp": "76600" }, "geometry": { "type": "Point", "coordinates": [ 0.12959, 49.500423 ] } },
{ "type": "Feature", "properties": { "gml_id": "ETABLISSEMENTS_POLLUEURS.6474", "identifiant": "0005801840", "idetab": "6474", "nom": "REVIVAL", "codeape": "3832Z", "cp": "76050" }, "geometry": { "type": "Point", "coordinates": [ 0.16099, 49.48467 ] } },
{ "type": "Feature", "properties": { "gml_id": "ETABLISSEMENTS_POLLUEURS.1153", "identifiant": "0005801843", "idetab": "1153", "nom": "SOCIETE DE DISTRIBUTION DE CHALEUR DU MONT-GAILLARD", "codeape": "3530Z", "cp": "76600" }, "geometry": { "type": "Point", "coordinates": [ 0.11425, 49.52577 ] } },
{ "type": "Feature", "properties": { "gml_id": "ETABLISSEMENTS_POLLUEURS.6476", "identifiant": "0005801869", "idetab": "6476", "nom": "SA DEMOLITION DU TILLEUL", "codeape": "4677Z", "cp": "76790" }, "geometry": { "type": "Point", "coordinates": [ 0.20259, 49.68149 ] } },
{ "type": "Feature", "properties": { "gml_id": "ETABLISSEMENTS_POLLUEURS.14051", "identifiant": "0005801870", "idetab": "14051", "nom": "GROUPE HOSPITALIER DU HAVRE", "codeape": "8610Z", "cp": "76290" }, "geometry": { "type": "Point", "coordinates": [ 0.184863, 49.525588 ] } },
{ "type": "Feature", "properties": { "gml_id": "ETABLISSEMENTS_POLLUEURS.6479", "identifiant": "0005801975", "idetab": "6479", "nom": "COPA SAS LMB", "codeape": "4511Z", "cp": "76620" }, "geometry": { "type": "Point", "coordinates": [ 0.086773, 49.528541 ] } },
{ "type": "Feature", "properties": { "gml_id": "ETABLISSEMENTS_POLLUEURS.8957", "identifiant": "0005802054", "idetab": "8957", "nom": "ETABLISSEMENTS LALAURIE", "codeape": "4511Z", "cp": "76290" }, "geometry": { "type": "Point", "coordinates": [ 0.174799, 49.554617 ] } },
{ "type": "Feature", "properties": { "gml_id": "ETABLISSEMENTS_POLLUEURS.12851", "identifiant": "0005802060", "idetab": "12851", "nom": "AUCHAN CARBURANT", "codeape": "4711F", "cp": "76600" }, "geometry": { "type": "Point", "coordinates": [ 0.135105, 49.505204 ] } },
{ "type": "Feature", "properties": { "gml_id": "ETABLISSEMENTS_POLLUEURS.7861", "identifiant": "0005802140", "idetab": "7861", "nom": "DEMOLITION AUTO 2000 (EX DURVILLE EVEN)", "codeape": "3832Z", "cp": "76620" }, "geometry": { "type": "Point", "coordinates": [ 0.12959, 49.500423 ] } },
{ "type": "Feature", "properties": { "gml_id": "ETABLISSEMENTS_POLLUEURS.4317", "identifiant": "0005802143", "idetab": "4317", "nom": "ELECTRICITE DE FRANCE", "codeape": "3511Z", "cp": "76067" }, "geometry": { "type": "Point", "coordinates": [ 0.14032, 49.4746 ] } },
{ "type": "Feature", "properties": { "gml_id": "ETABLISSEMENTS_POLLUEURS.14052", "identifiant": "0005802148", "idetab": "14052", "nom": "IPODEC NORMANDIE", "codeape": "3811Z", "cp": "76600" }, "geometry": { "type": "Point", "coordinates": [ 0.17716, 49.49294 ] } },
{ "type": "Feature", "properties": { "gml_id": "ETABLISSEMENTS_POLLUEURS.6483", "identifiant": "0005802388", "idetab": "6483", "nom": "ENVIE 2E", "codeape": "900B", "cp": "76600" }, "geometry": { "type": "Point", "coordinates": [ 0.12959, 49.500423 ] } },
{ "type": "Feature", "properties": { "gml_id": "ETABLISSEMENTS_POLLUEURS.587851", "identifiant": "0005802437", "idetab": "587851", "nom": "SDV LI", "codeape": "5229B", "cp": "76051" }, "geometry": { "type": "Point", "coordinates": [ 0.12959, 49.500423 ] } },
{ "type": "Feature", "properties": { "gml_id": "ETABLISSEMENTS_POLLUEURS.6489", "identifiant": "0005802709", "idetab": "6489", "nom": "MAHIEU MAINTENANCE", "codeape": "3312Z", "cp": "76600" }, "geometry": { "type": "Point", "coordinates": [ 0.1817, 49.49273 ] } },
{ "type": "Feature", "properties": { "gml_id": "ETABLISSEMENTS_POLLUEURS.11646", "identifiant": "0005803431", "idetab": "11646", "nom": "LACMIL", "codeape": "2562B", "cp": "76600" }, "geometry": { "type": "Point", "coordinates": [ 0.12959, 49.500423 ] } },
{ "type": "Feature", "properties": { "gml_id": "ETABLISSEMENTS_POLLUEURS.596493", "identifiant": "0005803441", "idetab": "596493", "nom": "LE HAVRE SEINE METROPOLE", "codeape": "3811Z", "cp": "76290" }, "geometry": { "type": "Point", "coordinates": [ 0.20141, 49.54359 ] } },
{ "type": "Feature", "properties": { "gml_id": "ETABLISSEMENTS_POLLUEURS.7865", "identifiant": "0005803443", "idetab": "7865", "nom": "ETS ROBERT HETTIER", "codeape": "3831Z", "cp": "76050" }, "geometry": { "type": "Point", "coordinates": [ 0.12957, 49.48415 ] } },
{ "type": "Feature", "properties": { "gml_id": "ETABLISSEMENTS_POLLUEURS.14053", "identifiant": "0005803694", "idetab": "14053", "nom": "ENVIE 2E LE HAVRE", "codeape": "3832Z", "cp": "76600" }, "geometry": { "type": "Point", "coordinates": [ 0.12959, 49.500423 ] } },
{ "type": "Feature", "properties": { "gml_id": "ETABLISSEMENTS_POLLUEURS.14054", "identifiant": "0005803728", "idetab": "14054", "nom": "LE HAVRE SEINE METROPOLE", "codeape": "3700Z", "cp": "76050" }, "geometry": { "type": "Point", "coordinates": [ 0.15041, 49.47836 ] } },
{ "type": "Feature", "properties": { "gml_id": "ETABLISSEMENTS_POLLUEURS.8960", "identifiant": "0005804078", "idetab": "8960", "nom": "COMPAGNIE INDUSTRIELLE MARITIME", "codeape": "5210B", "cp": "76050" }, "geometry": { "type": "Point", "coordinates": [ 0.09393, 49.51537 ] } },
{ "type": "Feature", "properties": { "gml_id": "ETABLISSEMENTS_POLLUEURS.589632", "identifiant": "0005804133", "idetab": "589632", "nom": "ESTENER", "codeape": "2059Z", "cp": "76600" }, "geometry": { "type": "Point", "coordinates": [ 0.194, 49.484 ] } },
{ "type": "Feature", "properties": { "gml_id": "ETABLISSEMENTS_POLLUEURS.596510", "identifiant": "0005804681", "idetab": "596510", "nom": "LE HAVRE SEINE METROPOLE", "codeape": "8411Z", "cp": "76310" }, "geometry": { "type": "Point", "coordinates": [ 0.080127, 49.511294 ] } },
{ "type": "Feature", "properties": { "gml_id": "ETABLISSEMENTS_POLLUEURS.596833", "identifiant": "0005804686", "idetab": "596833", "nom": "LE HAVRE SEINE METROPOLE", "codeape": "3811Z", "cp": "76600" }, "geometry": { "type": "Point", "coordinates": [ 0.16856, 49.49431 ] } },
{ "type": "Feature", "properties": { "gml_id": "ETABLISSEMENTS_POLLUEURS.596703", "identifiant": "0005804899", "idetab": "596703", "nom": "LE HAVRE SEINE METROPOLE", "codeape": "3811Z", "cp": "76930" }, "geometry": { "type": "Point", "coordinates": [ 0.12191, 49.54431 ] } },
{ "type": "Feature", "properties": { "gml_id": "ETABLISSEMENTS_POLLUEURS.596807", "identifiant": "0005805289", "idetab": "596807", "nom": "LE HAVRE SEINE METROPOLE", "codeape": "3811Z", "cp": "76620" }, "geometry": { "type": "Point", "coordinates": [ 0.10072, 49.52335 ] } },
{ "type": "Feature", "properties": { "gml_id": "ETABLISSEMENTS_POLLUEURS.588664", "identifiant": "0005805695", "idetab": "588664", "nom": "TOTALENERGIES ONETECH", "codeape": "7112B", "cp": "76700" }, "geometry": { "type": "Point", "coordinates": [ 0.20609, 49.50488 ] } },
{ "type": "Feature", "properties": { "gml_id": "ETABLISSEMENTS_POLLUEURS.598318", "identifiant": "0005806000", "idetab": "598318", "nom": "BIOSTEAM", "codeape": "4322B", "cp": "76700" }, "geometry": { "type": "Point", "coordinates": [ 0.20151, 49.48252 ] } },
{ "type": "Feature", "properties": { "gml_id": "ETABLISSEMENTS_POLLUEURS.13750", "identifiant": "0009000058", "idetab": "13750", "nom": "SNOI- PARC 1 DU HAVRE", "codeape": "4950Z", "cp": "76290" }, "geometry": { "type": "Point", "coordinates": [ 0.15375, 49.535902 ] } },
{ "type": "Feature", "properties": { "gml_id": "ETABLISSEMENTS_POLLUEURS.595128", "identifiant": "0009077601", "idetab": "595128", "nom": "LE HAVRE SEINE METROPOLE", "codeape": "3700Z", "cp": "76600" }, "geometry": { "type": "Point", "coordinates": [ 0.15264, 49.47845 ] } },
{ "type": "Feature", "properties": { "gml_id": "ETABLISSEMENTS_POLLUEURS.9447", "identifiant": "0071469901", "idetab": "9447", "nom": "STEP - TOUQUES", "codeape": "3700Z", "cp": "14800" }, "geometry": { "type": "Point", "coordinates": [ 0.102909, 49.344897 ] } },
{ "type": "Feature", "properties": { "gml_id": "ETABLISSEMENTS_POLLUEURS.9545", "identifiant": "0077635101", "idetab": "9545", "nom": "STEP EDELWEISS - LE HAVRE (CODE SANDRE 037635102000 - NOUVELLE STATION)", "codeape": "3700Z", "cp": "76600" }, "geometry": { "type": "Point", "coordinates": [ 0.153628, 49.478524 ] } },
{ "type": "Feature", "properties": { "gml_id": "ETABLISSEMENTS_POLLUEURS.590388", "identifiant": "0005805675", "idetab": "590388", "nom": "LIDL - DIRECTION RÉGIONALE DE HONGUEMARE-GUENOUVILLE", "codeape": "5210B", "cp": "27310" }, "geometry": { "type": "Point", "coordinates": [ 0.808626, 49.373268 ] } },
{ "type": "Feature", "properties": { "gml_id": "ETABLISSEMENTS_POLLUEURS.587855", "identifiant": "0005805033", "idetab": "587855", "nom": "AGRI-ENERGIE", "codeape": "3511Z", "cp": "27350" }, "geometry": { "type": "Point", "coordinates": [ 0.66239, 49.37495 ] } },
{ "type": "Feature", "properties": { "gml_id": "ETABLISSEMENTS_POLLUEURS.591820", "identifiant": "0005800454", "idetab": "591820", "nom": "CARRIERES ET BALLASTIERES DE NORMANDIE", "codeape": "0812Z", "cp": "76530" }, "geometry": { "type": "Point", "coordinates": [ 0.88588, 49.42047 ] } },
{ "type": "Feature", "properties": { "gml_id": "ETABLISSEMENTS_POLLUEURS.593443", "identifiant": "0005801394", "idetab": "593443", "nom": "CARRIERES ET BALLASTIERES DE NORMANDIE", "codeape": "0812Z", "cp": "76530" }, "geometry": { "type": "Point", "coordinates": [ 0.89739, 49.42371 ] } },
{ "type": "Feature", "properties": { "gml_id": "ETABLISSEMENTS_POLLUEURS.591431", "identifiant": "0005800285", "idetab": "591431", "nom": "CEMEX GRANULATS", "codeape": "0812Z", "cp": "76480" }, "geometry": { "type": "Point", "coordinates": [ 0.87354, 49.44845 ] } },
{ "type": "Feature", "properties": { "gml_id": "ETABLISSEMENTS_POLLUEURS.591832", "identifiant": "0005800126", "idetab": "591832", "nom": "CEMEX GRANULATS", "codeape": "6420Z", "cp": "76480" }, "geometry": { "type": "Point", "coordinates": [ 0.900058, 49.449446 ] } },
{ "type": "Feature", "properties": { "gml_id": "ETABLISSEMENTS_POLLUEURS.4313", "identifiant": "0005801521", "idetab": "4313", "nom": "ONDULINE FRANCE SAS", "codeape": "2399Z", "cp": "76480" }, "geometry": { "type": "Point", "coordinates": [ 0.822433, 49.456859 ] } },
{ "type": "Feature", "properties": { "gml_id": "ETABLISSEMENTS_POLLUEURS.1019", "identifiant": "0005800437", "idetab": "1019", "nom": "ORFEVRERIE CHRISTOFLE", "codeape": "3212Z", "cp": "76480" }, "geometry": { "type": "Point", "coordinates": [ 0.83413, 49.45982 ] } },
{ "type": "Feature", "properties": { "gml_id": "ETABLISSEMENTS_POLLUEURS.972", "identifiant": "0005800310", "idetab": "972", "nom": "SUEZ RV NORVAL", "codeape": "3832Z", "cp": "76480" }, "geometry": { "type": "Point", "coordinates": [ 0.90051, 49.46807 ] } },
{ "type": "Feature", "properties": { "gml_id": "ETABLISSEMENTS_POLLUEURS.588652", "identifiant": "0005800155", "idetab": "588652", "nom": "CEMEX GRANULATS", "codeape": "0812Z", "cp": "76480" }, "geometry": { "type": "Point", "coordinates": [ 0.88147, 49.46994 ] } },
{ "type": "Feature", "properties": { "gml_id": "ETABLISSEMENTS_POLLUEURS.588661", "identifiant": "0005805448", "idetab": "588661", "nom": "CEMEX GRANULATS", "codeape": "0812Z", "cp": "76940" }, "geometry": { "type": "Point", "coordinates": [ 0.69721, 49.47087 ] } },
{ "type": "Feature", "properties": { "gml_id": "ETABLISSEMENTS_POLLUEURS.1091", "identifiant": "0005801011", "idetab": "1091", "nom": "N.S.F.", "codeape": "245A", "cp": "76480" }, "geometry": { "type": "Point", "coordinates": [ 0.873841, 49.481532 ] } },
{ "type": "Feature", "properties": { "gml_id": "ETABLISSEMENTS_POLLUEURS.10625", "identifiant": "0005801329", "idetab": "10625", "nom": "FLEXI FRANCE", "codeape": "2599B", "cp": "76580" }, "geometry": { "type": "Point", "coordinates": [ 0.80302, 49.48209 ] } },
{ "type": "Feature", "properties": { "gml_id": "ETABLISSEMENTS_POLLUEURS.1113", "identifiant": "0005801257", "idetab": "1113", "nom": "BEMIS LE TRAIT SAS", "codeape": "2221Z", "cp": "76580" }, "geometry": { "type": "Point", "coordinates": [ 0.798286, 49.483134 ] } },
{ "type": "Feature", "properties": { "gml_id": "ETABLISSEMENTS_POLLUEURS.10627", "identifiant": "0005801443", "idetab": "10627", "nom": "SANOFI WINTHROP INDUSTRIE", "codeape": "2120Z", "cp": "76580" }, "geometry": { "type": "Point", "coordinates": [ 0.79581, 49.48423 ] } },
{ "type": "Feature", "properties": { "gml_id": "ETABLISSEMENTS_POLLUEURS.11647", "identifiant": "0005803505", "idetab": "11647", "nom": "VALNOR VATTEVILLE", "codeape": "3821Z", "cp": "76940" }, "geometry": { "type": "Point", "coordinates": [ 0.687078, 49.489408 ] } },
{ "type": "Feature", "properties": { "gml_id": "ETABLISSEMENTS_POLLUEURS.1123", "identifiant": "0005801373", "idetab": "1123", "nom": "KNAUF INDUSTRIES NORD", "codeape": "2222Z", "cp": "76480" }, "geometry": { "type": "Point", "coordinates": [ 0.892471, 49.497334 ] } },
{ "type": "Feature", "properties": { "gml_id": "ETABLISSEMENTS_POLLUEURS.11638", "identifiant": "0005801402", "idetab": "11638", "nom": "LEFEBVRE ET FILS SARL", "codeape": "3832Z", "cp": "76480" }, "geometry": { "type": "Point", "coordinates": [ 0.81044, 49.5082 ] } },
{ "type": "Feature", "properties": { "gml_id": "ETABLISSEMENTS_POLLUEURS.1009", "identifiant": "0005800413", "idetab": "1009", "nom": "REVIMA", "codeape": "3316Z", "cp": "76490" }, "geometry": { "type": "Point", "coordinates": [ 0.74872, 49.5229 ] } },
{ "type": "Feature", "properties": { "gml_id": "ETABLISSEMENTS_POLLUEURS.1124", "identifiant": "0005801405", "idetab": "1124", "nom": "COLLET SAS", "codeape": "2059Z", "cp": "76490" }, "geometry": { "type": "Point", "coordinates": [ 0.728914, 49.525172 ] } },
{ "type": "Feature", "properties": { "gml_id": "ETABLISSEMENTS_POLLUEURS.4320", "identifiant": "0005802925", "idetab": "4320", "nom": "REVIMA APU", "codeape": "3316Z", "cp": "76490" }, "geometry": { "type": "Point", "coordinates": [ 0.728914, 49.525172 ] } },
{ "type": "Feature", "properties": { "gml_id": "ETABLISSEMENTS_POLLUEURS.10624", "identifiant": "0005801240", "idetab": "10624", "nom": "LINEX PANNEAUX", "codeape": "1621Z", "cp": "76190" }, "geometry": { "type": "Point", "coordinates": [ 0.67509, 49.57893 ] } },
{ "type": "Feature", "properties": { "gml_id": "ETABLISSEMENTS_POLLUEURS.4314", "identifiant": "0005801522", "idetab": "4314", "nom": "LINEX PANNEAUX", "codeape": "1621Z", "cp": "76190" }, "geometry": { "type": "Point", "coordinates": [ 0.75274, 49.619013 ] } },
{ "type": "Feature", "properties": { "gml_id": "ETABLISSEMENTS_POLLUEURS.10631", "identifiant": "0005801810", "idetab": "10631", "nom": "ETS SILLIARD ERIC", "codeape": "4511Z", "cp": "76190" }, "geometry": { "type": "Point", "coordinates": [ 0.74134, 49.62206 ] } },
{ "type": "Feature", "properties": { "gml_id": "ETABLISSEMENTS_POLLUEURS.598496", "identifiant": "0003901673", "idetab": "598496", "nom": "E'CAUX BIOGAZ", "codeape": "3521Z", "cp": "76640" }, "geometry": { "type": "Point", "coordinates": [ 0.61791, 49.62326 ] } },
{ "type": "Feature", "properties": { "gml_id": "ETABLISSEMENTS_POLLUEURS.599245", "identifiant": "0003902112", "idetab": "599245", "nom": "DM ET RECYCLAGES", "codeape": "4531Z", "cp": "76970" }, "geometry": { "type": "Point", "coordinates": [ 0.84741, 49.63781 ] } },
{ "type": "Feature", "properties": { "gml_id": "ETABLISSEMENTS_POLLUEURS.12269", "identifiant": "0005802199", "idetab": "12269", "nom": "BRUNO PIECES DETACHEES", "codeape": "4511Z", "cp": "76970" }, "geometry": { "type": "Point", "coordinates": [ 0.853835, 49.638062 ] } },
{ "type": "Feature", "properties": { "gml_id": "ETABLISSEMENTS_POLLUEURS.596670", "identifiant": "0005803158", "idetab": "596670", "nom": "CA CAUX SEINE AGGLO", "codeape": "8411Z", "cp": "76640" }, "geometry": { "type": "Point", "coordinates": [ 0.60065, 49.65162 ] } },
{ "type": "Feature", "properties": { "gml_id": "ETABLISSEMENTS_POLLUEURS.1108", "identifiant": "0005801224", "idetab": "1108", "nom": "PRESTIA GALVA CAUX", "codeape": "2561Z", "cp": "76760" }, "geometry": { "type": "Point", "coordinates": [ 0.87598, 49.66043 ] } },
{ "type": "Feature", "properties": { "gml_id": "ETABLISSEMENTS_POLLUEURS.1119", "identifiant": "0005801323", "idetab": "1119", "nom": "BAUDELET NORMANDIE", "codeape": "3832Z", "cp": "76970" }, "geometry": { "type": "Point", "coordinates": [ 0.8271, 49.6699 ] } },
{ "type": "Feature", "properties": { "gml_id": "ETABLISSEMENTS_POLLUEURS.594893", "identifiant": "0005802024", "idetab": "594893", "nom": "LEPICARD AGRICULTURE", "codeape": "4621Z", "cp": "76760" }, "geometry": { "type": "Point", "coordinates": [ 0.90041, 49.67008 ] } },
{ "type": "Feature", "properties": { "gml_id": "ETABLISSEMENTS_POLLUEURS.8517", "identifiant": "0005803236", "idetab": "8517", "nom": "BIOTERO", "codeape": "0891Z", "cp": "76760" }, "geometry": { "type": "Point", "coordinates": [ 0.847504, 49.686749 ] } },
{ "type": "Feature", "properties": { "gml_id": "ETABLISSEMENTS_POLLUEURS.590389", "identifiant": "0005805687", "idetab": "590389", "nom": "SARL MARELLE", "codeape": "4311Z", "cp": "76640" }, "geometry": { "type": "Point", "coordinates": [ 0.645002, 49.620796 ] } },
{ "type": "Feature", "properties": { "gml_id": "ETABLISSEMENTS_POLLUEURS.591930", "identifiant": "0005805710", "idetab": "591930", "nom": "COLLET", "codeape": "2059Z", "cp": "76490" }, "geometry": { "type": "Point", "coordinates": [ 0.75452, 49.54023 ] } },
{ "type": "Feature", "properties": { "gml_id": "ETABLISSEMENTS_POLLUEURS.591170", "identifiant": "0057600149", "idetab": "591170", "nom": "SCEA CAUX PORCS", "codeape": "0146Z", "cp": "76640" }, "geometry": { "type": "Point", "coordinates": [ 0.62629, 49.64869 ] } },
{ "type": "Feature", "properties": { "gml_id": "ETABLISSEMENTS_POLLUEURS.591171", "identifiant": "0057600151", "idetab": "591171", "nom": "SCEA GENE CAUX", "codeape": "0146Z", "cp": "76640" }, "geometry": { "type": "Point", "coordinates": [ 0.62497, 49.64873 ] } },
{ "type": "Feature", "properties": { "gml_id": "ETABLISSEMENTS_POLLUEURS.591173", "identifiant": "0057600352", "idetab": "591173", "nom": "SCEA DU MONT AU ROUX", "codeape": "0146Z", "cp": "76640" }, "geometry": { "type": "Point", "coordinates": [ 0.63512, 49.62377 ] } },
{ "type": "Feature", "properties": { "gml_id": "ETABLISSEMENTS_POLLUEURS.591179", "identifiant": "0057601510", "idetab": "591179", "nom": "GAEC DES POILS DE SOIE", "codeape": "0146Z", "cp": "76760" }, "geometry": { "type": "Point", "coordinates": [ 0.88852, 49.63236 ] } },
{ "type": "Feature", "properties": { "gml_id": "ETABLISSEMENTS_POLLUEURS.12658", "identifiant": "76080070", "idetab": "12658", "nom": "SCEA CAUX PORC", "codeape": "0146Z", "cp": "76640" }, "geometry": { "type": "Point", "coordinates": [ 0.639362, 49.648039 ] } },
{ "type": "Feature", "properties": { "gml_id": "ETABLISSEMENTS_POLLUEURS.5933", "identifiant": "76080130", "idetab": "5933", "nom": "SCEA GENE CAUX", "codeape": "0146Z", "cp": "76640" }, "geometry": { "type": "Point", "coordinates": [ 0.639362, 49.648039 ] } },
{ "type": "Feature", "properties": { "gml_id": "ETABLISSEMENTS_POLLUEURS.5935", "identifiant": "76181040", "idetab": "5935", "nom": "SCEA DU MONT AUX ROUX", "codeape": "0111Z", "cp": "76640" }, "geometry": { "type": "Point", "coordinates": [ 0.619225, 49.629789 ] } },
{ "type": "Feature", "properties": { "gml_id": "ETABLISSEMENTS_POLLUEURS.594802", "identifiant": "0003900470", "idetab": "594802", "nom": "ISB FRANCE", "codeape": "1610A", "cp": "14600" }, "geometry": { "type": "Point", "coordinates": [ 0.25253, 49.41328 ] } },
{ "type": "Feature", "properties": { "gml_id": "ETABLISSEMENTS_POLLUEURS.590306", "identifiant": "0005300822", "idetab": "590306", "nom": "ISB FRANCE", "codeape": "1610A", "cp": "14600" }, "geometry": { "type": "Point", "coordinates": [ 0.24966, 49.41449 ] } },
{ "type": "Feature", "properties": { "gml_id": "ETABLISSEMENTS_POLLUEURS.6295", "identifiant": "0005302900", "idetab": "6295", "nom": "BURONOMIC", "codeape": "3101Z", "cp": "14603" }, "geometry": { "type": "Point", "coordinates": [ 0.232067, 49.41902 ] } },
{ "type": "Feature", "properties": { "gml_id": "ETABLISSEMENTS_POLLUEURS.7697", "identifiant": "0005300818", "idetab": "7697", "nom": "BTT", "codeape": "5210B", "cp": "14600" }, "geometry": { "type": "Point", "coordinates": [ 0.232067, 49.41902 ] } },
{ "type": "Feature", "properties": { "gml_id": "ETABLISSEMENTS_POLLUEURS.6243", "identifiant": "0005300806", "idetab": "6243", "nom": "ARKEMA FRANCE", "codeape": "2013B", "cp": "14600" }, "geometry": { "type": "Point", "coordinates": [ 0.25263, 49.42252 ] } },
{ "type": "Feature", "properties": { "gml_id": "ETABLISSEMENTS_POLLUEURS.596567", "identifiant": "0005305624", "idetab": "596567", "nom": "COLLECTES VALORISATION ENERGIE DECHETS - COVED", "codeape": "3811Z", "cp": "14600" }, "geometry": { "type": "Point", "coordinates": [ 0.25999, 49.42268 ] } },
{ "type": "Feature", "properties": { "gml_id": "ETABLISSEMENTS_POLLUEURS.1152", "identifiant": "0005801842", "idetab": "1152", "nom": "ETARES ENVIRONNEMENT", "codeape": "3821Z", "cp": "76700" }, "geometry": { "type": "Point", "coordinates": [ 0.243304, 49.458827 ] } },
{ "type": "Feature", "properties": { "gml_id": "ETABLISSEMENTS_POLLUEURS.7864", "identifiant": "0005802816", "idetab": "7864", "nom": "ARD SCRAP SHREDDING SOLUTIONS", "codeape": "3832Z", "cp": "76700" }, "geometry": { "type": "Point", "coordinates": [ 0.247247, 49.465329 ] } },
{ "type": "Feature", "properties": { "gml_id": "ETABLISSEMENTS_POLLUEURS.10636", "identifiant": "0005803383", "idetab": "10636", "nom": "DRESSER RAND", "codeape": "2813Z", "cp": "76700" }, "geometry": { "type": "Point", "coordinates": [ 0.260335, 49.471148 ] } },
{ "type": "Feature", "properties": { "gml_id": "ETABLISSEMENTS_POLLUEURS.598534", "identifiant": "0003900059", "idetab": "598534", "nom": "AMUNDI", "codeape": "6430Z", "cp": "76430" }, "geometry": { "type": "Point", "coordinates": [ 0.27492, 49.47238 ] } },
{ "type": "Feature", "properties": { "gml_id": "ETABLISSEMENTS_POLLUEURS.590385", "identifiant": "0005801092", "idetab": "590385", "nom": "ARROW LE HAVRE II", "codeape": "6820B", "cp": "76700" }, "geometry": { "type": "Point", "coordinates": [ 0.261291, 49.474956 ] } },
{ "type": "Feature", "properties": { "gml_id": "ETABLISSEMENTS_POLLUEURS.1032", "identifiant": "0005800485", "idetab": "1032", "nom": "ATMN", "codeape": "2814Z", "cp": "76430" }, "geometry": { "type": "Point", "coordinates": [ 0.323225, 49.477689 ] } },
{ "type": "Feature", "properties": { "gml_id": "ETABLISSEMENTS_POLLUEURS.14055", "identifiant": "0005804239", "idetab": "14055", "nom": "OSILUB", "codeape": "1920Z", "cp": "76700" }, "geometry": { "type": "Point", "coordinates": [ 0.24476, 49.47791 ] } },
{ "type": "Feature", "properties": { "gml_id": "ETABLISSEMENTS_POLLUEURS.1100", "identifiant": "0005801086", "idetab": "1100", "nom": "TANK SOLUTIONS NORMANDIE", "codeape": "8129B", "cp": "76430" }, "geometry": { "type": "Point", "coordinates": [ 0.30106, 49.47889 ] } },
{ "type": "Feature", "properties": { "gml_id": "ETABLISSEMENTS_POLLUEURS.10617", "identifiant": "0005800600", "idetab": "10617", "nom": "DISTILLERIE HAUGUEL SA", "codeape": "2014Z", "cp": "76700" }, "geometry": { "type": "Point", "coordinates": [ 0.22186, 49.4853 ] } },
{ "type": "Feature", "properties": { "gml_id": "ETABLISSEMENTS_POLLUEURS.4276", "identifiant": "0005800409", "idetab": "4276", "nom": "RENAULT SANDOUVILLE", "codeape": "2910Z", "cp": "76430" }, "geometry": { "type": "Point", "coordinates": [ 0.30705, 49.49162 ] } },
{ "type": "Feature", "properties": { "gml_id": "ETABLISSEMENTS_POLLUEURS.973", "identifiant": "0005800316", "idetab": "973", "nom": "AIR LIQUIDE FRANCE INDUSTRIE", "codeape": "2011Z", "cp": "76430" }, "geometry": { "type": "Point", "coordinates": [ 0.28937, 49.49206 ] } },
{ "type": "Feature", "properties": { "gml_id": "ETABLISSEMENTS_POLLUEURS.4270", "identifiant": "0005800377", "idetab": "4270", "nom": "SOCIETE NATIONALE D'EXPLOITATION INDUSTRIELLE DES TABACS ET ALLUMETTES", "codeape": "1200Z", "cp": "76430" }, "geometry": { "type": "Point", "coordinates": [ 0.28937, 49.49206 ] } },
{ "type": "Feature", "properties": { "gml_id": "ETABLISSEMENTS_POLLUEURS.986", "identifiant": "0005800350", "idetab": "986", "nom": "SIBANYE-STILLWATER SANDOUVILLE REFINERY", "codeape": "2445Z", "cp": "76430" }, "geometry": { "type": "Point", "coordinates": [ 0.30594, 49.49312 ] } },
{ "type": "Feature", "properties": { "gml_id": "ETABLISSEMENTS_POLLUEURS.1103", "identifiant": "0005801173", "idetab": "1103", "nom": "SYNTHOMER SPECIALITY CHEMICALS SAS", "codeape": "2017Z", "cp": "76430" }, "geometry": { "type": "Point", "coordinates": [ 0.31388, 49.49563 ] } },
{ "type": "Feature", "properties": { "gml_id": "ETABLISSEMENTS_POLLUEURS.6462", "identifiant": "0005801088", "idetab": "6462", "nom": "SANINORD", "codeape": "3700Z", "cp": "76430" }, "geometry": { "type": "Point", "coordinates": [ 0.315173, 49.497081 ] } },
{ "type": "Feature", "properties": { "gml_id": "ETABLISSEMENTS_POLLUEURS.12261", "identifiant": "0005800557", "idetab": "12261", "nom": "COMPTOIR DE RÉCUPÉRATION INDUSTRIELLE", "codeape": "3832Z", "cp": "76430" }, "geometry": { "type": "Point", "coordinates": [ 0.315173, 49.497081 ] } },
{ "type": "Feature", "properties": { "gml_id": "ETABLISSEMENTS_POLLUEURS.998", "identifiant": "0005800378", "idetab": "998", "nom": "SEDIBEX", "codeape": "3822Z", "cp": "76430" }, "geometry": { "type": "Point", "coordinates": [ 0.31926, 49.49827 ] } },
{ "type": "Feature", "properties": { "gml_id": "ETABLISSEMENTS_POLLUEURS.590384", "identifiant": "0005801084", "idetab": "590384", "nom": "ARROW LE HAVRE I", "codeape": "6810Z", "cp": "76700" }, "geometry": { "type": "Point", "coordinates": [ 0.26323, 49.50173 ] } },
{ "type": "Feature", "properties": { "gml_id": "ETABLISSEMENTS_POLLUEURS.12850", "identifiant": "0005802027", "idetab": "12850", "nom": "CHIMIREC-VALRECOISE", "codeape": "3812Z", "cp": "76700" }, "geometry": { "type": "Point", "coordinates": [ 0.22068, 49.50218 ] } },
{ "type": "Feature", "properties": { "gml_id": "ETABLISSEMENTS_POLLUEURS.1020", "identifiant": "0005800439", "idetab": "1020", "nom": "CHEVRON ORONITE SAS", "codeape": "2059Z", "cp": "76700" }, "geometry": { "type": "Point", "coordinates": [ 0.22068, 49.50218 ] } },
{ "type": "Feature", "properties": { "gml_id": "ETABLISSEMENTS_POLLUEURS.1058", "identifiant": "0005800597", "idetab": "1058", "nom": "SAFRAN NACELLES", "codeape": "3030Z", "cp": "76700" }, "geometry": { "type": "Point", "coordinates": [ 0.22068, 49.50218 ] } },
{ "type": "Feature", "properties": { "gml_id": "ETABLISSEMENTS_POLLUEURS.974", "identifiant": "0005800317", "idetab": "974", "nom": "CHANE TERMINAL LE HAVRE", "codeape": "5210B", "cp": "76700" }, "geometry": { "type": "Point", "coordinates": [ 0.21901, 49.50292 ] } },
{ "type": "Feature", "properties": { "gml_id": "ETABLISSEMENTS_POLLUEURS.7859", "identifiant": "0005801721", "idetab": "7859", "nom": "NORMANPLAST", "codeape": "2222Z", "cp": "76700" }, "geometry": { "type": "Point", "coordinates": [ 0.20845, 49.50332 ] } },
{ "type": "Feature", "properties": { "gml_id": "ETABLISSEMENTS_POLLUEURS.1041", "identifiant": "0005800532", "idetab": "1041", "nom": "EXTRACT-ION", "codeape": "246L", "cp": "76700" }, "geometry": { "type": "Point", "coordinates": [ 0.27003, 49.503343 ] } },
{ "type": "Feature", "properties": { "gml_id": "ETABLISSEMENTS_POLLUEURS.1034", "identifiant": "0005800492", "idetab": "1034", "nom": "CITRON SA", "codeape": "3822Z", "cp": "76700" }, "geometry": { "type": "Point", "coordinates": [ 0.27003, 49.503343 ] } },
{ "type": "Feature", "properties": { "gml_id": "ETABLISSEMENTS_POLLUEURS.969", "identifiant": "0005800299", "idetab": "969", "nom": "TOTALENERGIES FLUIDS", "codeape": "1920Z", "cp": "76430" }, "geometry": { "type": "Point", "coordinates": [ 0.29897, 49.5047 ] } },
{ "type": "Feature", "properties": { "gml_id": "ETABLISSEMENTS_POLLUEURS.1053", "identifiant": "0005800575", "idetab": "1053", "nom": "LUBRIZOL FRANCE", "codeape": "2059Z", "cp": "76430" }, "geometry": { "type": "Point", "coordinates": [ 0.29897, 49.5047 ] } },
{ "type": "Feature", "properties": { "gml_id": "ETABLISSEMENTS_POLLUEURS.980", "identifiant": "0005800331", "idetab": "980", "nom": "YARA FRANCE", "codeape": "2015Z", "cp": "76700" }, "geometry": { "type": "Point", "coordinates": [ 0.20993, 49.50521 ] } },
{ "type": "Feature", "properties": { "gml_id": "ETABLISSEMENTS_POLLUEURS.597879", "identifiant": "0100002017", "idetab": "597879", "nom": "AIR LIQUIDE FRANCE INDUSTRIE", "codeape": "2011Z", "cp": "76700" }, "geometry": { "type": "Point", "coordinates": [ 0.22825, 49.49294 ] } },
{ "type": "Feature", "properties": { "gml_id": "ETABLISSEMENTS_POLLUEURS.7852", "identifiant": "0005801215", "idetab": "7852", "nom": "MILLENNIUM INORGANIC CHEMICALS LE HAVRE SAS", "codeape": "2012Z", "cp": "76430" }, "geometry": { "type": "Point", "coordinates": [ 0.39274, 49.51183 ] } },
{ "type": "Feature", "properties": { "gml_id": "ETABLISSEMENTS_POLLUEURS.588658", "identifiant": "0005801559", "idetab": "588658", "nom": "NORMANDIE ENROBES", "codeape": "2399Z", "cp": "76170" }, "geometry": { "type": "Point", "coordinates": [ 0.532097, 49.515705 ] } },
{ "type": "Feature", "properties": { "gml_id": "ETABLISSEMENTS_POLLUEURS.976", "identifiant": "0005800323", "idetab": "976", "nom": "SODES - USINE DE LILLEBONNE", "codeape": "2014Z", "cp": "76170" }, "geometry": { "type": "Point", "coordinates": [ 0.532097, 49.515705 ] } },
{ "type": "Feature", "properties": { "gml_id": "ETABLISSEMENTS_POLLUEURS.14049", "identifiant": "0005801034", "idetab": "14049", "nom": "EGNO CHIMIE", "codeape": "2014Z", "cp": "76170" }, "geometry": { "type": "Point", "coordinates": [ 0.500877, 49.522817 ] } },
{ "type": "Feature", "properties": { "gml_id": "ETABLISSEMENTS_POLLUEURS.12842", "identifiant": "0005801160", "idetab": "12842", "nom": "DEMOLITION AUTOMOBILES DU FOUR A CHAUX", "codeape": "4677Z", "cp": "76592" }, "geometry": { "type": "Point", "coordinates": [ 0.500877, 49.522817 ] } },
{ "type": "Feature", "properties": { "gml_id": "ETABLISSEMENTS_POLLUEURS.4305", "identifiant": "0005801243", "idetab": "4305", "nom": "ECOSTU'AIR", "codeape": "900B", "cp": "76170" }, "geometry": { "type": "Point", "coordinates": [ 0.500877, 49.522817 ] } },
{ "type": "Feature", "properties": { "gml_id": "ETABLISSEMENTS_POLLUEURS.596680", "identifiant": "0003900138", "idetab": "596680", "nom": "LE HAVRE SEINE METROPOLE", "codeape": "3811Z", "cp": "76430" }, "geometry": { "type": "Point", "coordinates": [ 0.3554, 49.52333 ] } },
{ "type": "Feature", "properties": { "gml_id": "ETABLISSEMENTS_POLLUEURS.591434", "identifiant": "0005801437", "idetab": "591434", "nom": "SIBELCO GREEN SOLUTIONS", "codeape": "3832Z", "cp": "76430" }, "geometry": { "type": "Point", "coordinates": [ 0.36069, 49.5274 ] } },
{ "type": "Feature", "properties": { "gml_id": "ETABLISSEMENTS_POLLUEURS.1029", "identifiant": "0005800478", "idetab": "1029", "nom": "PLASTIC OMNIUM AUTO EXTERIOR", "codeape": "2229A", "cp": "76430" }, "geometry": { "type": "Point", "coordinates": [ 0.356442, 49.533579 ] } },
{ "type": "Feature", "properties": { "gml_id": "ETABLISSEMENTS_POLLUEURS.6441", "identifiant": "0005800497", "idetab": "6441", "nom": "FL TMT INDUSTRIE", "codeape": "8122Z", "cp": "76430" }, "geometry": { "type": "Point", "coordinates": [ 0.356442, 49.533579 ] } },
{ "type": "Feature", "properties": { "gml_id": "ETABLISSEMENTS_POLLUEURS.7843", "identifiant": "0005800699", "idetab": "7843", "nom": "COOPER-STANDARD FRANCE", "codeape": "2219Z", "cp": "76170" }, "geometry": { "type": "Point", "coordinates": [ 0.55022, 49.53434 ] } },
{ "type": "Feature", "properties": { "gml_id": "ETABLISSEMENTS_POLLUEURS.965", "identifiant": "0005800290", "idetab": "965", "nom": "CABOT CARBONE", "codeape": "2013B", "cp": "76170" }, "geometry": { "type": "Point", "coordinates": [ 0.52159, 49.53435 ] } },
{ "type": "Feature", "properties": { "gml_id": "ETABLISSEMENTS_POLLUEURS.1035", "identifiant": "0005800496", "idetab": "1035", "nom": "BASELL POLYPROPYLENE", "codeape": "2016Z", "cp": "76170" }, "geometry": { "type": "Point", "coordinates": [ 0.54998, 49.53512 ] } },
{ "type": "Feature", "properties": { "gml_id": "ETABLISSEMENTS_POLLUEURS.995", "identifiant": "0005800367", "idetab": "995", "nom": "EURIAL ULTRA FRAIS", "codeape": "1051A", "cp": "76210" }, "geometry": { "type": "Point", "coordinates": [ 0.4963, 49.5413 ] } },
{ "type": "Feature", "properties": { "gml_id": "ETABLISSEMENTS_POLLUEURS.1075", "identifiant": "0005800698", "idetab": "1075", "nom": "COOPER STANDARD AUTOMOTIVE", "codeape": "2219Z", "cp": "76210" }, "geometry": { "type": "Point", "coordinates": [ 0.471921, 49.570888 ] } },
{ "type": "Feature", "properties": { "gml_id": "ETABLISSEMENTS_POLLUEURS.4285", "identifiant": "0005800509", "idetab": "4285", "nom": "ORIL INDUSTRIE", "codeape": "2014Z", "cp": "76210" }, "geometry": { "type": "Point", "coordinates": [ 0.49971, 49.57814 ] } },
{ "type": "Feature", "properties": { "gml_id": "ETABLISSEMENTS_POLLUEURS.7849", "identifiant": "0005801105", "idetab": "7849", "nom": "ORIL INDUSTRIE", "codeape": "2014Z", "cp": "76210" }, "geometry": { "type": "Point", "coordinates": [ 0.49032, 49.59004 ] } },
{ "type": "Feature", "properties": { "gml_id": "ETABLISSEMENTS_POLLUEURS.596640", "identifiant": "0003900598", "idetab": "596640", "nom": "CA CAUX SEINE AGGLO", "codeape": "8411Z", "cp": "76210" }, "geometry": { "type": "Point", "coordinates": [ 0.49032, 49.59004 ] } },
{ "type": "Feature", "properties": { "gml_id": "ETABLISSEMENTS_POLLUEURS.598902", "identifiant": "0003901259", "idetab": "598902", "nom": "WEEECYCLING", "codeape": "6630Z", "cp": "76400" }, "geometry": { "type": "Point", "coordinates": [ 0.38751, 49.70399 ] } },
{ "type": "Feature", "properties": { "gml_id": "ETABLISSEMENTS_POLLUEURS.6484", "identifiant": "0005802408", "idetab": "6484", "nom": "THERMAL CERAMICS DE FRANCE", "codeape": "262L", "cp": "76170" }, "geometry": { "type": "Point", "coordinates": [ 0.532097, 49.515705 ] } },
{ "type": "Feature", "properties": { "gml_id": "ETABLISSEMENTS_POLLUEURS.12853", "identifiant": "0005802629", "idetab": "12853", "nom": "LOGISTIQUE VAL DE SEINE OPERATIONS", "codeape": "5210B", "cp": "76170" }, "geometry": { "type": "Point", "coordinates": [ 0.50117, 49.5131 ] } },
{ "type": "Feature", "properties": { "gml_id": "ETABLISSEMENTS_POLLUEURS.594768", "identifiant": "0005804134", "idetab": "594768", "nom": "MALLARD", "codeape": "2562B", "cp": "76170" }, "geometry": { "type": "Point", "coordinates": [ 0.47648, 49.53035 ] } },
{ "type": "Feature", "properties": { "gml_id": "ETABLISSEMENTS_POLLUEURS.596488", "identifiant": "0005805083", "idetab": "596488", "nom": "CA CAUX SEINE AGGLO", "codeape": "8411Z", "cp": "76170" }, "geometry": { "type": "Point", "coordinates": [ 0.53625, 49.50889 ] } },
{ "type": "Feature", "properties": { "gml_id": "ETABLISSEMENTS_POLLUEURS.598903", "identifiant": "0057600267", "idetab": "598903", "nom": "SCEA DU HERTELAY", "codeape": "0111Z", "cp": "76110" }, "geometry": { "type": "Point", "coordinates": [ 0.37482, 49.62052 ] } },
{ "type": "Feature", "properties": { "gml_id": "ETABLISSEMENTS_POLLUEURS.11645", "identifiant": "0005802398", "idetab": "11645", "nom": "T.S.N. 2", "codeape": "8129B", "cp": "76700" }, "geometry": { "type": "Point", "coordinates": [ 0.233862, 49.505512 ] } },
{ "type": "Feature", "properties": { "gml_id": "ETABLISSEMENTS_POLLUEURS.11365", "identifiant": "0005803349", "idetab": "11365", "nom": "NORMANDIE TERRE D'ENERGIES", "codeape": "3821Z", "cp": "76700" }, "geometry": { "type": "Point", "coordinates": [ 0.233862, 49.505512 ] } },
{ "type": "Feature", "properties": { "gml_id": "ETABLISSEMENTS_POLLUEURS.11632", "identifiant": "0005801098", "idetab": "11632", "nom": "TANK SEREP NORMANDIE 1", "codeape": "8129B", "cp": "76700" }, "geometry": { "type": "Point", "coordinates": [ 0.233862, 49.505512 ] } },
{ "type": "Feature", "properties": { "gml_id": "ETABLISSEMENTS_POLLUEURS.1038", "identifiant": "0005800521", "idetab": "1038", "nom": "NORGAL", "codeape": "631D", "cp": "76700" }, "geometry": { "type": "Point", "coordinates": [ 0.233862, 49.505512 ] } },
{ "type": "Feature", "properties": { "gml_id": "ETABLISSEMENTS_POLLUEURS.588655", "identifiant": "0005800486", "idetab": "588655", "nom": "MATÉRIAUX BAIE DE SEINE", "codeape": "0812Z", "cp": "76700" }, "geometry": { "type": "Point", "coordinates": [ 0.233862, 49.505512 ] } },
{ "type": "Feature", "properties": { "gml_id": "ETABLISSEMENTS_POLLUEURS.11640", "identifiant": "0005801440", "idetab": "11640", "nom": "MARIO RICHIERO", "codeape": "4511Z", "cp": "76700" }, "geometry": { "type": "Point", "coordinates": [ 0.233862, 49.505512 ] } },
{ "type": "Feature", "properties": { "gml_id": "ETABLISSEMENTS_POLLUEURS.983", "identifiant": "0005800338", "idetab": "983", "nom": "SIGALNOR LE HOC", "codeape": "", "cp": "76700" }, "geometry": { "type": "Point", "coordinates": [ 0.233862, 49.505512 ] } },
{ "type": "Feature", "properties": { "gml_id": "ETABLISSEMENTS_POLLUEURS.1099", "identifiant": "0005801085", "idetab": "1099", "nom": "CIPHA", "codeape": "5229B", "cp": "76430" }, "geometry": { "type": "Point", "coordinates": [ 0.30117, 49.506801 ] } },
{ "type": "Feature", "properties": { "gml_id": "ETABLISSEMENTS_POLLUEURS.596474", "identifiant": "0005803124", "idetab": "596474", "nom": "LE HAVRE SEINE METROPOLE", "codeape": "8411Z", "cp": "76700" }, "geometry": { "type": "Point", "coordinates": [ 0.228421, 49.508435 ] } },
{ "type": "Feature", "properties": { "gml_id": "ETABLISSEMENTS_POLLUEURS.590380", "identifiant": "0005800555", "idetab": "590380", "nom": "CARE", "codeape": "5210B", "cp": "76700" }, "geometry": { "type": "Point", "coordinates": [ 0.27041, 49.50982 ] } },
{ "type": "Feature", "properties": { "gml_id": "ETABLISSEMENTS_POLLUEURS.587856", "identifiant": "0005805580", "idetab": "587856", "nom": "SUEZ RV VAL'ESTUAIRE", "codeape": "5210B", "cp": "76700" }, "geometry": { "type": "Point", "coordinates": [ 0.27041, 49.50982 ] } },
{ "type": "Feature", "properties": { "gml_id": "ETABLISSEMENTS_POLLUEURS.968", "identifiant": "0005800297", "idetab": "968", "nom": "TOTALENERGIES RAFFINAGE FRANCE", "codeape": "1920Z", "cp": "76700" }, "geometry": { "type": "Point", "coordinates": [ 0.22592, 49.51034 ] } },
{ "type": "Feature", "properties": { "gml_id": "ETABLISSEMENTS_POLLUEURS.1128", "identifiant": "0005801468", "idetab": "1128", "nom": "PPG COATINGS MANUFACTURING SARL", "codeape": "2030Z", "cp": "76700" }, "geometry": { "type": "Point", "coordinates": [ 0.21793, 49.51052 ] } },
{ "type": "Feature", "properties": { "gml_id": "ETABLISSEMENTS_POLLUEURS.12470", "identifiant": "0009000059", "idetab": "12470", "nom": "SOC TRANSPORTS PETROLIERS PAR PIPELINE", "codeape": "4950Z", "cp": "76290" }, "geometry": { "type": "Point", "coordinates": [ 0.21784, 49.53001 ] } },
{ "type": "Feature", "properties": { "gml_id": "ETABLISSEMENTS_POLLUEURS.596831", "identifiant": "0005803448", "idetab": "596831", "nom": "TITAN HAVRE", "codeape": "6820B", "cp": "76430" }, "geometry": { "type": "Point", "coordinates": [ 0.33574, 49.56361 ] } },
{ "type": "Feature", "properties": { "gml_id": "ETABLISSEMENTS_POLLUEURS.8646", "identifiant": "0005802477", "idetab": "8646", "nom": "SARL QUINTIN", "codeape": "7810Z", "cp": "76133" }, "geometry": { "type": "Point", "coordinates": [ 0.256415, 49.565374 ] } },
{ "type": "Feature", "properties": { "gml_id": "ETABLISSEMENTS_POLLUEURS.596470", "identifiant": "0005803208", "idetab": "596470", "nom": "LE HAVRE SEINE METROPOLE", "codeape": "3811Z", "cp": "76280" }, "geometry": { "type": "Point", "coordinates": [ 0.25952, 49.63098 ] } },
{ "type": "Feature", "properties": { "gml_id": "ETABLISSEMENTS_POLLUEURS.591174", "identifiant": "0057600537", "idetab": "591174", "nom": "SCEA CHEDRU CULTURES", "codeape": "0113Z", "cp": "76280" }, "geometry": { "type": "Point", "coordinates": [ 0.30335, 49.66326 ] } },
{ "type": "Feature", "properties": { "gml_id": "ETABLISSEMENTS_POLLUEURS.5936", "identifiant": "76268060", "idetab": "5936", "nom": "SCEA CHEDRU", "codeape": "0146Z", "cp": "76280" }, "geometry": { "type": "Point", "coordinates": [ 0.311342, 49.686114 ] } }
]
}
