{
"type": "FeatureCollection",
"name": "ms:ETABLISSEMENTS_POLLUEURS",
"crs": { "type": "name", "properties": { "name": "urn:ogc:def:crs:OGC:1.3:CRS84" } },
"features": [
{ "type": "Feature", "properties": { "gml_id": "ETABLISSEMENTS_POLLUEURS.10878", "identifiant": "0006405074", "idetab": "10878", "nom": "SYNDICAT DE VALORISATION ET D'ELIMINATION DES DECHETS NOUVELLE GENERATION (SIVED NG)", "codeape": "8412Z", "cp": "83560" }, "geometry": { "type": "Point", "coordinates": [ 5.86805, 43.68149 ] } },
{ "type": "Feature", "properties": { "gml_id": "ETABLISSEMENTS_POLLUEURS.14224", "identifiant": "0006400507", "idetab": "14224", "nom": "PERTUISIENNE DE LEVAGE ET DE MANUTENTION COUDOURET", "codeape": "3832Z", "cp": "84120" }, "geometry": { "type": "Point", "coordinates": [ 5.53452, 43.69632 ] } },
{ "type": "Feature", "properties": { "gml_id": "ETABLISSEMENTS_POLLUEURS.4768", "identifiant": "0006400004", "idetab": "4768", "nom": "COMMISSARIAT A L' ENERGIE ATOMIQUE ET AUX ENERGIES ALTERNATIVES", "codeape": "7219Z", "cp": "13108" }, "geometry": { "type": "Point", "coordinates": [ 5.74922, 43.71728 ] } },
{ "type": "Feature", "properties": { "gml_id": "ETABLISSEMENTS_POLLUEURS.9829", "identifiant": "0006401121", "idetab": "9829", "nom": "MARRENON", "codeape": "4634Z", "cp": "84240" }, "geometry": { "type": "Point", "coordinates": [ 5.54273, 43.72 ] } },
{ "type": "Feature", "properties": { "gml_id": "ETABLISSEMENTS_POLLUEURS.10797", "identifiant": "0006400096", "idetab": "10797", "nom": "RECUP DIFFUSION PIECES AUTOS", "codeape": "4520A", "cp": "83560" }, "geometry": { "type": "Point", "coordinates": [ 5.813127, 43.724658 ] } },
{ "type": "Feature", "properties": { "gml_id": "ETABLISSEMENTS_POLLUEURS.2366", "identifiant": "0006401101", "idetab": "2366", "nom": "SCA VALDEZE", "codeape": "1102B", "cp": "84240" }, "geometry": { "type": "Point", "coordinates": [ 5.546245, 43.725832 ] } },
{ "type": "Feature", "properties": { "gml_id": "ETABLISSEMENTS_POLLUEURS.14242", "identifiant": "0006407254", "idetab": "14242", "nom": "ITER ORGANIZATION", "codeape": "7219Z", "cp": "13067" }, "geometry": { "type": "Point", "coordinates": [ 5.708033, 43.687125 ] } },
{ "type": "Feature", "properties": { "gml_id": "ETABLISSEMENTS_POLLUEURS.6753", "identifiant": "0006400880", "idetab": "6753", "nom": "ZINQ PROVENCE", "codeape": "2561Z", "cp": "13750" }, "geometry": { "type": "Point", "coordinates": [ 5.00527, 43.8129 ] } },
{ "type": "Feature", "properties": { "gml_id": "ETABLISSEMENTS_POLLUEURS.11384", "identifiant": "0006401380", "idetab": "11384", "nom": "OMYA SAS", "codeape": "2399Z", "cp": "13660" }, "geometry": { "type": "Point", "coordinates": [ 5.02565, 43.78305 ] } },
{ "type": "Feature", "properties": { "gml_id": "ETABLISSEMENTS_POLLUEURS.4826", "identifiant": "0006400504", "idetab": "4826", "nom": "FLORETTE FRANCE", "codeape": "1039A", "cp": "84800" }, "geometry": { "type": "Point", "coordinates": [ 5.02692, 43.92246 ] } },
{ "type": "Feature", "properties": { "gml_id": "ETABLISSEMENTS_POLLUEURS.10859", "identifiant": "0006404035", "idetab": "10859", "nom": "SOCOPA VIANDES", "codeape": "1011Z", "cp": "84800" }, "geometry": { "type": "Point", "coordinates": [ 5.02692, 43.92246 ] } },
{ "type": "Feature", "properties": { "gml_id": "ETABLISSEMENTS_POLLUEURS.4850", "identifiant": "0006400895", "idetab": "4850", "nom": "OMYA SAS", "codeape": "2399Z", "cp": "13660" }, "geometry": { "type": "Point", "coordinates": [ 5.0284, 43.7916 ] } },
{ "type": "Feature", "properties": { "gml_id": "ETABLISSEMENTS_POLLUEURS.13019", "identifiant": "0006405098", "idetab": "13019", "nom": "AMF QUALITÉ SÉCURITÉ ENVIRONNEMENT", "codeape": "7112B", "cp": "84300" }, "geometry": { "type": "Point", "coordinates": [ 5.040699, 43.836937 ] } },
{ "type": "Feature", "properties": { "gml_id": "ETABLISSEMENTS_POLLUEURS.2393", "identifiant": "0006401459", "idetab": "2393", "nom": "AZ MEDITERRANEE", "codeape": "4631Z", "cp": "84304" }, "geometry": { "type": "Point", "coordinates": [ 5.040699, 43.836937 ] } },
{ "type": "Feature", "properties": { "gml_id": "ETABLISSEMENTS_POLLUEURS.4879", "identifiant": "0006401458", "idetab": "4879", "nom": "FRUIDOR MURISSERIE", "codeape": "4631Z", "cp": "84300" }, "geometry": { "type": "Point", "coordinates": [ 5.040699, 43.836937 ] } },
{ "type": "Feature", "properties": { "gml_id": "ETABLISSEMENTS_POLLUEURS.6761", "identifiant": "0006401283", "idetab": "6761", "nom": "SOCOPA VIANDES", "codeape": "1011Z", "cp": "84800" }, "geometry": { "type": "Point", "coordinates": [ 5.049733, 43.921859 ] } },
{ "type": "Feature", "properties": { "gml_id": "ETABLISSEMENTS_POLLUEURS.10836", "identifiant": "0006401323", "idetab": "10836", "nom": "LAFARGE GRANULATS", "codeape": "0812Z", "cp": "13560" }, "geometry": { "type": "Point", "coordinates": [ 5.05318, 43.74703 ] } },
{ "type": "Feature", "properties": { "gml_id": "ETABLISSEMENTS_POLLUEURS.2249", "identifiant": "0006400503", "idetab": "2249", "nom": "ROUSSELOT ISLE SUR LA SORGUE", "codeape": "2059Z", "cp": "84800" }, "geometry": { "type": "Point", "coordinates": [ 5.05782, 43.92279 ] } },
{ "type": "Feature", "properties": { "gml_id": "ETABLISSEMENTS_POLLUEURS.12125", "identifiant": "0006400453", "idetab": "12125", "nom": "FERT RECYCLAGE", "codeape": "3831Z", "cp": "84300" }, "geometry": { "type": "Point", "coordinates": [ 5.06524, 43.82829 ] } },
{ "type": "Feature", "properties": { "gml_id": "ETABLISSEMENTS_POLLUEURS.4851", "identifiant": "0006400911", "idetab": "4851", "nom": "SOCOVA", "codeape": "2420Z", "cp": "13560" }, "geometry": { "type": "Point", "coordinates": [ 5.077183, 43.742784 ] } },
{ "type": "Feature", "properties": { "gml_id": "ETABLISSEMENTS_POLLUEURS.6751", "identifiant": "0006400479", "idetab": "6751", "nom": "LES CHAUX DE LA TOUR", "codeape": "2352Z", "cp": "84440" }, "geometry": { "type": "Point", "coordinates": [ 5.11125, 43.85266 ] } },
{ "type": "Feature", "properties": { "gml_id": "ETABLISSEMENTS_POLLUEURS.2248", "identifiant": "0006400500", "idetab": "2248", "nom": "SICASOR", "codeape": "", "cp": "84800" }, "geometry": { "type": "Point", "coordinates": [ 5.114454, 43.893481 ] } },
{ "type": "Feature", "properties": { "gml_id": "ETABLISSEMENTS_POLLUEURS.595081", "identifiant": "0006401264", "idetab": "595081", "nom": "LES CHAUX DE LA TOUR", "codeape": "2352Z", "cp": "84440" }, "geometry": { "type": "Point", "coordinates": [ 5.12207, 43.87608 ] } },
{ "type": "Feature", "properties": { "gml_id": "ETABLISSEMENTS_POLLUEURS.4823", "identifiant": "0006400463", "idetab": "4823", "nom": "AZUR DISTILLATION", "codeape": "1101Z", "cp": "84660" }, "geometry": { "type": "Point", "coordinates": [ 5.14062, 43.8656 ] } },
{ "type": "Feature", "properties": { "gml_id": "ETABLISSEMENTS_POLLUEURS.9834", "identifiant": "0006401314", "idetab": "9834", "nom": "LAFARGE GRANULATS", "codeape": "0812Z", "cp": "13370" }, "geometry": { "type": "Point", "coordinates": [ 5.14618, 43.74477 ] } },
{ "type": "Feature", "properties": { "gml_id": "ETABLISSEMENTS_POLLUEURS.2241", "identifiant": "0006400475", "idetab": "2241", "nom": "LA CIGALETTE", "codeape": "702C", "cp": "84220" }, "geometry": { "type": "Point", "coordinates": [ 5.149034, 43.891449 ] } },
{ "type": "Feature", "properties": { "gml_id": "ETABLISSEMENTS_POLLUEURS.13012", "identifiant": "0006402705", "idetab": "13012", "nom": "EDF POLE INDUSTRIE SRH", "codeape": "3511Z", "cp": "13370" }, "geometry": { "type": "Point", "coordinates": [ 5.179149, 43.730821 ] } },
{ "type": "Feature", "properties": { "gml_id": "ETABLISSEMENTS_POLLUEURS.9843", "identifiant": "0006402665", "idetab": "9843", "nom": "CENTRE DE TRANSFERT DE MALLEMORT", "codeape": "3811Z", "cp": "13370" }, "geometry": { "type": "Point", "coordinates": [ 5.179149, 43.730821 ] } },
{ "type": "Feature", "properties": { "gml_id": "ETABLISSEMENTS_POLLUEURS.11387", "identifiant": "0006408627", "idetab": "11387", "nom": "CSDND DE MALLEMORT", "codeape": "8411Z", "cp": "13370" }, "geometry": { "type": "Point", "coordinates": [ 5.21491, 43.716702 ] } },
{ "type": "Feature", "properties": { "gml_id": "ETABLISSEMENTS_POLLUEURS.13003", "identifiant": "0006401313", "idetab": "13003", "nom": "MIDI CONCASSAGE", "codeape": "0812Z", "cp": "13410" }, "geometry": { "type": "Point", "coordinates": [ 5.23066, 43.7028 ] } },
{ "type": "Feature", "properties": { "gml_id": "ETABLISSEMENTS_POLLUEURS.591508", "identifiant": "0006401309", "idetab": "591508", "nom": "ENTREPRISE JEAN LEFEBVRE MEDITERRANEE", "codeape": "0812Z", "cp": "13350" }, "geometry": { "type": "Point", "coordinates": [ 5.23439, 43.70939 ] } },
{ "type": "Feature", "properties": { "gml_id": "ETABLISSEMENTS_POLLUEURS.595090", "identifiant": "0006402061", "idetab": "595090", "nom": "SERRE FRERES ET CIE", "codeape": "0811Z", "cp": "84560" }, "geometry": { "type": "Point", "coordinates": [ 5.24483, 43.83224 ] } },
{ "type": "Feature", "properties": { "gml_id": "ETABLISSEMENTS_POLLUEURS.588941", "identifiant": "0006412228", "idetab": "588941", "nom": "ISDI BRIES TP (CABRIÈRES D'AVIGNON)", "codeape": "4221Z", "cp": "84220" }, "geometry": { "type": "Point", "coordinates": [ 5.149034, 43.891449 ] } },
{ "type": "Feature", "properties": { "gml_id": "ETABLISSEMENTS_POLLUEURS.10810", "identifiant": "0006400544", "idetab": "10810", "nom": "ETS ANDRE RECORDIER", "codeape": "3832Z", "cp": "84210" }, "geometry": { "type": "Point", "coordinates": [ 5.07727, 43.99802 ] } },
{ "type": "Feature", "properties": { "gml_id": "ETABLISSEMENTS_POLLUEURS.588942", "identifiant": "0006412229", "idetab": "588942", "nom": "ISDI SA BRIES TP (PERNES-LES-FONTAINES)", "codeape": "4221Z", "cp": "84210" }, "geometry": { "type": "Point", "coordinates": [ 5.054697, 43.997504 ] } },
{ "type": "Feature", "properties": { "gml_id": "ETABLISSEMENTS_POLLUEURS.2237", "identifiant": "0006400460", "idetab": "2237", "nom": "FERT RECYCLAGE", "codeape": "3831Z", "cp": "84400" }, "geometry": { "type": "Point", "coordinates": [ 5.33246, 43.87699 ] } },
{ "type": "Feature", "properties": { "gml_id": "ETABLISSEMENTS_POLLUEURS.6763", "identifiant": "0006401988", "idetab": "6763", "nom": "APTUNION", "codeape": "1200Z", "cp": "84400" }, "geometry": { "type": "Point", "coordinates": [ 5.335128, 43.89209 ] } },
{ "type": "Feature", "properties": { "gml_id": "ETABLISSEMENTS_POLLUEURS.588947", "identifiant": "0006412239", "idetab": "588947", "nom": "ISDI COMMUNE DE PUYVERT", "codeape": "3821Z", "cp": "84160" }, "geometry": { "type": "Point", "coordinates": [ 5.342326, 43.759431 ] } },
{ "type": "Feature", "properties": { "gml_id": "ETABLISSEMENTS_POLLUEURS.11764", "identifiant": "0006402054", "idetab": "11764", "nom": "AUZENDE GUERIN ROUX", "codeape": "0811Z", "cp": "84480" }, "geometry": { "type": "Point", "coordinates": [ 5.345014, 43.805421 ] } },
{ "type": "Feature", "properties": { "gml_id": "ETABLISSEMENTS_POLLUEURS.4822", "identifiant": "0006400455", "idetab": "4822", "nom": "APTUNION INDUSTRIE", "codeape": "1082Z", "cp": "84400" }, "geometry": { "type": "Point", "coordinates": [ 5.34778, 43.8822 ] } },
{ "type": "Feature", "properties": { "gml_id": "ETABLISSEMENTS_POLLUEURS.12992", "identifiant": "0006400478", "idetab": "12992", "nom": "FERT RECYCLAGE", "codeape": "3831Z", "cp": "84400" }, "geometry": { "type": "Point", "coordinates": [ 5.36027, 43.88731 ] } },
{ "type": "Feature", "properties": { "gml_id": "ETABLISSEMENTS_POLLUEURS.7966", "identifiant": "0006403671", "idetab": "7966", "nom": "EUROSILICONE SAS", "codeape": "3250A", "cp": "84400" }, "geometry": { "type": "Point", "coordinates": [ 5.37374, 43.89 ] } },
{ "type": "Feature", "properties": { "gml_id": "ETABLISSEMENTS_POLLUEURS.10903", "identifiant": "0006409429", "idetab": "10903", "nom": "FRULACT FRANCE", "codeape": "1039B", "cp": "84400" }, "geometry": { "type": "Point", "coordinates": [ 5.38482, 43.88052 ] } },
{ "type": "Feature", "properties": { "gml_id": "ETABLISSEMENTS_POLLUEURS.589764", "identifiant": "0006412226", "idetab": "589764", "nom": "SYND INTER COM RAMAS ET TRAIT ORDUR MENA", "codeape": "3811Z", "cp": "84400" }, "geometry": { "type": "Point", "coordinates": [ 5.43797, 43.90825 ] } },
{ "type": "Feature", "properties": { "gml_id": "ETABLISSEMENTS_POLLUEURS.10820", "identifiant": "0006401104", "idetab": "10820", "nom": "SCA LOUERION TERRE D'ALLIANCE", "codeape": "1102B", "cp": "84160" }, "geometry": { "type": "Point", "coordinates": [ 5.442069, 43.774408 ] } },
{ "type": "Feature", "properties": { "gml_id": "ETABLISSEMENTS_POLLUEURS.592530", "identifiant": "0006406604", "idetab": "592530", "nom": "COOP VINICOLE COTEAUX ANSOUIS", "codeape": "1102B", "cp": "84240" }, "geometry": { "type": "Point", "coordinates": [ 5.47172, 43.73659 ] } },
{ "type": "Feature", "properties": { "gml_id": "ETABLISSEMENTS_POLLUEURS.10901", "identifiant": "0006408791", "idetab": "10901", "nom": "TERRES VALDEZE", "codeape": "1102B", "cp": "84240" }, "geometry": { "type": "Point", "coordinates": [ 5.54694, 43.72273 ] } },
{ "type": "Feature", "properties": { "gml_id": "ETABLISSEMENTS_POLLUEURS.14228", "identifiant": "0006401115", "idetab": "14228", "nom": "SCA DES COTEAUX DE GRAMBOIS", "codeape": "1102B", "cp": "84240" }, "geometry": { "type": "Point", "coordinates": [ 5.588977, 43.764947 ] } },
{ "type": "Feature", "properties": { "gml_id": "ETABLISSEMENTS_POLLUEURS.598553", "identifiant": "0006405518", "idetab": "598553", "nom": "GEOSEL MANOSQUE", "codeape": "5210B", "cp": "04100" }, "geometry": { "type": "Point", "coordinates": [ 5.75815, 43.87615 ] } },
{ "type": "Feature", "properties": { "gml_id": "ETABLISSEMENTS_POLLUEURS.4845", "identifiant": "0006400828", "idetab": "4845", "nom": "GEOMETHANE", "codeape": "5210B", "cp": "04100" }, "geometry": { "type": "Point", "coordinates": [ 5.77642, 43.83817 ] } },
{ "type": "Feature", "properties": { "gml_id": "ETABLISSEMENTS_POLLUEURS.8567", "identifiant": "0006499000", "idetab": "8567", "nom": "DURANCE COMPOSTAGE", "codeape": "3821Z", "cp": "04100" }, "geometry": { "type": "Point", "coordinates": [ 5.785025, 43.831433 ] } },
{ "type": "Feature", "properties": { "gml_id": "ETABLISSEMENTS_POLLUEURS.12996", "identifiant": "0006400849", "idetab": "12996", "nom": "VAR METAUX", "codeape": "3832Z", "cp": "04100" }, "geometry": { "type": "Point", "coordinates": [ 5.79123, 43.83513 ] } },
{ "type": "Feature", "properties": { "gml_id": "ETABLISSEMENTS_POLLUEURS.13029", "identifiant": "0006407903", "idetab": "13029", "nom": "ALLIANCE ENVIRONNEMENT EXPLOITATION", "codeape": "3821Z", "cp": "04100" }, "geometry": { "type": "Point", "coordinates": [ 5.79123, 43.83513 ] } },
{ "type": "Feature", "properties": { "gml_id": "ETABLISSEMENTS_POLLUEURS.10812", "identifiant": "0006400846", "idetab": "10812", "nom": "ALPES ASSAINISSEMENT", "codeape": "3821Z", "cp": "04100" }, "geometry": { "type": "Point", "coordinates": [ 5.79123, 43.83513 ] } },
{ "type": "Feature", "properties": { "gml_id": "ETABLISSEMENTS_POLLUEURS.590213", "identifiant": "0006409665", "idetab": "590213", "nom": "CARRIERES ET BALLASTIERES DES ALPES", "codeape": "0811Z", "cp": "04800" }, "geometry": { "type": "Point", "coordinates": [ 5.8051, 43.76699 ] } },
{ "type": "Feature", "properties": { "gml_id": "ETABLISSEMENTS_POLLUEURS.7962", "identifiant": "0006402195", "idetab": "7962", "nom": "BDV BLANCHIS DURANCE ET VERDON", "codeape": "9601A", "cp": "83560" }, "geometry": { "type": "Point", "coordinates": [ 5.80526, 43.72819 ] } },
{ "type": "Feature", "properties": { "gml_id": "ETABLISSEMENTS_POLLUEURS.595047", "identifiant": "0006412194", "idetab": "595047", "nom": "CARRIERES ET BALLASTIERES DES ALPES", "codeape": "0812Z", "cp": "83560" }, "geometry": { "type": "Point", "coordinates": [ 5.80733, 43.72185 ] } },
{ "type": "Feature", "properties": { "gml_id": "ETABLISSEMENTS_POLLUEURS.2404", "identifiant": "0006401676", "idetab": "2404", "nom": "TECHNIC AVIATION", "codeape": "3316Z", "cp": "04100" }, "geometry": { "type": "Point", "coordinates": [ 5.81537, 43.79712 ] } },
{ "type": "Feature", "properties": { "gml_id": "ETABLISSEMENTS_POLLUEURS.10894", "identifiant": "0006407785", "idetab": "10894", "nom": "LABORATOIRES M&L", "codeape": "2042Z", "cp": "04100" }, "geometry": { "type": "Point", "coordinates": [ 5.81548, 43.79828 ] } },
{ "type": "Feature", "properties": { "gml_id": "ETABLISSEMENTS_POLLUEURS.598947", "identifiant": "0006412928", "idetab": "598947", "nom": "NEXSTONE", "codeape": "0812Z", "cp": "04210" }, "geometry": { "type": "Point", "coordinates": [ 5.83008, 43.80416 ] } },
{ "type": "Feature", "properties": { "gml_id": "ETABLISSEMENTS_POLLUEURS.590476", "identifiant": "0006401170", "idetab": "590476", "nom": "CARRIERES ET BALLASTIERES DES ALPES", "codeape": "0812Z", "cp": "04180" }, "geometry": { "type": "Point", "coordinates": [ 5.84197, 43.89582 ] } },
{ "type": "Feature", "properties": { "gml_id": "ETABLISSEMENTS_POLLUEURS.591519", "identifiant": "0006412512", "idetab": "591519", "nom": "R G S", "codeape": "5210B", "cp": "04700" }, "geometry": { "type": "Point", "coordinates": [ 5.88843, 43.92331 ] } },
{ "type": "Feature", "properties": { "gml_id": "ETABLISSEMENTS_POLLUEURS.14226", "identifiant": "0006400816", "idetab": "14226", "nom": "SOCIETE D'EXPLOITATION DES ETABLISSEMENTS F. CHAILLAN", "codeape": "3832Z", "cp": "04700" }, "geometry": { "type": "Point", "coordinates": [ 5.89344, 43.92667 ] } },
{ "type": "Feature", "properties": { "gml_id": "ETABLISSEMENTS_POLLUEURS.9857", "identifiant": "0006406645", "idetab": "9857", "nom": "CSDU 04", "codeape": "3821Z", "cp": "04210" }, "geometry": { "type": "Point", "coordinates": [ 5.99333, 43.84119 ] } },
{ "type": "Feature", "properties": { "gml_id": "ETABLISSEMENTS_POLLUEURS.11784", "identifiant": "0006407140", "idetab": "11784", "nom": "JARDIN DE NORTENE", "codeape": "5224B", "cp": "13140" }, "geometry": { "type": "Point", "coordinates": [ 5.000164, 43.581383 ] } },
{ "type": "Feature", "properties": { "gml_id": "ETABLISSEMENTS_POLLUEURS.4864", "identifiant": "0006401023", "idetab": "4864", "nom": "AREVA MIRAMAS", "codeape": "2013A", "cp": "13148" }, "geometry": { "type": "Point", "coordinates": [ 5.000164, 43.581383 ] } },
{ "type": "Feature", "properties": { "gml_id": "ETABLISSEMENTS_POLLUEURS.589462", "identifiant": "0006405188", "idetab": "589462", "nom": "REXEL FRANCE", "codeape": "4669A", "cp": "13140" }, "geometry": { "type": "Point", "coordinates": [ 5.003328, 43.604138 ] } },
{ "type": "Feature", "properties": { "gml_id": "ETABLISSEMENTS_POLLUEURS.594846", "identifiant": "0006401980", "idetab": "594846", "nom": "PROLOGIS FRANCE XXX EURL", "codeape": "6820B", "cp": "13140" }, "geometry": { "type": "Point", "coordinates": [ 5.01179, 43.58314 ] } },
{ "type": "Feature", "properties": { "gml_id": "ETABLISSEMENTS_POLLUEURS.591510", "identifiant": "0006405185", "idetab": "591510", "nom": "PROLOGIS FRANCE LV EURL", "codeape": "6820B", "cp": "13140" }, "geometry": { "type": "Point", "coordinates": [ 5.01179, 43.58314 ] } },
{ "type": "Feature", "properties": { "gml_id": "ETABLISSEMENTS_POLLUEURS.13007", "identifiant": "0006401963", "idetab": "13007", "nom": "PROLOGIS FRANCE XXIV EURL", "codeape": "6820B", "cp": "13140" }, "geometry": { "type": "Point", "coordinates": [ 5.01179, 43.58314 ] } },
{ "type": "Feature", "properties": { "gml_id": "ETABLISSEMENTS_POLLUEURS.11776", "identifiant": "0006406543", "idetab": "11776", "nom": "MÉTROPOLE AIX MARSEILLE PROVENCE", "codeape": "8411Z", "cp": "13450" }, "geometry": { "type": "Point", "coordinates": [ 5.020344, 43.608296 ] } },
{ "type": "Feature", "properties": { "gml_id": "ETABLISSEMENTS_POLLUEURS.2358", "identifiant": "0006401070", "idetab": "2358", "nom": "MANUFACTURE FRANCAISE DES PNEUMATIQUES MICHELIN", "codeape": "4531Z", "cp": "13300" }, "geometry": { "type": "Point", "coordinates": [ 5.047214, 43.63755 ] } },
{ "type": "Feature", "properties": { "gml_id": "ETABLISSEMENTS_POLLUEURS.594845", "identifiant": "0006403589", "idetab": "594845", "nom": "PROLOGIS FRANCE XLIV EURL", "codeape": "4110A", "cp": "13450" }, "geometry": { "type": "Point", "coordinates": [ 5.06086, 43.61454 ] } },
{ "type": "Feature", "properties": { "gml_id": "ETABLISSEMENTS_POLLUEURS.13014", "identifiant": "0006403542", "idetab": "13014", "nom": "PROLOGIS FRANCE XLV EURL", "codeape": "6820B", "cp": "13450" }, "geometry": { "type": "Point", "coordinates": [ 5.06437, 43.61484 ] } },
{ "type": "Feature", "properties": { "gml_id": "ETABLISSEMENTS_POLLUEURS.594878", "identifiant": "0006403603", "idetab": "594878", "nom": "PROLOGIS FRANCE XLVI EURL", "codeape": "6820B", "cp": "13450" }, "geometry": { "type": "Point", "coordinates": [ 5.0691, 43.61248 ] } },
{ "type": "Feature", "properties": { "gml_id": "ETABLISSEMENTS_POLLUEURS.4888", "identifiant": "0006401650", "idetab": "4888", "nom": "TG6", "codeape": "285A", "cp": "13250" }, "geometry": { "type": "Point", "coordinates": [ 5.0752, 43.556802 ] } },
{ "type": "Feature", "properties": { "gml_id": "ETABLISSEMENTS_POLLUEURS.589755", "identifiant": "0006405442", "idetab": "589755", "nom": "SOCIETE NOUVELLE AUTO STOCK 113", "codeape": "4511Z", "cp": "13300" }, "geometry": { "type": "Point", "coordinates": [ 5.09412, 43.62342 ] } },
{ "type": "Feature", "properties": { "gml_id": "ETABLISSEMENTS_POLLUEURS.13021", "identifiant": "0006405222", "idetab": "13021", "nom": "XPO SUPPLY CHAIN FROID FRANCE", "codeape": "5210A", "cp": "13300" }, "geometry": { "type": "Point", "coordinates": [ 5.094924, 43.640297 ] } },
{ "type": "Feature", "properties": { "gml_id": "ETABLISSEMENTS_POLLUEURS.588959", "identifiant": "0006413000", "idetab": "588959", "nom": "SAUR", "codeape": "3600Z", "cp": "13300" }, "geometry": { "type": "Point", "coordinates": [ 5.094924, 43.640297 ] } },
{ "type": "Feature", "properties": { "gml_id": "ETABLISSEMENTS_POLLUEURS.8674", "identifiant": "0006401067", "idetab": "8674", "nom": "LOGIDIS COMPTOIR MODERNE", "codeape": "5210B", "cp": "13300" }, "geometry": { "type": "Point", "coordinates": [ 5.094924, 43.640297 ] } },
{ "type": "Feature", "properties": { "gml_id": "ETABLISSEMENTS_POLLUEURS.9855", "identifiant": "0006406539", "idetab": "9855", "nom": "CENTRE DE TRANSFERT DES MILANIS", "codeape": "3811Z", "cp": "13300" }, "geometry": { "type": "Point", "coordinates": [ 5.094924, 43.640297 ] } },
{ "type": "Feature", "properties": { "gml_id": "ETABLISSEMENTS_POLLUEURS.14246", "identifiant": "0006408596", "idetab": "14246", "nom": "SAUR", "codeape": "3600Z", "cp": "13300" }, "geometry": { "type": "Point", "coordinates": [ 5.09917, 43.62115 ] } },
{ "type": "Feature", "properties": { "gml_id": "ETABLISSEMENTS_POLLUEURS.2359", "identifiant": "0006401078", "idetab": "2359", "nom": "SALON-DE-PROVENCE ENERGIE VERTE", "codeape": "3511Z", "cp": "13300" }, "geometry": { "type": "Point", "coordinates": [ 5.1036, 43.64821 ] } },
{ "type": "Feature", "properties": { "gml_id": "ETABLISSEMENTS_POLLUEURS.588018", "identifiant": "0006411928", "idetab": "588018", "nom": "SITE DE COMPOSTAGE DE LANÇON-DE-PROVENCE", "codeape": "3821Z", "cp": "13680" }, "geometry": { "type": "Point", "coordinates": [ 5.122747, 43.592278 ] } },
{ "type": "Feature", "properties": { "gml_id": "ETABLISSEMENTS_POLLUEURS.2425", "identifiant": "0006402021", "idetab": "2425", "nom": "ORTEC INDUSTRIE ISDMA - CSD SENEGUIER", "codeape": "3821Z", "cp": "13680" }, "geometry": { "type": "Point", "coordinates": [ 5.122747, 43.592278 ] } },
{ "type": "Feature", "properties": { "gml_id": "ETABLISSEMENTS_POLLUEURS.588921", "identifiant": "0006401319", "idetab": "588921", "nom": "HEIDELBERG MATERIALS FRANCE GRANULATS", "codeape": "0812Z", "cp": "13300" }, "geometry": { "type": "Point", "coordinates": [ 5.12795, 43.61949 ] } },
{ "type": "Feature", "properties": { "gml_id": "ETABLISSEMENTS_POLLUEURS.7121", "identifiant": "0009000028", "idetab": "7121", "nom": "BASE AÉRIENNE 701", "codeape": "8422Z", "cp": "13300" }, "geometry": { "type": "Point", "coordinates": [ 5.11167, 43.62474 ] } },
{ "type": "Feature", "properties": { "gml_id": "ETABLISSEMENTS_POLLUEURS.13316", "identifiant": "0009000218", "idetab": "13316", "nom": "DEA SALON DE PROVENCE", "codeape": "8422Z", "cp": "13661" }, "geometry": { "type": "Point", "coordinates": [ 5.06497, 43.64711 ] } },
{ "type": "Feature", "properties": { "gml_id": "ETABLISSEMENTS_POLLUEURS.591641", "identifiant": "0009000349", "idetab": "591641", "nom": "4RMAT/7CMT/SRMM - EPMU MIRAMAS", "codeape": "2562B", "cp": "13148" }, "geometry": { "type": "Point", "coordinates": [ 5.00261, 43.58917 ] } },
{ "type": "Feature", "properties": { "gml_id": "ETABLISSEMENTS_POLLUEURS.11242", "identifiant": "0071372717", "idetab": "11242", "nom": "SAUR", "codeape": "3600Z", "cp": "13300" }, "geometry": { "type": "Point", "coordinates": [ 5.094924, 43.640297 ] } },
{ "type": "Feature", "properties": { "gml_id": "ETABLISSEMENTS_POLLUEURS.10817", "identifiant": "0006401045", "idetab": "10817", "nom": "PIECES AUTOS MOTOS OCCASIONS", "codeape": "4511Z", "cp": "13920" }, "geometry": { "type": "Point", "coordinates": [ 5.013953, 43.453277 ] } },
{ "type": "Feature", "properties": { "gml_id": "ETABLISSEMENTS_POLLUEURS.590475", "identifiant": "0006401043", "idetab": "590475", "nom": "MUNOZ RECUPERATION INDUSTRIELLE", "codeape": "3832Z", "cp": "13920" }, "geometry": { "type": "Point", "coordinates": [ 5.01551, 43.4554 ] } },
{ "type": "Feature", "properties": { "gml_id": "ETABLISSEMENTS_POLLUEURS.4868", "identifiant": "0006401061", "idetab": "4868", "nom": "ELECTRICITE DE FRANCE", "codeape": "3511Z", "cp": "13117" }, "geometry": { "type": "Point", "coordinates": [ 5.02812, 43.35307 ] } },
{ "type": "Feature", "properties": { "gml_id": "ETABLISSEMENTS_POLLUEURS.9848", "identifiant": "0006404706", "idetab": "9848", "nom": "METROPOLE D'AIX-MARSEILLE-PROVENCE", "codeape": "3811Z", "cp": "13117" }, "geometry": { "type": "Point", "coordinates": [ 5.03386, 43.35599 ] } },
{ "type": "Feature", "properties": { "gml_id": "ETABLISSEMENTS_POLLUEURS.6754", "identifiant": "0006400952", "idetab": "6754", "nom": "MESSER FRANCE", "codeape": "2011Z", "cp": "13500" }, "geometry": { "type": "Point", "coordinates": [ 5.00645, 43.37317 ] } },
{ "type": "Feature", "properties": { "gml_id": "ETABLISSEMENTS_POLLUEURS.4853", "identifiant": "0006400928", "idetab": "4853", "nom": "APPRYL SNC", "codeape": "2016Z", "cp": "13117" }, "geometry": { "type": "Point", "coordinates": [ 5.01378, 43.37624 ] } },
{ "type": "Feature", "properties": { "gml_id": "ETABLISSEMENTS_POLLUEURS.4852", "identifiant": "0006400927", "idetab": "4852", "nom": "WILMAR FRANCE HOLDINGS SAS", "codeape": "6420Z", "cp": "13693" }, "geometry": { "type": "Point", "coordinates": [ 5.00264, 43.377256 ] } },
{ "type": "Feature", "properties": { "gml_id": "ETABLISSEMENTS_POLLUEURS.592592", "identifiant": "0006401691", "idetab": "592592", "nom": "AIR LIQUIDE FRANCE INDUSTRIE", "codeape": "2011Z", "cp": "13500" }, "geometry": { "type": "Point", "coordinates": [ 5.02025, 43.37852 ] } },
{ "type": "Feature", "properties": { "gml_id": "ETABLISSEMENTS_POLLUEURS.2316", "identifiant": "0006400942", "idetab": "2316", "nom": "KEM ONE", "codeape": "2013B", "cp": "13117" }, "geometry": { "type": "Point", "coordinates": [ 5.04949, 43.37998 ] } },
{ "type": "Feature", "properties": { "gml_id": "ETABLISSEMENTS_POLLUEURS.4880", "identifiant": "0006401519", "idetab": "4880", "nom": "LAVERA ENERGIES", "codeape": "3511Z", "cp": "13500" }, "geometry": { "type": "Point", "coordinates": [ 5.0, 43.38 ] } },
{ "type": "Feature", "properties": { "gml_id": "ETABLISSEMENTS_POLLUEURS.4857", "identifiant": "0006400956", "idetab": "4857", "nom": "OXOCHIMIE", "codeape": "2014Z", "cp": "13117" }, "geometry": { "type": "Point", "coordinates": [ 5.013216, 43.38263 ] } },
{ "type": "Feature", "properties": { "gml_id": "ETABLISSEMENTS_POLLUEURS.588935", "identifiant": "0006411944", "idetab": "588935", "nom": "INEOS TECHNOLOGIES FRANCE SAS (ITF)", "codeape": "7219Z", "cp": "13117" }, "geometry": { "type": "Point", "coordinates": [ 5.010451, 43.383302 ] } },
{ "type": "Feature", "properties": { "gml_id": "ETABLISSEMENTS_POLLUEURS.2441", "identifiant": "0006402211", "idetab": "2441", "nom": "PETROINEOS MANUFACTURING FRANCE SAS", "codeape": "1920Z", "cp": "13117" }, "geometry": { "type": "Point", "coordinates": [ 5.02829, 43.38403 ] } },
{ "type": "Feature", "properties": { "gml_id": "ETABLISSEMENTS_POLLUEURS.2318", "identifiant": "0006400955", "idetab": "2318", "nom": "NAPHTACHIMIE", "codeape": "2014Z", "cp": "13117" }, "geometry": { "type": "Point", "coordinates": [ 5.01737, 43.38438 ] } },
{ "type": "Feature", "properties": { "gml_id": "ETABLISSEMENTS_POLLUEURS.9823", "identifiant": "0006400953", "idetab": "9823", "nom": "PURFER", "codeape": "3832Z", "cp": "13117" }, "geometry": { "type": "Point", "coordinates": [ 5.02717, 43.38539 ] } },
{ "type": "Feature", "properties": { "gml_id": "ETABLISSEMENTS_POLLUEURS.12343", "identifiant": "0006410379", "idetab": "12343", "nom": "INEOS DERIVATIVES LAVERA SAS", "codeape": "2014Z", "cp": "13117" }, "geometry": { "type": "Point", "coordinates": [ 5.02602, 43.38944 ] } },
{ "type": "Feature", "properties": { "gml_id": "ETABLISSEMENTS_POLLUEURS.7970", "identifiant": "0006404835", "idetab": "7970", "nom": "AIR LIQUIDE HYDROGENE", "codeape": "2011Z", "cp": "13117" }, "geometry": { "type": "Point", "coordinates": [ 5.02602, 43.38944 ] } },
{ "type": "Feature", "properties": { "gml_id": "ETABLISSEMENTS_POLLUEURS.2403", "identifiant": "0006401644", "idetab": "2403", "nom": "AIR LIQUIDE FRANCE INDUSTRIE", "codeape": "2011Z", "cp": "13117" }, "geometry": { "type": "Point", "coordinates": [ 5.02602, 43.38944 ] } },
{ "type": "Feature", "properties": { "gml_id": "ETABLISSEMENTS_POLLUEURS.4854", "identifiant": "0006400941", "idetab": "4854", "nom": "TOTALENERGIES RAFFINAGE FRANCE", "codeape": "1920Z", "cp": "13117" }, "geometry": { "type": "Point", "coordinates": [ 5.02602, 43.38944 ] } },
{ "type": "Feature", "properties": { "gml_id": "ETABLISSEMENTS_POLLUEURS.588017", "identifiant": "0006411266", "idetab": "588017", "nom": "INEOS CHEMICALS LAVERA SAS", "codeape": "2016Z", "cp": "13117" }, "geometry": { "type": "Point", "coordinates": [ 5.02602, 43.38944 ] } },
{ "type": "Feature", "properties": { "gml_id": "ETABLISSEMENTS_POLLUEURS.589757", "identifiant": "0006410502", "idetab": "589757", "nom": "PURFER", "codeape": "3832Z", "cp": "13117" }, "geometry": { "type": "Point", "coordinates": [ 5.02744, 43.39043 ] } },
{ "type": "Feature", "properties": { "gml_id": "ETABLISSEMENTS_POLLUEURS.589754", "identifiant": "0006405304", "idetab": "589754", "nom": "PAPREC MEDITERRANEE", "codeape": "3832Z", "cp": "13117" }, "geometry": { "type": "Point", "coordinates": [ 5.0351, 43.39325 ] } },
{ "type": "Feature", "properties": { "gml_id": "ETABLISSEMENTS_POLLUEURS.2317", "identifiant": "0006400946", "idetab": "2317", "nom": "GANAYE IN STOCK", "codeape": "4675Z", "cp": "13117" }, "geometry": { "type": "Point", "coordinates": [ 5.03551, 43.39527 ] } },
{ "type": "Feature", "properties": { "gml_id": "ETABLISSEMENTS_POLLUEURS.590485", "identifiant": "0006410462", "idetab": "590485", "nom": "SOCIÉTÉ NOUVELLE JCG ENVIRONNEMENT", "codeape": "3822Z", "cp": "13500" }, "geometry": { "type": "Point", "coordinates": [ 5.047599, 43.396174 ] } },
{ "type": "Feature", "properties": { "gml_id": "ETABLISSEMENTS_POLLUEURS.2449", "identifiant": "0006402522", "idetab": "2449", "nom": "BM CHIMIE", "codeape": "4941A", "cp": "13500" }, "geometry": { "type": "Point", "coordinates": [ 5.047599, 43.396174 ] } },
{ "type": "Feature", "properties": { "gml_id": "ETABLISSEMENTS_POLLUEURS.10814", "identifiant": "0006400935", "idetab": "10814", "nom": "PACK2PACK MARTIGUES", "codeape": "3821Z", "cp": "13500" }, "geometry": { "type": "Point", "coordinates": [ 5.047599, 43.396174 ] } },
{ "type": "Feature", "properties": { "gml_id": "ETABLISSEMENTS_POLLUEURS.11381", "identifiant": "0006401126", "idetab": "11381", "nom": "COMMUNAUTÉ D'AGLGLOMÉ OUEST ETANG BERRE", "codeape": "3811Z", "cp": "13500" }, "geometry": { "type": "Point", "coordinates": [ 5.047599, 43.396174 ] } },
{ "type": "Feature", "properties": { "gml_id": "ETABLISSEMENTS_POLLUEURS.2388", "identifiant": "0006401410", "idetab": "2388", "nom": "UNIVAR", "codeape": "", "cp": "13500" }, "geometry": { "type": "Point", "coordinates": [ 5.047599, 43.396174 ] } },
{ "type": "Feature", "properties": { "gml_id": "ETABLISSEMENTS_POLLUEURS.4856", "identifiant": "0006400948", "idetab": "4856", "nom": "GEOGAZ LAVERA", "codeape": "5210B", "cp": "13117" }, "geometry": { "type": "Point", "coordinates": [ 5.02482, 43.39732 ] } },
{ "type": "Feature", "properties": { "gml_id": "ETABLISSEMENTS_POLLUEURS.4858", "identifiant": "0006400957", "idetab": "4858", "nom": "FLUXEL", "codeape": "5224A", "cp": "13117" }, "geometry": { "type": "Point", "coordinates": [ 5.02463, 43.39735 ] } },
{ "type": "Feature", "properties": { "gml_id": "ETABLISSEMENTS_POLLUEURS.4855", "identifiant": "0006400947", "idetab": "4855", "nom": "GAZECHIM", "codeape": "2011Z", "cp": "13117" }, "geometry": { "type": "Point", "coordinates": [ 5.02463, 43.39735 ] } },
{ "type": "Feature", "properties": { "gml_id": "ETABLISSEMENTS_POLLUEURS.6755", "identifiant": "0006400959", "idetab": "6755", "nom": "PRIMAGAZ LAVERA", "codeape": "3522Z", "cp": "13117" }, "geometry": { "type": "Point", "coordinates": [ 5.007581, 43.399005 ] } },
{ "type": "Feature", "properties": { "gml_id": "ETABLISSEMENTS_POLLUEURS.12127", "identifiant": "0006400970", "idetab": "12127", "nom": "PAUL VIDAU ET COMPAGNIE", "codeape": "8122Z", "cp": "13500" }, "geometry": { "type": "Point", "coordinates": [ 5.03886, 43.39954 ] } },
{ "type": "Feature", "properties": { "gml_id": "ETABLISSEMENTS_POLLUEURS.591514", "identifiant": "0006410610", "idetab": "591514", "nom": "SEA-INVEST CARONTE", "codeape": "5224A", "cp": "13117" }, "geometry": { "type": "Point", "coordinates": [ 5.014417, 43.404971 ] } },
{ "type": "Feature", "properties": { "gml_id": "ETABLISSEMENTS_POLLUEURS.9066", "identifiant": "0006400884", "idetab": "9066", "nom": "ENTREPRISE JEAN LEFEBVRE MEDITERRANEE", "codeape": "0811Z", "cp": "13161" }, "geometry": { "type": "Point", "coordinates": [ 5.1523, 43.37434 ] } },
{ "type": "Feature", "properties": { "gml_id": "ETABLISSEMENTS_POLLUEURS.2307", "identifiant": "0006400904", "idetab": "2307", "nom": "CHAUX DE PROVENCE - SACAM", "codeape": "2352Z", "cp": "13165" }, "geometry": { "type": "Point", "coordinates": [ 5.14736, 43.38636 ] } },
{ "type": "Feature", "properties": { "gml_id": "ETABLISSEMENTS_POLLUEURS.6758", "identifiant": "0006401053", "idetab": "6758", "nom": "SRS ECO", "codeape": "3812Z", "cp": "13220" }, "geometry": { "type": "Point", "coordinates": [ 5.161293, 43.38642 ] } },
{ "type": "Feature", "properties": { "gml_id": "ETABLISSEMENTS_POLLUEURS.4831", "identifiant": "0006400572", "idetab": "4831", "nom": "COCA-COLA EUROPACIFIC PARTNERS FRANCE", "codeape": "1107B", "cp": "13170" }, "geometry": { "type": "Point", "coordinates": [ 5.34583, 43.38758 ] } },
{ "type": "Feature", "properties": { "gml_id": "ETABLISSEMENTS_POLLUEURS.7951", "identifiant": "0006400597", "idetab": "7951", "nom": "LAVASUD", "codeape": "8121Z", "cp": "13180" }, "geometry": { "type": "Point", "coordinates": [ 5.20673, 43.38887 ] } },
{ "type": "Feature", "properties": { "gml_id": "ETABLISSEMENTS_POLLUEURS.2267", "identifiant": "0006400578", "idetab": "2267", "nom": "SUEZ RV MEDITERRANEE", "codeape": "3811Z", "cp": "13170" }, "geometry": { "type": "Point", "coordinates": [ 5.32302, 43.38972 ] } },
{ "type": "Feature", "properties": { "gml_id": "ETABLISSEMENTS_POLLUEURS.13001", "identifiant": "0006400944", "idetab": "13001", "nom": "FRANCHI SAS", "codeape": "4334Z", "cp": "13161" }, "geometry": { "type": "Point", "coordinates": [ 5.140549, 43.392246 ] } },
{ "type": "Feature", "properties": { "gml_id": "ETABLISSEMENTS_POLLUEURS.12993", "identifiant": "0006400598", "idetab": "12993", "nom": "AUTO CASSE GIGNAC", "codeape": "4532Z", "cp": "13180" }, "geometry": { "type": "Point", "coordinates": [ 5.24793, 43.39684 ] } },
{ "type": "Feature", "properties": { "gml_id": "ETABLISSEMENTS_POLLUEURS.4835", "identifiant": "0006400627", "idetab": "4835", "nom": "STOGAZ", "codeape": "8292Z", "cp": "13700" }, "geometry": { "type": "Point", "coordinates": [ 5.19515, 43.39888 ] } },
{ "type": "Feature", "properties": { "gml_id": "ETABLISSEMENTS_POLLUEURS.2264", "identifiant": "0006400556", "idetab": "2264", "nom": "AEROPORT MARSEILLE PROVENCE", "codeape": "5223Z", "cp": "13700" }, "geometry": { "type": "Point", "coordinates": [ 5.25049, 43.40222 ] } },
{ "type": "Feature", "properties": { "gml_id": "ETABLISSEMENTS_POLLUEURS.2265", "identifiant": "0006400568", "idetab": "2265", "nom": "VALSUD", "codeape": "3821Z", "cp": "13240" }, "geometry": { "type": "Point", "coordinates": [ 5.34327, 43.40237 ] } },
{ "type": "Feature", "properties": { "gml_id": "ETABLISSEMENTS_POLLUEURS.592364", "identifiant": "0006400608", "idetab": "592364", "nom": "SOREAL MEDITERRANEE", "codeape": "3832Z", "cp": "13700" }, "geometry": { "type": "Point", "coordinates": [ 5.25981, 43.40398 ] } },
{ "type": "Feature", "properties": { "gml_id": "ETABLISSEMENTS_POLLUEURS.599226", "identifiant": "0006400575", "idetab": "599226", "nom": "SOCIETE INDUSTRIELLE DU LITTORAL MEDITERRANEEN POUR L ENVIRONNEMENT", "codeape": "3811Z", "cp": "13011" }, "geometry": { "type": "Point", "coordinates": [ 5.20336, 43.40558 ] } },
{ "type": "Feature", "properties": { "gml_id": "ETABLISSEMENTS_POLLUEURS.2266", "identifiant": "0006400570", "idetab": "2266", "nom": "PURFER", "codeape": "3821Z", "cp": "13700" }, "geometry": { "type": "Point", "coordinates": [ 5.21892, 43.40646 ] } },
{ "type": "Feature", "properties": { "gml_id": "ETABLISSEMENTS_POLLUEURS.2271", "identifiant": "0006400589", "idetab": "2271", "nom": "AIRBUS HELICOPTERS", "codeape": "3030Z", "cp": "13700" }, "geometry": { "type": "Point", "coordinates": [ 5.22363, 43.40689 ] } },
{ "type": "Feature", "properties": { "gml_id": "ETABLISSEMENTS_POLLUEURS.4830", "identifiant": "0006400571", "idetab": "4830", "nom": "SARL CHARROT DANIEL", "codeape": "8129B", "cp": "13170" }, "geometry": { "type": "Point", "coordinates": [ 5.310448, 43.410437 ] } },
{ "type": "Feature", "properties": { "gml_id": "ETABLISSEMENTS_POLLUEURS.10811", "identifiant": "0006400622", "idetab": "10811", "nom": "DADDI SRI", "codeape": "3832Z", "cp": "13700" }, "geometry": { "type": "Point", "coordinates": [ 5.20254, 43.41301 ] } },
{ "type": "Feature", "properties": { "gml_id": "ETABLISSEMENTS_POLLUEURS.588915", "identifiant": "0006400602", "idetab": "588915", "nom": "SOCIETE MANRIQUE", "codeape": "4511Z", "cp": "13170" }, "geometry": { "type": "Point", "coordinates": [ 5.29377, 43.41677 ] } },
{ "type": "Feature", "properties": { "gml_id": "ETABLISSEMENTS_POLLUEURS.2181", "identifiant": "0006400029", "idetab": "2181", "nom": "XPO TANK CLEANING SUD FRANCE", "codeape": "8129B", "cp": "13127" }, "geometry": { "type": "Point", "coordinates": [ 5.27045, 43.4177 ] } },
{ "type": "Feature", "properties": { "gml_id": "ETABLISSEMENTS_POLLUEURS.2356", "identifiant": "0006401056", "idetab": "2356", "nom": "TOTALENERGIES RAFFINAGE FRANCE", "codeape": "1920Z", "cp": "13161" }, "geometry": { "type": "Point", "coordinates": [ 5.15267, 43.38846 ] } },
{ "type": "Feature", "properties": { "gml_id": "ETABLISSEMENTS_POLLUEURS.10837", "identifiant": "0006401325", "idetab": "10837", "nom": "CARRIERES GONTERO PIERRE CIMEN", "codeape": "0812Z", "cp": "13161" }, "geometry": { "type": "Point", "coordinates": [ 5.10086, 43.3914 ] } },
{ "type": "Feature", "properties": { "gml_id": "ETABLISSEMENTS_POLLUEURS.13004", "identifiant": "0006401333", "idetab": "13004", "nom": "LAFARGE GRANULATS", "codeape": "0812Z", "cp": "13016" }, "geometry": { "type": "Point", "coordinates": [ 5.3042, 43.37553 ] } },
{ "type": "Feature", "properties": { "gml_id": "ETABLISSEMENTS_POLLUEURS.595120", "identifiant": "0006401572", "idetab": "595120", "nom": "CHAUX DE PROVENCE - SACAM", "codeape": "2352Z", "cp": "13161" }, "geometry": { "type": "Point", "coordinates": [ 5.1276, 43.38302 ] } },
{ "type": "Feature", "properties": { "gml_id": "ETABLISSEMENTS_POLLUEURS.11761", "identifiant": "0006401615", "idetab": "11761", "nom": "SOC D EXPLOITATION DE SABLES ET MINERAUX", "codeape": "2399Z", "cp": "13170" }, "geometry": { "type": "Point", "coordinates": [ 5.30816, 43.39626 ] } },
{ "type": "Feature", "properties": { "gml_id": "ETABLISSEMENTS_POLLUEURS.4884", "identifiant": "0006401622", "idetab": "4884", "nom": "LES CHAUX DE LA TOUR", "codeape": "2352Z", "cp": "13820" }, "geometry": { "type": "Point", "coordinates": [ 5.18596, 43.36486 ] } },
{ "type": "Feature", "properties": { "gml_id": "ETABLISSEMENTS_POLLUEURS.591952", "identifiant": "0006402095", "idetab": "591952", "nom": "PROVENCE ENROBES", "codeape": "2399Z", "cp": "13180" }, "geometry": { "type": "Point", "coordinates": [ 5.23499, 43.39092 ] } },
{ "type": "Feature", "properties": { "gml_id": "ETABLISSEMENTS_POLLUEURS.596511", "identifiant": "0006402167", "idetab": "596511", "nom": "GROUPE ANDINE", "codeape": "6820B", "cp": "13700" }, "geometry": { "type": "Point", "coordinates": [ 5.20873, 43.40988 ] } },
{ "type": "Feature", "properties": { "gml_id": "ETABLISSEMENTS_POLLUEURS.13011", "identifiant": "0006402472", "idetab": "13011", "nom": "CREALIS", "codeape": "8292Z", "cp": "13016" }, "geometry": { "type": "Point", "coordinates": [ 5.32838, 43.36117 ] } },
{ "type": "Feature", "properties": { "gml_id": "ETABLISSEMENTS_POLLUEURS.12133", "identifiant": "0006403250", "idetab": "12133", "nom": "EPUR MEDITERRANEE", "codeape": "3832Z", "cp": "13180" }, "geometry": { "type": "Point", "coordinates": [ 5.20673, 43.38887 ] } },
{ "type": "Feature", "properties": { "gml_id": "ETABLISSEMENTS_POLLUEURS.596905", "identifiant": "0006404570", "idetab": "596905", "nom": "TRAVAUX DE POMPAGE ET D'ASSAINISSEMENT", "codeape": "3812Z", "cp": "13321" }, "geometry": { "type": "Point", "coordinates": [ 5.32921, 43.35269 ] } },
{ "type": "Feature", "properties": { "gml_id": "ETABLISSEMENTS_POLLUEURS.9850", "identifiant": "0006405093", "idetab": "9850", "nom": "CASINO", "codeape": "4711F", "cp": "13751" }, "geometry": { "type": "Point", "coordinates": [ 5.310448, 43.410437 ] } },
{ "type": "Feature", "properties": { "gml_id": "ETABLISSEMENTS_POLLUEURS.598536", "identifiant": "0006405158", "idetab": "598536", "nom": "MAGELLAN AEROSPACE PROVENCE", "codeape": "2562B", "cp": "13700" }, "geometry": { "type": "Point", "coordinates": [ 5.19913, 43.39785 ] } },
{ "type": "Feature", "properties": { "gml_id": "ETABLISSEMENTS_POLLUEURS.14239", "identifiant": "0006406567", "idetab": "14239", "nom": "CENTRE DE TRANSFERT D'ENSUES", "codeape": "8411Z", "cp": "13820" }, "geometry": { "type": "Point", "coordinates": [ 5.20109, 43.356513 ] } },
{ "type": "Feature", "properties": { "gml_id": "ETABLISSEMENTS_POLLUEURS.10888", "identifiant": "0006406571", "idetab": "10888", "nom": "BIOTECHNA", "codeape": "3821Z", "cp": "13820" }, "geometry": { "type": "Point", "coordinates": [ 5.19421, 43.3557 ] } },
{ "type": "Feature", "properties": { "gml_id": "ETABLISSEMENTS_POLLUEURS.588015", "identifiant": "0006407783", "idetab": "588015", "nom": "DATRANS", "codeape": "4941B", "cp": "13180" }, "geometry": { "type": "Point", "coordinates": [ 5.20043, 43.37908 ] } },
{ "type": "Feature", "properties": { "gml_id": "ETABLISSEMENTS_POLLUEURS.588949", "identifiant": "0006412274", "idetab": "588949", "nom": "LAFARGE GRANULATS", "codeape": "0812Z", "cp": "13016" }, "geometry": { "type": "Point", "coordinates": [ 5.29004, 43.37855 ] } },
{ "type": "Feature", "properties": { "gml_id": "ETABLISSEMENTS_POLLUEURS.596860", "identifiant": "0006412373", "idetab": "596860", "nom": "CHANTIER NAVAL DE MARSEILLE", "codeape": "3315Z", "cp": "13015" }, "geometry": { "type": "Point", "coordinates": [ 5.34253, 43.37147 ] } },
{ "type": "Feature", "properties": { "gml_id": "ETABLISSEMENTS_POLLUEURS.597943", "identifiant": "0006413222", "idetab": "597943", "nom": "EMRJ", "codeape": "3832Z", "cp": "13170" }, "geometry": { "type": "Point", "coordinates": [ 5.315, 43.40177 ] } },
{ "type": "Feature", "properties": { "gml_id": "ETABLISSEMENTS_POLLUEURS.2325", "identifiant": "0006400988", "idetab": "2325", "nom": "LYONDELLBASELL SERVICES FRANCE SAS", "codeape": "7010Z", "cp": "13130" }, "geometry": { "type": "Point", "coordinates": [ 5.1651, 43.47221 ] } },
{ "type": "Feature", "properties": { "gml_id": "ETABLISSEMENTS_POLLUEURS.2328", "identifiant": "0006400992", "idetab": "2328", "nom": "RESOCLEAN  EUROPE", "codeape": "8129B", "cp": "13340" }, "geometry": { "type": "Point", "coordinates": [ 5.23734, 43.47875 ] } },
{ "type": "Feature", "properties": { "gml_id": "ETABLISSEMENTS_POLLUEURS.2321", "identifiant": "0006400979", "idetab": "2321", "nom": "CABOT FRANCE", "codeape": "2013B", "cp": "13131" }, "geometry": { "type": "Point", "coordinates": [ 5.168329, 43.47991 ] } },
{ "type": "Feature", "properties": { "gml_id": "ETABLISSEMENTS_POLLUEURS.2437", "identifiant": "0006402114", "idetab": "2437", "nom": "LINDE FRANCE", "codeape": "2011Z", "cp": "13130" }, "geometry": { "type": "Point", "coordinates": [ 5.17534, 43.48118 ] } },
{ "type": "Feature", "properties": { "gml_id": "ETABLISSEMENTS_POLLUEURS.590483", "identifiant": "0006407748", "idetab": "590483", "nom": "FAURE COLLECTE D'HUILES", "codeape": "3812Z", "cp": "13130" }, "geometry": { "type": "Point", "coordinates": [ 5.17827, 43.48259 ] } },
{ "type": "Feature", "properties": { "gml_id": "ETABLISSEMENTS_POLLUEURS.7973", "identifiant": "0006405364", "idetab": "7973", "nom": "UNIVAR (ROGNAC)", "codeape": "4675Z", "cp": "13340" }, "geometry": { "type": "Point", "coordinates": [ 5.234149, 43.487156 ] } },
{ "type": "Feature", "properties": { "gml_id": "ETABLISSEMENTS_POLLUEURS.2339", "identifiant": "0006401015", "idetab": "2339", "nom": "DÉPÔT PÉTROLIER DE LA GRANDE BASTIDE", "codeape": "5210B", "cp": "13340" }, "geometry": { "type": "Point", "coordinates": [ 5.234149, 43.487156 ] } },
{ "type": "Feature", "properties": { "gml_id": "ETABLISSEMENTS_POLLUEURS.2333", "identifiant": "0006401004", "idetab": "2333", "nom": "ROCKSON ROTO SUD IMPRESSION", "codeape": "1812Z", "cp": "13340" }, "geometry": { "type": "Point", "coordinates": [ 5.234149, 43.487156 ] } },
{ "type": "Feature", "properties": { "gml_id": "ETABLISSEMENTS_POLLUEURS.2330", "identifiant": "0006400996", "idetab": "2330", "nom": "UNIVAR", "codeape": "515L", "cp": "13340" }, "geometry": { "type": "Point", "coordinates": [ 5.234149, 43.487156 ] } },
{ "type": "Feature", "properties": { "gml_id": "ETABLISSEMENTS_POLLUEURS.2329", "identifiant": "0006400993", "idetab": "2329", "nom": "EUROPA DISCOUNT SUD", "codeape": "5210A", "cp": "13655" }, "geometry": { "type": "Point", "coordinates": [ 5.234149, 43.487156 ] } },
{ "type": "Feature", "properties": { "gml_id": "ETABLISSEMENTS_POLLUEURS.2322", "identifiant": "0006400980", "idetab": "2322", "nom": "EIFFEL INDUSTRIE", "codeape": "3311Z", "cp": "13655" }, "geometry": { "type": "Point", "coordinates": [ 5.234149, 43.487156 ] } },
{ "type": "Feature", "properties": { "gml_id": "ETABLISSEMENTS_POLLUEURS.4859", "identifiant": "0006400975", "idetab": "4859", "nom": "SRA SAVAC AGENCE PACA", "codeape": "3700Z", "cp": "13655" }, "geometry": { "type": "Point", "coordinates": [ 5.234149, 43.487156 ] } },
{ "type": "Feature", "properties": { "gml_id": "ETABLISSEMENTS_POLLUEURS.2320", "identifiant": "0006400978", "idetab": "2320", "nom": "BUTAGAZ", "codeape": "4671Z", "cp": "13340" }, "geometry": { "type": "Point", "coordinates": [ 5.21985, 43.48864 ] } },
{ "type": "Feature", "properties": { "gml_id": "ETABLISSEMENTS_POLLUEURS.2337", "identifiant": "0006401012", "idetab": "2337", "nom": "COMPAGNIE PETROCHIMIQUE DE BERRE", "codeape": "1920Z", "cp": "13130" }, "geometry": { "type": "Point", "coordinates": [ 5.185805, 43.489793 ] } },
{ "type": "Feature", "properties": { "gml_id": "ETABLISSEMENTS_POLLUEURS.2407", "identifiant": "0006401732", "idetab": "2407", "nom": "ORTEC INDUSTRIE", "codeape": "3812Z", "cp": "13130" }, "geometry": { "type": "Point", "coordinates": [ 5.19248, 43.49042 ] } },
{ "type": "Feature", "properties": { "gml_id": "ETABLISSEMENTS_POLLUEURS.9074", "identifiant": "0006406274", "idetab": "9074", "nom": "SPUR ENVIRONNEMENT", "codeape": "3822Z", "cp": "13655" }, "geometry": { "type": "Point", "coordinates": [ 5.20677, 43.49592 ] } },
{ "type": "Feature", "properties": { "gml_id": "ETABLISSEMENTS_POLLUEURS.7968", "identifiant": "0006404360", "idetab": "7968", "nom": "DALOREC", "codeape": "3832Z", "cp": "13340" }, "geometry": { "type": "Point", "coordinates": [ 5.20677, 43.49592 ] } },
{ "type": "Feature", "properties": { "gml_id": "ETABLISSEMENTS_POLLUEURS.13030", "identifiant": "0006408541", "idetab": "13030", "nom": "SEVIA", "codeape": "3812Z", "cp": "13340" }, "geometry": { "type": "Point", "coordinates": [ 5.20677, 43.49592 ] } },
{ "type": "Feature", "properties": { "gml_id": "ETABLISSEMENTS_POLLUEURS.2338", "identifiant": "0006401013", "idetab": "2338", "nom": "SOLAMAT-MEREX", "codeape": "3822Z", "cp": "13655" }, "geometry": { "type": "Point", "coordinates": [ 5.20677, 43.49592 ] } },
{ "type": "Feature", "properties": { "gml_id": "ETABLISSEMENTS_POLLUEURS.2332", "identifiant": "0006401003", "idetab": "2332", "nom": "GCA LOGISTICS MARSEILLE", "codeape": "5210B", "cp": "13340" }, "geometry": { "type": "Point", "coordinates": [ 5.23108, 43.49701 ] } },
{ "type": "Feature", "properties": { "gml_id": "ETABLISSEMENTS_POLLUEURS.4862", "identifiant": "0006401008", "idetab": "4862", "nom": "BASELL POLYOLEFINES FRANCE", "codeape": "2016Z", "cp": "13131" }, "geometry": { "type": "Point", "coordinates": [ 5.16206, 43.50295 ] } },
{ "type": "Feature", "properties": { "gml_id": "ETABLISSEMENTS_POLLUEURS.2335", "identifiant": "0006401007", "idetab": "2335", "nom": "COMPAGNIE PETROCHIMIQUE DE BERRE", "codeape": "1920Z", "cp": "13131" }, "geometry": { "type": "Point", "coordinates": [ 5.16206, 43.50295 ] } },
{ "type": "Feature", "properties": { "gml_id": "ETABLISSEMENTS_POLLUEURS.2336", "identifiant": "0006401011", "idetab": "2336", "nom": "ORION ENGINEERED CARBONS FRANCE SAS", "codeape": "2013B", "cp": "13130" }, "geometry": { "type": "Point", "coordinates": [ 5.18573, 43.51159 ] } },
{ "type": "Feature", "properties": { "gml_id": "ETABLISSEMENTS_POLLUEURS.6756", "identifiant": "0006401000", "idetab": "6756", "nom": "ORTEC INDUSTRIE", "codeape": "3812Z", "cp": "13340" }, "geometry": { "type": "Point", "coordinates": [ 5.22695, 43.5127 ] } },
{ "type": "Feature", "properties": { "gml_id": "ETABLISSEMENTS_POLLUEURS.9069", "identifiant": "0006400976", "idetab": "9069", "nom": "SOC BERARD", "codeape": "4531Z", "cp": "13880" }, "geometry": { "type": "Point", "coordinates": [ 5.23954, 43.5137 ] } },
{ "type": "Feature", "properties": { "gml_id": "ETABLISSEMENTS_POLLUEURS.2324", "identifiant": "0006400983", "idetab": "2324", "nom": "COOPERATIVE AGRICOLE DE BERRE", "codeape": "4675Z", "cp": "13130" }, "geometry": { "type": "Point", "coordinates": [ 5.19171, 43.533802 ] } },
{ "type": "Feature", "properties": { "gml_id": "ETABLISSEMENTS_POLLUEURS.6759", "identifiant": "0006401075", "idetab": "6759", "nom": "ADF MAINTENANCE INDUSTRIELLE", "codeape": "", "cp": "13580" }, "geometry": { "type": "Point", "coordinates": [ 5.193379, 43.550026 ] } },
{ "type": "Feature", "properties": { "gml_id": "ETABLISSEMENTS_POLLUEURS.11297", "identifiant": "0006401065", "idetab": "11297", "nom": "KARGO", "codeape": "275G", "cp": "13111" }, "geometry": { "type": "Point", "coordinates": [ 5.250897, 43.557708 ] } },
{ "type": "Feature", "properties": { "gml_id": "ETABLISSEMENTS_POLLUEURS.13002", "identifiant": "0006401312", "idetab": "13002", "nom": "LAFARGE GRANULATS", "codeape": "0812Z", "cp": "13580" }, "geometry": { "type": "Point", "coordinates": [ 5.22048, 43.5639 ] } },
{ "type": "Feature", "properties": { "gml_id": "ETABLISSEMENTS_POLLUEURS.7960", "identifiant": "0006402022", "idetab": "7960", "nom": "SMA VAUTUBIERE", "codeape": "3821Z", "cp": "13580" }, "geometry": { "type": "Point", "coordinates": [ 5.20592, 43.57424 ] } },
{ "type": "Feature", "properties": { "gml_id": "ETABLISSEMENTS_POLLUEURS.4898", "identifiant": "0006402012", "idetab": "4898", "nom": "ORTEC GENERALE DE DEPOLLUTION", "codeape": "3900Z", "cp": "13680" }, "geometry": { "type": "Point", "coordinates": [ 5.20005, 43.57966 ] } },
{ "type": "Feature", "properties": { "gml_id": "ETABLISSEMENTS_POLLUEURS.10841", "identifiant": "0006401583", "idetab": "10841", "nom": "SCA LES VIGNERONS DU ROY RENE", "codeape": "1102B", "cp": "13410" }, "geometry": { "type": "Point", "coordinates": [ 5.263247, 43.652038 ] } },
{ "type": "Feature", "properties": { "gml_id": "ETABLISSEMENTS_POLLUEURS.598424", "identifiant": "0006410795", "idetab": "598424", "nom": "SAFETY - KLEEN FRANCE", "codeape": "4669B", "cp": "13127" }, "geometry": { "type": "Point", "coordinates": [ 5.22832, 43.47732 ] } },
{ "type": "Feature", "properties": { "gml_id": "ETABLISSEMENTS_POLLUEURS.592187", "identifiant": "0006410871", "idetab": "592187", "nom": "LYONDELLBASELL SERVICES FRANCE SAS", "codeape": "7010Z", "cp": "13131" }, "geometry": { "type": "Point", "coordinates": [ 5.16206, 43.50295 ] } },
{ "type": "Feature", "properties": { "gml_id": "ETABLISSEMENTS_POLLUEURS.588936", "identifiant": "0006412095", "idetab": "588936", "nom": "SARL PRO FER MET", "codeape": "3832Z", "cp": "13340" }, "geometry": { "type": "Point", "coordinates": [ 5.20677, 43.49592 ] } },
{ "type": "Feature", "properties": { "gml_id": "ETABLISSEMENTS_POLLUEURS.589765", "identifiant": "0006412235", "idetab": "589765", "nom": "ORTEC GENERALE DE DEPOLLUTION", "codeape": "3900Z", "cp": "13680" }, "geometry": { "type": "Point", "coordinates": [ 5.14971, 43.58416 ] } },
{ "type": "Feature", "properties": { "gml_id": "ETABLISSEMENTS_POLLUEURS.588957", "identifiant": "0006412469", "idetab": "588957", "nom": "ISDI CALVIN FRÈRES", "codeape": "4211Z", "cp": "13880" }, "geometry": { "type": "Point", "coordinates": [ 5.258091, 43.521585 ] } },
{ "type": "Feature", "properties": { "gml_id": "ETABLISSEMENTS_POLLUEURS.599079", "identifiant": "0006412947", "idetab": "599079", "nom": "GEOSEL MANOSQUE", "codeape": "5210B", "cp": "13340" }, "geometry": { "type": "Point", "coordinates": [ 5.20689, 43.5 ] } },
{ "type": "Feature", "properties": { "gml_id": "ETABLISSEMENTS_POLLUEURS.4770", "identifiant": "0006400026", "idetab": "4770", "nom": "AIR LIQUIDE FRANCE INDUSTRIE", "codeape": "2011Z", "cp": "13127" }, "geometry": { "type": "Point", "coordinates": [ 5.25251, 43.42389 ] } },
{ "type": "Feature", "properties": { "gml_id": "ETABLISSEMENTS_POLLUEURS.14241", "identifiant": "0006407044", "idetab": "14241", "nom": "VALSUD", "codeape": "3821Z", "cp": "13127" }, "geometry": { "type": "Point", "coordinates": [ 5.243552, 43.424972 ] } },
{ "type": "Feature", "properties": { "gml_id": "ETABLISSEMENTS_POLLUEURS.590473", "identifiant": "0006400048", "idetab": "590473", "nom": "EMULSIONS DE PROVENCE", "codeape": "2016Z", "cp": "13127" }, "geometry": { "type": "Point", "coordinates": [ 5.2435, 43.42668 ] } },
{ "type": "Feature", "properties": { "gml_id": "ETABLISSEMENTS_POLLUEURS.597920", "identifiant": "0006400042", "idetab": "597920", "nom": "COLAS MIDI MEDITERRANEE - USINE LMS", "codeape": "452P", "cp": "13127" }, "geometry": { "type": "Point", "coordinates": [ 5.239634, 43.429328 ] } },
{ "type": "Feature", "properties": { "gml_id": "ETABLISSEMENTS_POLLUEURS.589745", "identifiant": "0006400053", "idetab": "589745", "nom": "CEGELEC INDUSTRIE SUD EST", "codeape": "4321A", "cp": "13127" }, "geometry": { "type": "Point", "coordinates": [ 5.2579, 43.42938 ] } },
{ "type": "Feature", "properties": { "gml_id": "ETABLISSEMENTS_POLLUEURS.4773", "identifiant": "0006400036", "idetab": "4773", "nom": "BRENNTAG SA", "codeape": "4675Z", "cp": "13127" }, "geometry": { "type": "Point", "coordinates": [ 5.2579, 43.42938 ] } },
{ "type": "Feature", "properties": { "gml_id": "ETABLISSEMENTS_POLLUEURS.588005", "identifiant": "0006400078", "idetab": "588005", "nom": "SURPLUS AUTOS", "codeape": "4532Z", "cp": "13127" }, "geometry": { "type": "Point", "coordinates": [ 5.2579, 43.42938 ] } },
{ "type": "Feature", "properties": { "gml_id": "ETABLISSEMENTS_POLLUEURS.14221", "identifiant": "0006400034", "idetab": "14221", "nom": "AUTO-CRAC", "codeape": "4532Z", "cp": "13127" }, "geometry": { "type": "Point", "coordinates": [ 5.2579, 43.42938 ] } },
{ "type": "Feature", "properties": { "gml_id": "ETABLISSEMENTS_POLLUEURS.11385", "identifiant": "0006404566", "idetab": "11385", "nom": "VALECOBOIS PROVENCE", "codeape": "3821Z", "cp": "13127" }, "geometry": { "type": "Point", "coordinates": [ 5.2579, 43.42938 ] } },
{ "type": "Feature", "properties": { "gml_id": "ETABLISSEMENTS_POLLUEURS.11383", "identifiant": "0006401361", "idetab": "11383", "nom": "PROVENCALE DES FERRAILLES", "codeape": "3831Z", "cp": "13127" }, "geometry": { "type": "Point", "coordinates": [ 5.24541, 43.43277 ] } },
{ "type": "Feature", "properties": { "gml_id": "ETABLISSEMENTS_POLLUEURS.596476", "identifiant": "0006400066", "idetab": "596476", "nom": "MB RECYCLAGE", "codeape": "3832Z", "cp": "13127" }, "geometry": { "type": "Point", "coordinates": [ 5.24137, 43.44257 ] } },
{ "type": "Feature", "properties": { "gml_id": "ETABLISSEMENTS_POLLUEURS.4906", "identifiant": "0006402241", "idetab": "4906", "nom": "AVITAIR", "codeape": "5223Z", "cp": "13700" }, "geometry": { "type": "Point", "coordinates": [ 5.21356, 43.44507 ] } },
{ "type": "Feature", "properties": { "gml_id": "ETABLISSEMENTS_POLLUEURS.4771", "identifiant": "0006400031", "idetab": "4771", "nom": "ARBOIS ENROBES", "codeape": "2399Z", "cp": "13127" }, "geometry": { "type": "Point", "coordinates": [ 5.26335, 43.45 ] } },
{ "type": "Feature", "properties": { "gml_id": "ETABLISSEMENTS_POLLUEURS.2417", "identifiant": "0006401813", "idetab": "2417", "nom": "ELECTROLYSE PHOCEENNE SAS", "codeape": "2561Z", "cp": "13127" }, "geometry": { "type": "Point", "coordinates": [ 5.248813, 43.459782 ] } },
{ "type": "Feature", "properties": { "gml_id": "ETABLISSEMENTS_POLLUEURS.12122", "identifiant": "0006400035", "idetab": "12122", "nom": "BERARD SA", "codeape": "4677Z", "cp": "13127" }, "geometry": { "type": "Point", "coordinates": [ 5.248813, 43.459782 ] } },
{ "type": "Feature", "properties": { "gml_id": "ETABLISSEMENTS_POLLUEURS.11735", "identifiant": "0006400047", "idetab": "11735", "nom": "EMIS", "codeape": "8122Z", "cp": "13127" }, "geometry": { "type": "Point", "coordinates": [ 5.248813, 43.459782 ] } },
{ "type": "Feature", "properties": { "gml_id": "ETABLISSEMENTS_POLLUEURS.4775", "identifiant": "0006400062", "idetab": "4775", "nom": "PROVENCE HUILES", "codeape": "1041B", "cp": "13127" }, "geometry": { "type": "Point", "coordinates": [ 5.248813, 43.459782 ] } },
{ "type": "Feature", "properties": { "gml_id": "ETABLISSEMENTS_POLLUEURS.12327", "identifiant": "0006400043", "idetab": "12327", "nom": "CARROSSERIE CORSETTI", "codeape": "2920Z", "cp": "13127" }, "geometry": { "type": "Point", "coordinates": [ 5.248813, 43.459782 ] } },
{ "type": "Feature", "properties": { "gml_id": "ETABLISSEMENTS_POLLUEURS.12981", "identifiant": "0006400060", "idetab": "12981", "nom": "PAPREC MEDITERRANEE", "codeape": "3832Z", "cp": "13127" }, "geometry": { "type": "Point", "coordinates": [ 5.23144, 43.46418 ] } },
{ "type": "Feature", "properties": { "gml_id": "ETABLISSEMENTS_POLLUEURS.13016", "identifiant": "0006403729", "idetab": "13016", "nom": "PROVENCE MOTO CASSE", "codeape": "4520A", "cp": "13127" }, "geometry": { "type": "Point", "coordinates": [ 5.23282, 43.46859 ] } },
{ "type": "Feature", "properties": { "gml_id": "ETABLISSEMENTS_POLLUEURS.595980", "identifiant": "0009071303", "idetab": "595980", "nom": "SAUR", "codeape": "3700Z", "cp": "13300" }, "geometry": { "type": "Point", "coordinates": [ 5.245229, 43.422081 ] } },
{ "type": "Feature", "properties": { "gml_id": "ETABLISSEMENTS_POLLUEURS.4904", "identifiant": "0006402235", "idetab": "4904", "nom": "ORANGE", "codeape": "6110Z", "cp": "13003" }, "geometry": { "type": "Point", "coordinates": [ 5.37427, 43.31577 ] } },
{ "type": "Feature", "properties": { "gml_id": "ETABLISSEMENTS_POLLUEURS.12132", "identifiant": "0006402768", "idetab": "12132", "nom": "SCI SOGARIS MARSEILLE PROVENCE", "codeape": "6820B", "cp": "13002" }, "geometry": { "type": "Point", "coordinates": [ 5.36704, 43.31623 ] } },
{ "type": "Feature", "properties": { "gml_id": "ETABLISSEMENTS_POLLUEURS.4836", "identifiant": "0006400641", "idetab": "4836", "nom": "NOUVELLE COMPAGNIE DES DETERGENTS ET DU SAVON DE MARSEILLE", "codeape": "2042Z", "cp": "13014" }, "geometry": { "type": "Point", "coordinates": [ 5.390372, 43.321118 ] } },
{ "type": "Feature", "properties": { "gml_id": "ETABLISSEMENTS_POLLUEURS.4839", "identifiant": "0006400688", "idetab": "4839", "nom": "PANZANI", "codeape": "1061B", "cp": "13013" }, "geometry": { "type": "Point", "coordinates": [ 5.40355, 43.32421 ] } },
{ "type": "Feature", "properties": { "gml_id": "ETABLISSEMENTS_POLLUEURS.4886", "identifiant": "0006401642", "idetab": "4886", "nom": "PANZANI", "codeape": "1061B", "cp": "13002" }, "geometry": { "type": "Point", "coordinates": [ 5.35547, 43.33008 ] } },
{ "type": "Feature", "properties": { "gml_id": "ETABLISSEMENTS_POLLUEURS.11744", "identifiant": "0006400678", "idetab": "11744", "nom": "PROVENCALE DES FERRAILLES", "codeape": "3831Z", "cp": "13014" }, "geometry": { "type": "Point", "coordinates": [ 5.37144, 43.33049 ] } },
{ "type": "Feature", "properties": { "gml_id": "ETABLISSEMENTS_POLLUEURS.4885", "identifiant": "0006401641", "idetab": "4885", "nom": "HARIBO RICQLES ZAN", "codeape": "1082Z", "cp": "13014" }, "geometry": { "type": "Point", "coordinates": [ 5.37595, 43.33157 ] } },
{ "type": "Feature", "properties": { "gml_id": "ETABLISSEMENTS_POLLUEURS.2277", "identifiant": "0006400650", "idetab": "2277", "nom": "CEREXAGRI", "codeape": "2020Z", "cp": "13014" }, "geometry": { "type": "Point", "coordinates": [ 5.38043, 43.3343 ] } },
{ "type": "Feature", "properties": { "gml_id": "ETABLISSEMENTS_POLLUEURS.588916", "identifiant": "0006400707", "idetab": "588916", "nom": "TRANSPORTS ET ENTRETIEN PHOCEENS", "codeape": "3812Z", "cp": "13014" }, "geometry": { "type": "Point", "coordinates": [ 5.37103, 43.33513 ] } },
{ "type": "Feature", "properties": { "gml_id": "ETABLISSEMENTS_POLLUEURS.13015", "identifiant": "0006403668", "idetab": "13015", "nom": "REGIE DES TRANSPORTS METROPOLITAINS", "codeape": "4931Z", "cp": "13013" }, "geometry": { "type": "Point", "coordinates": [ 5.4285, 43.33591 ] } },
{ "type": "Feature", "properties": { "gml_id": "ETABLISSEMENTS_POLLUEURS.4834", "identifiant": "0006400619", "idetab": "4834", "nom": "SAINT LOUIS SUCRE", "codeape": "1081Z", "cp": "13015" }, "geometry": { "type": "Point", "coordinates": [ 5.36324, 43.33616 ] } },
{ "type": "Feature", "properties": { "gml_id": "ETABLISSEMENTS_POLLUEURS.2279", "identifiant": "0006400656", "idetab": "2279", "nom": "PURFER", "codeape": "3832Z", "cp": "13014" }, "geometry": { "type": "Point", "coordinates": [ 5.37348, 43.33776 ] } },
{ "type": "Feature", "properties": { "gml_id": "ETABLISSEMENTS_POLLUEURS.9065", "identifiant": "0006400685", "idetab": "9065", "nom": "SOCIETE DES EAUX DE MARSEILLE SEM", "codeape": "1813Z", "cp": "13014" }, "geometry": { "type": "Point", "coordinates": [ 5.404994, 43.338605 ] } },
{ "type": "Feature", "properties": { "gml_id": "ETABLISSEMENTS_POLLUEURS.599235", "identifiant": "0006406581", "idetab": "599235", "nom": "SOCIETE INDUSTRIELLE DU LITTORAL MEDITERRANEEN POUR L ENVIRONNEMENT", "codeape": "3811Z", "cp": "13015" }, "geometry": { "type": "Point", "coordinates": [ 5.36496, 43.33933 ] } },
{ "type": "Feature", "properties": { "gml_id": "ETABLISSEMENTS_POLLUEURS.596707", "identifiant": "0006409732", "idetab": "596707", "nom": "DECHETTERIE CHATEAU GOMBERT", "codeape": "8411Z", "cp": "13013" }, "geometry": { "type": "Point", "coordinates": [ 5.443942, 43.340828 ] } },
{ "type": "Feature", "properties": { "gml_id": "ETABLISSEMENTS_POLLUEURS.4844", "identifiant": "0006400776", "idetab": "4844", "nom": "STM", "codeape": "2561Z", "cp": "13015" }, "geometry": { "type": "Point", "coordinates": [ 5.3555, 43.34708 ] } },
{ "type": "Feature", "properties": { "gml_id": "ETABLISSEMENTS_POLLUEURS.12995", "identifiant": "0006400699", "idetab": "12995", "nom": "SPUR ENVIRONNEMENT", "codeape": "3812Z", "cp": "13013" }, "geometry": { "type": "Point", "coordinates": [ 5.43546, 43.35188 ] } },
{ "type": "Feature", "properties": { "gml_id": "ETABLISSEMENTS_POLLUEURS.4914", "identifiant": "0006403649", "idetab": "4914", "nom": "BMI PRODUCTION FRANCE", "codeape": "2332Z", "cp": "13016" }, "geometry": { "type": "Point", "coordinates": [ 5.35375, 43.35213 ] } },
{ "type": "Feature", "properties": { "gml_id": "ETABLISSEMENTS_POLLUEURS.596610", "identifiant": "0006410001", "idetab": "596610", "nom": "CENTRE HOSPITALIER REGIONAL DE MARSEILLE", "codeape": "8610Z", "cp": "13016" }, "geometry": { "type": "Point", "coordinates": [ 5.35375, 43.35213 ] } },
{ "type": "Feature", "properties": { "gml_id": "ETABLISSEMENTS_POLLUEURS.11758", "identifiant": "0006401331", "idetab": "11758", "nom": "CARRIERES ET BETONS BRONZO PERASSO CBBP", "codeape": "2363Z", "cp": "13014" }, "geometry": { "type": "Point", "coordinates": [ 5.39246, 43.35392 ] } },
{ "type": "Feature", "properties": { "gml_id": "ETABLISSEMENTS_POLLUEURS.596360", "identifiant": "0006400687", "idetab": "596360", "nom": "SEM COPRO", "codeape": "1813Z", "cp": "13014" }, "geometry": { "type": "Point", "coordinates": [ 5.409461, 43.36169 ] } },
{ "type": "Feature", "properties": { "gml_id": "ETABLISSEMENTS_POLLUEURS.589752", "identifiant": "0006404176", "idetab": "589752", "nom": "CHANTIER NAVAL DE MARSEILLE", "codeape": "3315Z", "cp": "13015" }, "geometry": { "type": "Point", "coordinates": [ 5.37204, 43.36229 ] } },
{ "type": "Feature", "properties": { "gml_id": "ETABLISSEMENTS_POLLUEURS.588952", "identifiant": "0006412295", "idetab": "588952", "nom": "COMMERCIALISATION DECHARGE ET TRAVAUX PUBLICS", "codeape": "3821Z", "cp": "13013" }, "geometry": { "type": "Point", "coordinates": [ 5.4463, 43.36543 ] } },
{ "type": "Feature", "properties": { "gml_id": "ETABLISSEMENTS_POLLUEURS.7954", "identifiant": "0006400791", "idetab": "7954", "nom": "CENTRE HOSPITALIER REGIONAL DE MARSEILLE", "codeape": "8610Z", "cp": "13015" }, "geometry": { "type": "Point", "coordinates": [ 5.36172, 43.37971 ] } },
{ "type": "Feature", "properties": { "gml_id": "ETABLISSEMENTS_POLLUEURS.591997", "identifiant": "0006413104", "idetab": "591997", "nom": "INTERXION FRANCE", "codeape": "6311Z", "cp": "13015" }, "geometry": { "type": "Point", "coordinates": [ 5.347, 43.338 ] } },
{ "type": "Feature", "properties": { "gml_id": "ETABLISSEMENTS_POLLUEURS.596974", "identifiant": "0006413566", "idetab": "596974", "nom": "INTERXION FRANCE", "codeape": "6311Z", "cp": "13015" }, "geometry": { "type": "Point", "coordinates": [ 5.35609, 43.37568 ] } },
{ "type": "Feature", "properties": { "gml_id": "ETABLISSEMENTS_POLLUEURS.10275", "identifiant": "0009000140", "idetab": "10275", "nom": "CENTRE D'EXPERTISE TECHNIQUE DU SERVICE DE L'ÉNERGIE OPÉRATIONNELLE", "codeape": "8422Z", "cp": "13014" }, "geometry": { "type": "Point", "coordinates": [ 5.39189, 43.33544 ] } },
{ "type": "Feature", "properties": { "gml_id": "ETABLISSEMENTS_POLLUEURS.13311", "identifiant": "0009000211", "idetab": "13311", "nom": "ETABLISSEMENT DE RAVITAILLEMENT SANITAIRE DES ARMÉES DE MARSEILLE", "codeape": "8422Z", "cp": "13014" }, "geometry": { "type": "Point", "coordinates": [ 5.3862, 43.33416 ] } },
{ "type": "Feature", "properties": { "gml_id": "ETABLISSEMENTS_POLLUEURS.597420", "identifiant": "0009000376", "idetab": "597420", "nom": "ELOCA MARSEILLE", "codeape": "5210A", "cp": "13014" }, "geometry": { "type": "Point", "coordinates": [ 5.38578, 43.33672 ] } },
{ "type": "Feature", "properties": { "gml_id": "ETABLISSEMENTS_POLLUEURS.588025", "identifiant": "06402237", "idetab": "588025", "nom": "INTERXION MRS1", "codeape": "6311Z", "cp": "13003" }, "geometry": { "type": "Point", "coordinates": [ 5.375249, 43.310958 ] } },
{ "type": "Feature", "properties": { "gml_id": "ETABLISSEMENTS_POLLUEURS.588027", "identifiant": "06404176", "idetab": "588027", "nom": "CHANTIER NAVAL DE MARSEILLE", "codeape": "3315Z", "cp": "13344" }, "geometry": { "type": "Point", "coordinates": [ 5.375249, 43.310958 ] } },
{ "type": "Feature", "properties": { "gml_id": "ETABLISSEMENTS_POLLUEURS.598281", "identifiant": "0006400618", "idetab": "598281", "nom": "SPI PHARMA", "codeape": "2013B", "cp": "13240" }, "geometry": { "type": "Point", "coordinates": [ 5.37286, 43.39522 ] } },
{ "type": "Feature", "properties": { "gml_id": "ETABLISSEMENTS_POLLUEURS.2290", "identifiant": "0006400790", "idetab": "2290", "nom": "CARLO ERBA REAGENTS", "codeape": "2059Z", "cp": "13124" }, "geometry": { "type": "Point", "coordinates": [ 5.56268, 43.39697 ] } },
{ "type": "Feature", "properties": { "gml_id": "ETABLISSEMENTS_POLLUEURS.2269", "identifiant": "0006400581", "idetab": "2269", "nom": "DUCLOS ENVIRONNEMENT", "codeape": "2561Z", "cp": "13240" }, "geometry": { "type": "Point", "coordinates": [ 5.364724, 43.397135 ] } },
{ "type": "Feature", "properties": { "gml_id": "ETABLISSEMENTS_POLLUEURS.597942", "identifiant": "0006400558", "idetab": "597942", "nom": "SOCIETE A.E.S.", "codeape": "4532Z", "cp": "13240" }, "geometry": { "type": "Point", "coordinates": [ 5.36694, 43.41447 ] } },
{ "type": "Feature", "properties": { "gml_id": "ETABLISSEMENTS_POLLUEURS.2397", "identifiant": "0006401567", "idetab": "2397", "nom": "LAFARGE CIMENTS", "codeape": "2351Z", "cp": "13320" }, "geometry": { "type": "Point", "coordinates": [ 5.39075, 43.42341 ] } },
{ "type": "Feature", "properties": { "gml_id": "ETABLISSEMENTS_POLLUEURS.2368", "identifiant": "0006401124", "idetab": "2368", "nom": "SOCIETE D'ECONOMIE MIXTE D'AMENAGEMENT DE GARDANNE ET SA REGION", "codeape": "8299Z", "cp": "13120" }, "geometry": { "type": "Point", "coordinates": [ 5.51101, 43.4486 ] } },
{ "type": "Feature", "properties": { "gml_id": "ETABLISSEMENTS_POLLUEURS.8672", "identifiant": "0006400002", "idetab": "8672", "nom": "ALTEO GARDANNE", "codeape": "2442Z", "cp": "13320" }, "geometry": { "type": "Point", "coordinates": [ 5.41091, 43.45206 ] } },
{ "type": "Feature", "properties": { "gml_id": "ETABLISSEMENTS_POLLUEURS.590481", "identifiant": "0006406432", "idetab": "590481", "nom": "RHONE ALPES ARGENT", "codeape": "3832Z", "cp": "13120" }, "geometry": { "type": "Point", "coordinates": [ 5.469508, 43.453318 ] } },
{ "type": "Feature", "properties": { "gml_id": "ETABLISSEMENTS_POLLUEURS.14240", "identifiant": "0006406815", "idetab": "14240", "nom": "DURANCE GRANULATS", "codeape": "0811Z", "cp": "13120" }, "geometry": { "type": "Point", "coordinates": [ 5.49841, 43.45587 ] } },
{ "type": "Feature", "properties": { "gml_id": "ETABLISSEMENTS_POLLUEURS.588953", "identifiant": "0006412333", "idetab": "588953", "nom": "COMMUNE DE GARDANNE", "codeape": "8411Z", "cp": "13120" }, "geometry": { "type": "Point", "coordinates": [ 5.49661, 43.45735 ] } },
{ "type": "Feature", "properties": { "gml_id": "ETABLISSEMENTS_POLLUEURS.595258", "identifiant": "0006409111", "idetab": "595258", "nom": "VALSUD", "codeape": "3821Z", "cp": "13710" }, "geometry": { "type": "Point", "coordinates": [ 5.55335, 43.45982 ] } },
{ "type": "Feature", "properties": { "gml_id": "ETABLISSEMENTS_POLLUEURS.598601", "identifiant": "0006411514", "idetab": "598601", "nom": "INCINERIS", "codeape": "9603Z", "cp": "13120" }, "geometry": { "type": "Point", "coordinates": [ 5.46674, 43.46147 ] } },
{ "type": "Feature", "properties": { "gml_id": "ETABLISSEMENTS_POLLUEURS.599076", "identifiant": "0006404617", "idetab": "599076", "nom": "MAT'ILD", "codeape": "3832Z", "cp": "13120" }, "geometry": { "type": "Point", "coordinates": [ 5.47108, 43.46927 ] } },
{ "type": "Feature", "properties": { "gml_id": "ETABLISSEMENTS_POLLUEURS.4901", "identifiant": "0006402175", "idetab": "4901", "nom": "GAZELENERGIE GENERATION", "codeape": "3511Z", "cp": "13710" }, "geometry": { "type": "Point", "coordinates": [ 5.52079, 43.4707 ] } },
{ "type": "Feature", "properties": { "gml_id": "ETABLISSEMENTS_POLLUEURS.589759", "identifiant": "0006412101", "idetab": "589759", "nom": "SARL SAUGAL FERS", "codeape": "3832Z", "cp": "13590" }, "geometry": { "type": "Point", "coordinates": [ 5.48742, 43.47245 ] } },
{ "type": "Feature", "properties": { "gml_id": "ETABLISSEMENTS_POLLUEURS.598491", "identifiant": "0006407697", "idetab": "598491", "nom": "MAJ", "codeape": "7729Z", "cp": "13290" }, "geometry": { "type": "Point", "coordinates": [ 5.38606, 43.4802 ] } },
{ "type": "Feature", "properties": { "gml_id": "ETABLISSEMENTS_POLLUEURS.589756", "identifiant": "0006409692", "idetab": "589756", "nom": "BIMBO QSR FLEURY", "codeape": "1071A", "cp": "13100" }, "geometry": { "type": "Point", "coordinates": [ 5.39317, 43.48201 ] } },
{ "type": "Feature", "properties": { "gml_id": "ETABLISSEMENTS_POLLUEURS.11770", "identifiant": "0006402675", "idetab": "11770", "nom": "EASYDIS", "codeape": "5210B", "cp": "13290" }, "geometry": { "type": "Point", "coordinates": [ 5.376657, 43.483248 ] } },
{ "type": "Feature", "properties": { "gml_id": "ETABLISSEMENTS_POLLUEURS.598544", "identifiant": "0006412340", "idetab": "598544", "nom": "EASYDIS", "codeape": "5210B", "cp": "13290" }, "geometry": { "type": "Point", "coordinates": [ 5.37391, 43.49041 ] } },
{ "type": "Feature", "properties": { "gml_id": "ETABLISSEMENTS_POLLUEURS.2444", "identifiant": "0006402297", "idetab": "2444", "nom": "LA PIECE AUTOMOBILE 13", "codeape": "4511Z", "cp": "13080" }, "geometry": { "type": "Point", "coordinates": [ 5.367163, 43.498551 ] } },
{ "type": "Feature", "properties": { "gml_id": "ETABLISSEMENTS_POLLUEURS.10899", "identifiant": "0006408650", "idetab": "10899", "nom": "REGIE DES EAUX DU PAYS D'AIX", "codeape": "3700Z", "cp": "13080" }, "geometry": { "type": "Point", "coordinates": [ 5.40938, 43.50819 ] } },
{ "type": "Feature", "properties": { "gml_id": "ETABLISSEMENTS_POLLUEURS.588004", "identifiant": "0006400018", "idetab": "588004", "nom": "ORTEC GENERALE DE DEPOLLUTION", "codeape": "3900Z", "cp": "13547" }, "geometry": { "type": "Point", "coordinates": [ 5.36944, 43.51316 ] } },
{ "type": "Feature", "properties": { "gml_id": "ETABLISSEMENTS_POLLUEURS.2174", "identifiant": "0006400007", "idetab": "2174", "nom": "AIX EN PROVENCE ENERGIE ENVIRONNEMENT", "codeape": "3530Z", "cp": "13090" }, "geometry": { "type": "Point", "coordinates": [ 5.43365, 43.5183 ] } },
{ "type": "Feature", "properties": { "gml_id": "ETABLISSEMENTS_POLLUEURS.12337", "identifiant": "0006402671", "idetab": "12337", "nom": "GROUPEMENT DE COOPERATION SANITAIRE DU PAYS D'AIX", "codeape": "8412Z", "cp": "13617" }, "geometry": { "type": "Point", "coordinates": [ 5.43987, 43.5212 ] } },
{ "type": "Feature", "properties": { "gml_id": "ETABLISSEMENTS_POLLUEURS.11778", "identifiant": "0006406563", "idetab": "11778", "nom": "CENTRE DE TRANSFERT", "codeape": "8411Z", "cp": "13090" }, "geometry": { "type": "Point", "coordinates": [ 5.445539, 43.525713 ] } },
{ "type": "Feature", "properties": { "gml_id": "ETABLISSEMENTS_POLLUEURS.2413", "identifiant": "0006401791", "idetab": "2413", "nom": "ADRIAN INDUSTRIES", "codeape": "246E", "cp": "13591" }, "geometry": { "type": "Point", "coordinates": [ 5.445539, 43.525713 ] } },
{ "type": "Feature", "properties": { "gml_id": "ETABLISSEMENTS_POLLUEURS.4873", "identifiant": "0006401301", "idetab": "4873", "nom": "LAFARGE COUVERTURE", "codeape": "264B", "cp": "13545" }, "geometry": { "type": "Point", "coordinates": [ 5.445539, 43.525713 ] } },
{ "type": "Feature", "properties": { "gml_id": "ETABLISSEMENTS_POLLUEURS.9830", "identifiant": "0006401122", "idetab": "9830", "nom": "METROPOLE D'AIX-MARSEILLE-PROVENCE", "codeape": "3811Z", "cp": "13626" }, "geometry": { "type": "Point", "coordinates": [ 5.4425, 43.52952 ] } },
{ "type": "Feature", "properties": { "gml_id": "ETABLISSEMENTS_POLLUEURS.591518", "identifiant": "0006412416", "idetab": "591518", "nom": "ENGIE COFELY COGÉNÉRATION", "codeape": "3530Z", "cp": "13120" }, "geometry": { "type": "Point", "coordinates": [ 5.46655, 43.44405 ] } },
{ "type": "Feature", "properties": { "gml_id": "ETABLISSEMENTS_POLLUEURS.599152", "identifiant": "0006413241", "idetab": "599152", "nom": "G.AUTO PIECES", "codeape": "4520A", "cp": "13120" }, "geometry": { "type": "Point", "coordinates": [ 5.4527, 43.44639 ] } },
{ "type": "Feature", "properties": { "gml_id": "ETABLISSEMENTS_POLLUEURS.592238", "identifiant": "0009071301", "idetab": "592238", "nom": "REGIE DES EAUX DU PAYS D'AIX", "codeape": "3700Z", "cp": "13290" }, "geometry": { "type": "Point", "coordinates": [ 5.41164, 43.50983 ] } },
{ "type": "Feature", "properties": { "gml_id": "ETABLISSEMENTS_POLLUEURS.9444", "identifiant": "0071300101", "idetab": "9444", "nom": "STATION D'EPURATION : AIX EN PROVENCE LA PIOLINE", "codeape": "3700Z", "cp": "13290" }, "geometry": { "type": "Point", "coordinates": [ 5.502861, 43.500355 ] } },
{ "type": "Feature", "properties": { "gml_id": "ETABLISSEMENTS_POLLUEURS.589750", "identifiant": "0006402237", "idetab": "589750", "nom": "INTERXION FRANCE", "codeape": "6311Z", "cp": "13003" }, "geometry": { "type": "Point", "coordinates": [ 5.37334, 43.31037 ] } },
{ "type": "Feature", "properties": { "gml_id": "ETABLISSEMENTS_POLLUEURS.2276", "identifiant": "0006400649", "idetab": "2276", "nom": "ALCOOL PETROLE CHIMIE", "codeape": "515L", "cp": "13015" }, "geometry": { "type": "Point", "coordinates": [ 5.374774, 43.301979 ] } },
{ "type": "Feature", "properties": { "gml_id": "ETABLISSEMENTS_POLLUEURS.2282", "identifiant": "0006400676", "idetab": "2282", "nom": "PETRONAPHTE", "codeape": "246L", "cp": "13014" }, "geometry": { "type": "Point", "coordinates": [ 5.374774, 43.301979 ] } },
{ "type": "Feature", "properties": { "gml_id": "ETABLISSEMENTS_POLLUEURS.11745", "identifiant": "0006400721", "idetab": "11745", "nom": "SATRAM", "codeape": "3811Z", "cp": "13015" }, "geometry": { "type": "Point", "coordinates": [ 5.374774, 43.301979 ] } },
{ "type": "Feature", "properties": { "gml_id": "ETABLISSEMENTS_POLLUEURS.2273", "identifiant": "0006400630", "idetab": "2273", "nom": "SBM -FORMULATION", "codeape": "242Z", "cp": "13011" }, "geometry": { "type": "Point", "coordinates": [ 5.374774, 43.301979 ] } },
{ "type": "Feature", "properties": { "gml_id": "ETABLISSEMENTS_POLLUEURS.6752", "identifiant": "0006400755", "idetab": "6752", "nom": "LEGRE MANTE", "codeape": "241G", "cp": "13008" }, "geometry": { "type": "Point", "coordinates": [ 5.374774, 43.301979 ] } },
{ "type": "Feature", "properties": { "gml_id": "ETABLISSEMENTS_POLLUEURS.2287", "identifiant": "0006400765", "idetab": "2287", "nom": "MOTEURS BAUDOUIN", "codeape": "291A", "cp": "13010" }, "geometry": { "type": "Point", "coordinates": [ 5.374774, 43.301979 ] } },
{ "type": "Feature", "properties": { "gml_id": "ETABLISSEMENTS_POLLUEURS.12331", "identifiant": "0006400774", "idetab": "12331", "nom": "PROFERMET", "codeape": "3832Z", "cp": "13010" }, "geometry": { "type": "Point", "coordinates": [ 5.374774, 43.301979 ] } },
{ "type": "Feature", "properties": { "gml_id": "ETABLISSEMENTS_POLLUEURS.4840", "identifiant": "0006400691", "idetab": "4840", "nom": "SMPM", "codeape": "1812Z", "cp": "13368" }, "geometry": { "type": "Point", "coordinates": [ 5.374774, 43.301979 ] } },
{ "type": "Feature", "properties": { "gml_id": "ETABLISSEMENTS_POLLUEURS.2281", "identifiant": "0006400675", "idetab": "2281", "nom": "PERNOD", "codeape": "1101Z", "cp": "13014" }, "geometry": { "type": "Point", "coordinates": [ 5.374774, 43.301979 ] } },
{ "type": "Feature", "properties": { "gml_id": "ETABLISSEMENTS_POLLUEURS.2272", "identifiant": "0006400623", "idetab": "2272", "nom": "CHAUFFERIE DES AYGALADES", "codeape": "403Z", "cp": "13342" }, "geometry": { "type": "Point", "coordinates": [ 5.374774, 43.301979 ] } },
{ "type": "Feature", "properties": { "gml_id": "ETABLISSEMENTS_POLLUEURS.2291", "identifiant": "0006400792", "idetab": "2291", "nom": "SOCIÉTÉ MÉRIDIONALE DE FORMULATION", "codeape": "243Z", "cp": "13395" }, "geometry": { "type": "Point", "coordinates": [ 5.374774, 43.301979 ] } },
{ "type": "Feature", "properties": { "gml_id": "ETABLISSEMENTS_POLLUEURS.12332", "identifiant": "0006400801", "idetab": "12332", "nom": "SRRHU MARSEILLE 10", "codeape": "3812Z", "cp": "13010" }, "geometry": { "type": "Point", "coordinates": [ 5.374774, 43.301979 ] } },
{ "type": "Feature", "properties": { "gml_id": "ETABLISSEMENTS_POLLUEURS.2292", "identifiant": "0006400806", "idetab": "2292", "nom": "TLM", "codeape": "274K", "cp": "13015" }, "geometry": { "type": "Point", "coordinates": [ 5.374774, 43.301979 ] } },
{ "type": "Feature", "properties": { "gml_id": "ETABLISSEMENTS_POLLUEURS.4881", "identifiant": "0006401524", "idetab": "4881", "nom": "D'HUART INDUSTRIE", "codeape": "2443Z", "cp": "13011" }, "geometry": { "type": "Point", "coordinates": [ 5.374774, 43.301979 ] } },
{ "type": "Feature", "properties": { "gml_id": "ETABLISSEMENTS_POLLUEURS.4883", "identifiant": "0006401568", "idetab": "4883", "nom": "CARREFOUR", "codeape": "4711F", "cp": "13014" }, "geometry": { "type": "Point", "coordinates": [ 5.374774, 43.301979 ] } },
{ "type": "Feature", "properties": { "gml_id": "ETABLISSEMENTS_POLLUEURS.4889", "identifiant": "0006401656", "idetab": "4889", "nom": "PANZANI (SOCIÉTÉ FONCIÈRE ET COMMERCIALE DU SILO DE LA MADRAGUE)", "codeape": "631E", "cp": "13002" }, "geometry": { "type": "Point", "coordinates": [ 5.374774, 43.301979 ] } },
{ "type": "Feature", "properties": { "gml_id": "ETABLISSEMENTS_POLLUEURS.4833", "identifiant": "0006400613", "idetab": "4833", "nom": "ABM", "codeape": "4641Z", "cp": "13015" }, "geometry": { "type": "Point", "coordinates": [ 5.374774, 43.301979 ] } },
{ "type": "Feature", "properties": { "gml_id": "ETABLISSEMENTS_POLLUEURS.7953", "identifiant": "0006400750", "idetab": "7953", "nom": "HÔPITAL SAINTE MARGUERITE", "codeape": "8610Z", "cp": "13274" }, "geometry": { "type": "Point", "coordinates": [ 5.374774, 43.301979 ] } },
{ "type": "Feature", "properties": { "gml_id": "ETABLISSEMENTS_POLLUEURS.4838", "identifiant": "0006400674", "idetab": "4838", "nom": "PANZANI USINE DE LA MONTRE", "codeape": "158M", "cp": "13367" }, "geometry": { "type": "Point", "coordinates": [ 5.374774, 43.301979 ] } },
{ "type": "Feature", "properties": { "gml_id": "ETABLISSEMENTS_POLLUEURS.10870", "identifiant": "0006404437", "idetab": "10870", "nom": "AP-HM", "codeape": "9601B", "cp": "13005" }, "geometry": { "type": "Point", "coordinates": [ 5.374774, 43.301979 ] } },
{ "type": "Feature", "properties": { "gml_id": "ETABLISSEMENTS_POLLUEURS.10865", "identifiant": "0006404162", "idetab": "10865", "nom": "SUD MOTEURS (EX ATPROVX RÉP NAVAL)", "codeape": "3312Z", "cp": "13002" }, "geometry": { "type": "Point", "coordinates": [ 5.374774, 43.301979 ] } },
{ "type": "Feature", "properties": { "gml_id": "ETABLISSEMENTS_POLLUEURS.2443", "identifiant": "0006402272", "idetab": "2443", "nom": "MARSEILLE SAINT MAURONT", "codeape": "6110Z", "cp": "13003" }, "geometry": { "type": "Point", "coordinates": [ 5.374774, 43.301979 ] } },
{ "type": "Feature", "properties": { "gml_id": "ETABLISSEMENTS_POLLUEURS.9847", "identifiant": "0006404031", "idetab": "9847", "nom": "DISTRIBUTION CASINO FRANCE - HYPERMARCHÉ GÉANT CASINO LA VALENTINE", "codeape": "4711F", "cp": "13368" }, "geometry": { "type": "Point", "coordinates": [ 5.374774, 43.301979 ] } },
{ "type": "Feature", "properties": { "gml_id": "ETABLISSEMENTS_POLLUEURS.7965", "identifiant": "0006402802", "idetab": "7965", "nom": "SIPR DEFENSE", "codeape": "2550B", "cp": "13008" }, "geometry": { "type": "Point", "coordinates": [ 5.374774, 43.301979 ] } },
{ "type": "Feature", "properties": { "gml_id": "ETABLISSEMENTS_POLLUEURS.12336", "identifiant": "0006402655", "idetab": "12336", "nom": "RENAULT RETAIL GROUP ETS MARSEILLE MICHELET", "codeape": "4511Z", "cp": "13266" }, "geometry": { "type": "Point", "coordinates": [ 5.374774, 43.301979 ] } },
{ "type": "Feature", "properties": { "gml_id": "ETABLISSEMENTS_POLLUEURS.12338", "identifiant": "0006404660", "idetab": "12338", "nom": "CENTRE HOSPITALIER REGIONAL DE MARSEILLE", "codeape": "8610Z", "cp": "13005" }, "geometry": { "type": "Point", "coordinates": [ 5.39476, 43.28872 ] } },
{ "type": "Feature", "properties": { "gml_id": "ETABLISSEMENTS_POLLUEURS.596494", "identifiant": "0006401986", "idetab": "596494", "nom": "BROYAGE DU MIDI ET DE LA MEDITERRANEE", "codeape": "3832Z", "cp": "13014" }, "geometry": { "type": "Point", "coordinates": [ 5.396685, 43.290028 ] } },
{ "type": "Feature", "properties": { "gml_id": "ETABLISSEMENTS_POLLUEURS.2280", "identifiant": "0006400673", "idetab": "2280", "nom": "NESTLE FRANCE USINE DE ST MENET", "codeape": "158K", "cp": "13347" }, "geometry": { "type": "Point", "coordinates": [ 5.4, 43.3 ] } },
{ "type": "Feature", "properties": { "gml_id": "ETABLISSEMENTS_POLLUEURS.7952", "identifiant": "0006400723", "idetab": "7952", "nom": "CENTRE HOSPITALIER REGIONAL DE MARSEILLE", "codeape": "8610Z", "cp": "13005" }, "geometry": { "type": "Point", "coordinates": [ 5.40087, 43.29258 ] } },
{ "type": "Feature", "properties": { "gml_id": "ETABLISSEMENTS_POLLUEURS.9852", "identifiant": "0006405361", "idetab": "9852", "nom": "DISTRIBUTION CASINO FRANCE - HYPERMARCHÉ GÉANT CASINO MICHELET SAINTE ANNE", "codeape": "4711F", "cp": "13008" }, "geometry": { "type": "Point", "coordinates": [ 5.374774, 43.301979 ] } },
{ "type": "Feature", "properties": { "gml_id": "ETABLISSEMENTS_POLLUEURS.12342", "identifiant": "0006409471", "idetab": "12342", "nom": "ATELIERS LOUIS GALLI", "codeape": "3312Z", "cp": "13016" }, "geometry": { "type": "Point", "coordinates": [ 5.374774, 43.301979 ] } },
{ "type": "Feature", "properties": { "gml_id": "ETABLISSEMENTS_POLLUEURS.588950", "identifiant": "0006412275", "idetab": "588950", "nom": "ISDI SEPM", "codeape": "3832Z", "cp": "13015" }, "geometry": { "type": "Point", "coordinates": [ 5.374774, 43.301979 ] } },
{ "type": "Feature", "properties": { "gml_id": "ETABLISSEMENTS_POLLUEURS.590215", "identifiant": "0006412350", "idetab": "590215", "nom": "ISDI LAFARGE GRANULATS FRANCE LIEUTAUD", "codeape": "0812Z", "cp": "13016" }, "geometry": { "type": "Point", "coordinates": [ 5.374774, 43.301979 ] } },
{ "type": "Feature", "properties": { "gml_id": "ETABLISSEMENTS_POLLUEURS.588956", "identifiant": "0006412468", "idetab": "588956", "nom": "AUCHAN AUBAGNE", "codeape": "4711F", "cp": "13400" }, "geometry": { "type": "Point", "coordinates": [ 5.567732, 43.293874 ] } },
{ "type": "Feature", "properties": { "gml_id": "ETABLISSEMENTS_POLLUEURS.597877", "identifiant": "0006413799", "idetab": "597877", "nom": "INTERXION FRANCE", "codeape": "6311Z", "cp": "13015" }, "geometry": { "type": "Point", "coordinates": [ 5.39668, 43.29003 ] } },
{ "type": "Feature", "properties": { "gml_id": "ETABLISSEMENTS_POLLUEURS.11097", "identifiant": "0009000145", "idetab": "11097", "nom": "4ÈME RÉGIMENT DE DRAGONS", "codeape": "8422Z", "cp": "13000" }, "geometry": { "type": "Point", "coordinates": [ 5.374774, 43.301979 ] } },
{ "type": "Feature", "properties": { "gml_id": "ETABLISSEMENTS_POLLUEURS.2442", "identifiant": "0006402259", "idetab": "2442", "nom": "SUEZ SERVICES FRANCE", "codeape": "3700Z", "cp": "13009" }, "geometry": { "type": "Point", "coordinates": [ 5.40174, 43.22927 ] } },
{ "type": "Feature", "properties": { "gml_id": "ETABLISSEMENTS_POLLUEURS.4841", "identifiant": "0006400719", "idetab": "4841", "nom": "KALHYGE 1", "codeape": "9601B", "cp": "13005" }, "geometry": { "type": "Point", "coordinates": [ 5.41068, 43.29396 ] } },
{ "type": "Feature", "properties": { "gml_id": "ETABLISSEMENTS_POLLUEURS.2284", "identifiant": "0006400737", "idetab": "2284", "nom": "MAJ", "codeape": "7729Z", "cp": "13010" }, "geometry": { "type": "Point", "coordinates": [ 5.41116, 43.27779 ] } },
{ "type": "Feature", "properties": { "gml_id": "ETABLISSEMENTS_POLLUEURS.11769", "identifiant": "0006402654", "idetab": "11769", "nom": "PIECES AUTO FIFI TURIN", "codeape": "4677Z", "cp": "13010" }, "geometry": { "type": "Point", "coordinates": [ 5.41399, 43.281 ] } },
{ "type": "Feature", "properties": { "gml_id": "ETABLISSEMENTS_POLLUEURS.12994", "identifiant": "0006400692", "idetab": "12994", "nom": "SNCF VOYAGEURS", "codeape": "4910Z", "cp": "13012" }, "geometry": { "type": "Point", "coordinates": [ 5.41478, 43.29684 ] } },
{ "type": "Feature", "properties": { "gml_id": "ETABLISSEMENTS_POLLUEURS.14237", "identifiant": "0006405085", "idetab": "14237", "nom": "IMMUNOTECH", "codeape": "7211Z", "cp": "13009" }, "geometry": { "type": "Point", "coordinates": [ 5.4162, 43.24563 ] } },
{ "type": "Feature", "properties": { "gml_id": "ETABLISSEMENTS_POLLUEURS.10856", "identifiant": "0006402656", "idetab": "10856", "nom": "AUCHAN HYPERMARCHE", "codeape": "4711F", "cp": "13010" }, "geometry": { "type": "Point", "coordinates": [ 5.426087, 43.27787 ] } },
{ "type": "Feature", "properties": { "gml_id": "ETABLISSEMENTS_POLLUEURS.14225", "identifiant": "0006400686", "idetab": "14225", "nom": "SOCIETE DES EAUX DE MARSEILLE SEM", "codeape": "3600Z", "cp": "13012" }, "geometry": { "type": "Point", "coordinates": [ 5.427134, 43.310075 ] } },
{ "type": "Feature", "properties": { "gml_id": "ETABLISSEMENTS_POLLUEURS.10835", "identifiant": "0006401298", "idetab": "10835", "nom": "CARRIERES & MATERIAUX SUD-EST - CMSE", "codeape": "2363Z", "cp": "13010" }, "geometry": { "type": "Point", "coordinates": [ 5.43298, 43.26449 ] } },
{ "type": "Feature", "properties": { "gml_id": "ETABLISSEMENTS_POLLUEURS.598142", "identifiant": "0006402458", "idetab": "598142", "nom": "PURFER", "codeape": "3832Z", "cp": "13011" }, "geometry": { "type": "Point", "coordinates": [ 5.47683, 43.2863 ] } },
{ "type": "Feature", "properties": { "gml_id": "ETABLISSEMENTS_POLLUEURS.2274", "identifiant": "0006400635", "idetab": "2274", "nom": "HEINEKEN ENTREPRISE", "codeape": "1105Z", "cp": "13011" }, "geometry": { "type": "Point", "coordinates": [ 5.48463, 43.29536 ] } },
{ "type": "Feature", "properties": { "gml_id": "ETABLISSEMENTS_POLLUEURS.11767", "identifiant": "0006402263", "idetab": "11767", "nom": "ONYX MEDITERRANEE", "codeape": "3811Z", "cp": "13011" }, "geometry": { "type": "Point", "coordinates": [ 5.49867, 43.28332 ] } },
{ "type": "Feature", "properties": { "gml_id": "ETABLISSEMENTS_POLLUEURS.2278", "identifiant": "0006400651", "idetab": "2278", "nom": "ARKEMA FRANCE", "codeape": "2014Z", "cp": "13374" }, "geometry": { "type": "Point", "coordinates": [ 5.49868, 43.2833 ] } },
{ "type": "Feature", "properties": { "gml_id": "ETABLISSEMENTS_POLLUEURS.2286", "identifiant": "0006400759", "idetab": "2286", "nom": "L P C AUTO", "codeape": "3831Z", "cp": "13400" }, "geometry": { "type": "Point", "coordinates": [ 5.52616, 43.28482 ] } },
{ "type": "Feature", "properties": { "gml_id": "ETABLISSEMENTS_POLLUEURS.588919", "identifiant": "0006401300", "idetab": "588919", "nom": "LAFARGE GRANULATS", "codeape": "0812Z", "cp": "13260" }, "geometry": { "type": "Point", "coordinates": [ 5.55347, 43.23979 ] } },
{ "type": "Feature", "properties": { "gml_id": "ETABLISSEMENTS_POLLUEURS.4843", "identifiant": "0006400775", "idetab": "4843", "nom": "PROFROID INDUSTRIES CARRIER SCS", "codeape": "2825Z", "cp": "13400" }, "geometry": { "type": "Point", "coordinates": [ 5.567732, 43.293874 ] } },
{ "type": "Feature", "properties": { "gml_id": "ETABLISSEMENTS_POLLUEURS.2289", "identifiant": "0006400787", "idetab": "2289", "nom": "ROUSSELOT CAMP MAJOR", "codeape": "246C", "cp": "13671" }, "geometry": { "type": "Point", "coordinates": [ 5.567732, 43.293874 ] } },
{ "type": "Feature", "properties": { "gml_id": "ETABLISSEMENTS_POLLUEURS.588918", "identifiant": "0006401297", "idetab": "588918", "nom": "CARRIERES ET BETONS BRONZO PERASSO CBBP", "codeape": "0811Z", "cp": "13400" }, "geometry": { "type": "Point", "coordinates": [ 5.59171, 43.27036 ] } },
{ "type": "Feature", "properties": { "gml_id": "ETABLISSEMENTS_POLLUEURS.2288", "identifiant": "0006400772", "idetab": "2288", "nom": "ARDAGH METAL PACKAGING FRANCE", "codeape": "2592Z", "cp": "13600" }, "geometry": { "type": "Point", "coordinates": [ 5.59298, 43.2025 ] } },
{ "type": "Feature", "properties": { "gml_id": "ETABLISSEMENTS_POLLUEURS.590478", "identifiant": "0006401368", "idetab": "590478", "nom": "TERRAPROVENCE", "codeape": "7112B", "cp": "13600" }, "geometry": { "type": "Point", "coordinates": [ 5.60548, 43.21296 ] } },
{ "type": "Feature", "properties": { "gml_id": "ETABLISSEMENTS_POLLUEURS.9821", "identifiant": "0006400746", "idetab": "9821", "nom": "GEMALTO SA", "codeape": "7112B", "cp": "13420" }, "geometry": { "type": "Point", "coordinates": [ 5.627628, 43.294261 ] } },
{ "type": "Feature", "properties": { "gml_id": "ETABLISSEMENTS_POLLUEURS.13018", "identifiant": "0006404305", "idetab": "13018", "nom": "PLASTIFRANCE", "codeape": "2229A", "cp": "13420" }, "geometry": { "type": "Point", "coordinates": [ 5.627628, 43.294261 ] } },
{ "type": "Feature", "properties": { "gml_id": "ETABLISSEMENTS_POLLUEURS.12134", "identifiant": "0006405144", "idetab": "12134", "nom": "SUEZ RV MEDITERRANEE", "codeape": "3811Z", "cp": "13713" }, "geometry": { "type": "Point", "coordinates": [ 5.51816, 43.27686 ] } },
{ "type": "Feature", "properties": { "gml_id": "ETABLISSEMENTS_POLLUEURS.10889", "identifiant": "0006406578", "idetab": "10889", "nom": "CDSU LA CIOTAT", "codeape": "3821Z", "cp": "13600" }, "geometry": { "type": "Point", "coordinates": [ 5.612475, 43.182806 ] } },
{ "type": "Feature", "properties": { "gml_id": "ETABLISSEMENTS_POLLUEURS.10897", "identifiant": "0006408178", "idetab": "10897", "nom": "SOCIÉTÉ INTERNATIONALE DES MOTEURS BAUDOUIN", "codeape": "2811Z", "cp": "13260" }, "geometry": { "type": "Point", "coordinates": [ 5.544637, 43.217056 ] } },
{ "type": "Feature", "properties": { "gml_id": "ETABLISSEMENTS_POLLUEURS.11790", "identifiant": "0006409509", "idetab": "11790", "nom": "SOCIETE MARSEILLAISE DE RESTAURATION ET SERVICES", "codeape": "5629B", "cp": "13010" }, "geometry": { "type": "Point", "coordinates": [ 5.41984, 43.28019 ] } },
{ "type": "Feature", "properties": { "gml_id": "ETABLISSEMENTS_POLLUEURS.590484", "identifiant": "0006409666", "idetab": "590484", "nom": "MANON EX SIBELL", "codeape": "1031Z", "cp": "13400" }, "geometry": { "type": "Point", "coordinates": [ 5.596102, 43.285025 ] } },
{ "type": "Feature", "properties": { "gml_id": "ETABLISSEMENTS_POLLUEURS.594986", "identifiant": "0006412682", "idetab": "594986", "nom": "MOTA", "codeape": "2825Z", "cp": "13400" }, "geometry": { "type": "Point", "coordinates": [ 5.59924, 43.28793 ] } },
{ "type": "Feature", "properties": { "gml_id": "ETABLISSEMENTS_POLLUEURS.598891", "identifiant": "0009000382", "idetab": "598891", "nom": "1ER RÉGIMENT ÉTRANGER DE CAVALERIE", "codeape": "8422Z", "cp": "13470" }, "geometry": { "type": "Point", "coordinates": [ 5.50641, 43.2494 ] } },
{ "type": "Feature", "properties": { "gml_id": "ETABLISSEMENTS_POLLUEURS.592190", "identifiant": "0009071302", "idetab": "592190", "nom": "SERAMM - SERVICE D'ASSAINISSEMENT DE MARSEILLE METROPOLE", "codeape": "3700Z", "cp": "13008" }, "geometry": { "type": "Point", "coordinates": [ 5.40011, 43.27026 ] } },
{ "type": "Feature", "properties": { "gml_id": "ETABLISSEMENTS_POLLUEURS.9445", "identifiant": "0071305501", "idetab": "9445", "nom": "STEP - MARSEILLE", "codeape": "3700Z", "cp": "13008" }, "geometry": { "type": "Point", "coordinates": [ 5.398531, 43.270778 ] } },
{ "type": "Feature", "properties": { "gml_id": "ETABLISSEMENTS_POLLUEURS.598978", "identifiant": "0100017464", "idetab": "598978", "nom": "BLANCHISSERIE 2000", "codeape": "9601A", "cp": "13400" }, "geometry": { "type": "Point", "coordinates": [ 5.58507, 43.31838 ] } },
{ "type": "Feature", "properties": { "gml_id": "ETABLISSEMENTS_POLLUEURS.588026", "identifiant": "06402304", "idetab": "588026", "nom": "GEMEF INDUSTRIES", "codeape": "1061B", "cp": "13799" }, "geometry": { "type": "Point", "coordinates": [ 5.446028, 43.534693 ] } },
{ "type": "Feature", "properties": { "gml_id": "ETABLISSEMENTS_POLLUEURS.4767", "identifiant": "0006400001", "idetab": "4767", "nom": "ALTEO GARDANNE", "codeape": "2442Z", "cp": "13120" }, "geometry": { "type": "Point", "coordinates": [ 5.46655, 43.44405 ] } },
{ "type": "Feature", "properties": { "gml_id": "ETABLISSEMENTS_POLLUEURS.4769", "identifiant": "0006400024", "idetab": "4769", "nom": "SOCIETE GARDANNAISE DE COGENERATION", "codeape": "3530Z", "cp": "13541" }, "geometry": { "type": "Point", "coordinates": [ 5.469508, 43.453318 ] } },
{ "type": "Feature", "properties": { "gml_id": "ETABLISSEMENTS_POLLUEURS.2178", "identifiant": "0006400020", "idetab": "2178", "nom": "MECASUD", "codeape": "", "cp": "13120" }, "geometry": { "type": "Point", "coordinates": [ 5.469508, 43.453318 ] } },
{ "type": "Feature", "properties": { "gml_id": "ETABLISSEMENTS_POLLUEURS.2176", "identifiant": "0006400014", "idetab": "2176", "nom": "EXTRAITS VEGETAUX ET DERIVES", "codeape": "1089Z", "cp": "13120" }, "geometry": { "type": "Point", "coordinates": [ 5.4822, 43.46442 ] } },
{ "type": "Feature", "properties": { "gml_id": "ETABLISSEMENTS_POLLUEURS.14231", "identifiant": "0006401353", "idetab": "14231", "nom": "BRAHIM OUKHEDDI", "codeape": "2399Z", "cp": "13650" }, "geometry": { "type": "Point", "coordinates": [ 5.489882, 43.635746 ] } },
{ "type": "Feature", "properties": { "gml_id": "ETABLISSEMENTS_POLLUEURS.12991", "identifiant": "0006400465", "idetab": "12991", "nom": "DURANCE DEPANNAGE AUTO MOTO 1 S", "codeape": "4511Z", "cp": "84120" }, "geometry": { "type": "Point", "coordinates": [ 5.50077, 43.6763 ] } },
{ "type": "Feature", "properties": { "gml_id": "ETABLISSEMENTS_POLLUEURS.2179", "identifiant": "0006400023", "idetab": "2179", "nom": "GAZELENERGIE GENERATION", "codeape": "3511Z", "cp": "13590" }, "geometry": { "type": "Point", "coordinates": [ 5.50552, 43.48744 ] } },
{ "type": "Feature", "properties": { "gml_id": "ETABLISSEMENTS_POLLUEURS.588920", "identifiant": "0006401302", "idetab": "588920", "nom": "DURANCE GRANULATS", "codeape": "0811Z", "cp": "13650" }, "geometry": { "type": "Point", "coordinates": [ 5.51071, 43.62793 ] } },
{ "type": "Feature", "properties": { "gml_id": "ETABLISSEMENTS_POLLUEURS.2177", "identifiant": "0006400019", "idetab": "2177", "nom": "ROCKWOOD ELECTRONIC MATERIALS WAFER RECLAIM", "codeape": "", "cp": "13850" }, "geometry": { "type": "Point", "coordinates": [ 5.541404, 43.432255 ] } },
{ "type": "Feature", "properties": { "gml_id": "ETABLISSEMENTS_POLLUEURS.2414", "identifiant": "0006401792", "idetab": "2414", "nom": "BASF EM SAS", "codeape": "515L", "cp": "13710" }, "geometry": { "type": "Point", "coordinates": [ 5.563316, 43.456228 ] } },
{ "type": "Feature", "properties": { "gml_id": "ETABLISSEMENTS_POLLUEURS.11382", "identifiant": "0006401317", "idetab": "11382", "nom": "DURANCE GRANULATS", "codeape": "0812Z", "cp": "13860" }, "geometry": { "type": "Point", "coordinates": [ 5.56602, 43.65651 ] } },
{ "type": "Feature", "properties": { "gml_id": "ETABLISSEMENTS_POLLUEURS.589763", "identifiant": "0006412221", "idetab": "589763", "nom": "ENTREPRISE BRONZO", "codeape": "3811Z", "cp": "13720" }, "geometry": { "type": "Point", "coordinates": [ 5.56864, 43.40905 ] } },
{ "type": "Feature", "properties": { "gml_id": "ETABLISSEMENTS_POLLUEURS.2370", "identifiant": "0006401133", "idetab": "2370", "nom": "ABC INDUSTRIE", "codeape": "1013A", "cp": "13860" }, "geometry": { "type": "Point", "coordinates": [ 5.58054, 43.64416 ] } },
{ "type": "Feature", "properties": { "gml_id": "ETABLISSEMENTS_POLLUEURS.2183", "identifiant": "0006400061", "idetab": "2183", "nom": "OTV", "codeape": "7112B", "cp": "13790" },