{
"type": "FeatureCollection",
"name": "ms:ETABLISSEMENTS_POLLUEURS",
"crs": { "type": "name", "properties": { "name": "urn:ogc:def:crs:OGC:1.3:CRS84" } },
"features": [
{ "type": "Feature", "properties": { "gml_id": "ETABLISSEMENTS_POLLUEURS.598754", "identifiant": "0003704311", "idetab": "598754", "nom": "GARONNE BIOGAZ", "codeape": "3521Z", "cp": "82340" }, "geometry": { "type": "Point", "coordinates": [ 0.97643, 44.03931 ] } },
{ "type": "Feature", "properties": { "gml_id": "ETABLISSEMENTS_POLLUEURS.591346", "identifiant": "0005204426", "idetab": "591346", "nom": "ROSPARS ENTREPRISE", "codeape": "0812Z", "cp": "47180" }, "geometry": { "type": "Point", "coordinates": [ 0.083, 44.55058 ] } },
{ "type": "Feature", "properties": { "gml_id": "ETABLISSEMENTS_POLLUEURS.8478", "identifiant": "0005200948", "idetab": "8478", "nom": "USTOM MASSUGAS", "codeape": "3811Z", "cp": "33790" }, "geometry": { "type": "Point", "coordinates": [ 0.086221, 44.767343 ] } },
{ "type": "Feature", "properties": { "gml_id": "ETABLISSEMENTS_POLLUEURS.200", "identifiant": "0005200074", "idetab": "200", "nom": "BERKEM DEVELOPPEMENT", "codeape": "2059Z", "cp": "24680" }, "geometry": { "type": "Point", "coordinates": [ 0.33644, 44.82913 ] } },
{ "type": "Feature", "properties": { "gml_id": "ETABLISSEMENTS_POLLUEURS.588392", "identifiant": "0005205509", "idetab": "588392", "nom": "CARRIERES DE THIVIERS", "codeape": "0812Z", "cp": "24230" }, "geometry": { "type": "Point", "coordinates": [ 0.04223, 44.84358 ] } },
{ "type": "Feature", "properties": { "gml_id": "ETABLISSEMENTS_POLLUEURS.8782", "identifiant": "0005205510", "idetab": "8782", "nom": "CARRIÈRE DE LAMOTHE-MONTRAVEL", "codeape": "0812Z", "cp": "24230" }, "geometry": { "type": "Point", "coordinates": [ 0.019639, 44.852896 ] } },
{ "type": "Feature", "properties": { "gml_id": "ETABLISSEMENTS_POLLUEURS.10503", "identifiant": "0005200229", "idetab": "10503", "nom": "SARL LEIX RECUPERATION", "codeape": "3831Z", "cp": "24230" }, "geometry": { "type": "Point", "coordinates": [ 0.109, 44.859225 ] } },
{ "type": "Feature", "properties": { "gml_id": "ETABLISSEMENTS_POLLUEURS.592312", "identifiant": "0003103857", "idetab": "592312", "nom": "CARRIERES DE THIVIERS", "codeape": "0812Z", "cp": "33220" }, "geometry": { "type": "Point", "coordinates": [ 0.1787, 44.87146 ] } },
{ "type": "Feature", "properties": { "gml_id": "ETABLISSEMENTS_POLLUEURS.6203", "identifiant": "0005205559", "idetab": "6203", "nom": "STEICO CASTELJALOUX", "codeape": "1621Z", "cp": "47700" }, "geometry": { "type": "Point", "coordinates": [ 0.084237, 44.92394 ] } },
{ "type": "Feature", "properties": { "gml_id": "ETABLISSEMENTS_POLLUEURS.589518", "identifiant": "0005206662", "idetab": "589518", "nom": "S. MIXTE DEP. POUR LA GESTION ET LE TRAIT. DES DECHETS MENAGERS ET ASSIMILES", "codeape": "3821Z", "cp": "24130" }, "geometry": { "type": "Point", "coordinates": [ 0.31721, 44.88586 ] } },
{ "type": "Feature", "properties": { "gml_id": "ETABLISSEMENTS_POLLUEURS.590805", "identifiant": "0052401778", "idetab": "590805", "nom": "FROMAGERIES DES CHAUMES", "codeape": "1051C", "cp": "24230" }, "geometry": { "type": "Point", "coordinates": [ 0.17093, 44.83647 ] } },
{ "type": "Feature", "properties": { "gml_id": "ETABLISSEMENTS_POLLUEURS.596966", "identifiant": "0054700563", "idetab": "596966", "nom": "EARL LA FAISANDERIE DES BOURNIZEAUX", "codeape": "0111Z", "cp": "47120" }, "geometry": { "type": "Point", "coordinates": [ 0.30176, 44.75792 ] } },
{ "type": "Feature", "properties": { "gml_id": "ETABLISSEMENTS_POLLUEURS.5678", "identifiant": "24370002", "idetab": "5678", "nom": "FROMAGERIE DES CHAUMES", "codeape": "1051D", "cp": "24230" }, "geometry": { "type": "Point", "coordinates": [ 0.161663, 44.851566 ] } },
{ "type": "Feature", "properties": { "gml_id": "ETABLISSEMENTS_POLLUEURS.6196", "identifiant": "0005205286", "idetab": "6196", "nom": "KNAUF INDUSTRIES OUEST", "codeape": "2222Z", "cp": "47700" }, "geometry": { "type": "Point", "coordinates": [ 0.07355, 44.29889 ] } },
{ "type": "Feature", "properties": { "gml_id": "ETABLISSEMENTS_POLLUEURS.8492", "identifiant": "0005207272", "idetab": "8492", "nom": "MORIN JEAN-MICHEL", "codeape": "014B", "cp": "47200" }, "geometry": { "type": "Point", "coordinates": [ 0.096952, 44.528899 ] } },
{ "type": "Feature", "properties": { "gml_id": "ETABLISSEMENTS_POLLUEURS.588398", "identifiant": "0005206629", "idetab": "588398", "nom": "TRI GARONNE ENVIRONNEMENT SARL", "codeape": "3811Z", "cp": "47180" }, "geometry": { "type": "Point", "coordinates": [ 0.096952, 44.528899 ] } },
{ "type": "Feature", "properties": { "gml_id": "ETABLISSEMENTS_POLLUEURS.6161", "identifiant": "0005202267", "idetab": "6161", "nom": "BRUNET SAS - STE BAZEILLE", "codeape": "2229A", "cp": "47200" }, "geometry": { "type": "Point", "coordinates": [ 0.096952, 44.528899 ] } },
{ "type": "Feature", "properties": { "gml_id": "ETABLISSEMENTS_POLLUEURS.12712", "identifiant": "0005205955", "idetab": "12712", "nom": "LAFARGEHOLCIM GRANULATS", "codeape": "0812Z", "cp": "47200" }, "geometry": { "type": "Point", "coordinates": [ 0.109266, 44.465093 ] } },
{ "type": "Feature", "properties": { "gml_id": "ETABLISSEMENTS_POLLUEURS.595330", "identifiant": "0003104765", "idetab": "595330", "nom": "LAFARGE GRANULATS", "codeape": "0812Z", "cp": "47200" }, "geometry": { "type": "Point", "coordinates": [ 0.11163, 44.47982 ] } },
{ "type": "Feature", "properties": { "gml_id": "ETABLISSEMENTS_POLLUEURS.590290", "identifiant": "0005208602", "idetab": "590290", "nom": "GARNICA SAMAZAN", "codeape": "1621Z", "cp": "47250" }, "geometry": { "type": "Point", "coordinates": [ 0.13143, 44.4249 ] } },
{ "type": "Feature", "properties": { "gml_id": "ETABLISSEMENTS_POLLUEURS.597556", "identifiant": "0005205576", "idetab": "597556", "nom": "EXR GROUPE", "codeape": "4520A", "cp": "47200" }, "geometry": { "type": "Point", "coordinates": [ 0.13371, 44.45026 ] } },
{ "type": "Feature", "properties": { "gml_id": "ETABLISSEMENTS_POLLUEURS.588390", "identifiant": "0005204306", "idetab": "588390", "nom": "SIBELCO FRANCE", "codeape": "0812Z", "cp": "47420" }, "geometry": { "type": "Point", "coordinates": [ 0.13671, 44.13226 ] } },
{ "type": "Feature", "properties": { "gml_id": "ETABLISSEMENTS_POLLUEURS.6154", "identifiant": "0005202203", "idetab": "6154", "nom": "BOISDEXTER S.A.", "codeape": "1629Z", "cp": "47200" }, "geometry": { "type": "Point", "coordinates": [ 0.139804, 44.512802 ] } },
{ "type": "Feature", "properties": { "gml_id": "ETABLISSEMENTS_POLLUEURS.11481", "identifiant": "0005202193", "idetab": "11481", "nom": "LES JUS DU SOLEIL", "codeape": "1032Z", "cp": "47200" }, "geometry": { "type": "Point", "coordinates": [ 0.14552, 44.51088 ] } },
{ "type": "Feature", "properties": { "gml_id": "ETABLISSEMENTS_POLLUEURS.9617", "identifiant": "0005207883", "idetab": "9617", "nom": "VEOLIA AGRICULTURE FRANCE", "codeape": "3700Z", "cp": "47420" }, "geometry": { "type": "Point", "coordinates": [ 0.15984, 44.13482 ] } },
{ "type": "Feature", "properties": { "gml_id": "ETABLISSEMENTS_POLLUEURS.9610", "identifiant": "0005205594", "idetab": "9610", "nom": "AFM RECYCLAGE", "codeape": "3831Z", "cp": "47200" }, "geometry": { "type": "Point", "coordinates": [ 0.16005, 44.5082 ] } },
{ "type": "Feature", "properties": { "gml_id": "ETABLISSEMENTS_POLLUEURS.239", "identifiant": "0005202195", "idetab": "239", "nom": "CESA", "codeape": "3102Z", "cp": "47200" }, "geometry": { "type": "Point", "coordinates": [ 0.160427, 44.499667 ] } },
{ "type": "Feature", "properties": { "gml_id": "ETABLISSEMENTS_POLLUEURS.9601", "identifiant": "0005202201", "idetab": "9601", "nom": "MEC D'AQUITAINE", "codeape": "3109B", "cp": "47200" }, "geometry": { "type": "Point", "coordinates": [ 0.165261, 44.500132 ] } },
{ "type": "Feature", "properties": { "gml_id": "ETABLISSEMENTS_POLLUEURS.6153", "identifiant": "0005202199", "idetab": "6153", "nom": "ETABLISSEMENTS ROBERT CREUZET", "codeape": "3030Z", "cp": "47200" }, "geometry": { "type": "Point", "coordinates": [ 0.16677, 44.51094 ] } },
{ "type": "Feature", "properties": { "gml_id": "ETABLISSEMENTS_POLLUEURS.589511", "identifiant": "0005204304", "idetab": "589511", "nom": "SIBELCO FRANCE SAS", "codeape": "0812Z", "cp": "47420" }, "geometry": { "type": "Point", "coordinates": [ 0.175254, 44.169556 ] } },
{ "type": "Feature", "properties": { "gml_id": "ETABLISSEMENTS_POLLUEURS.599073", "identifiant": "0005208955", "idetab": "599073", "nom": "VEOLIA PROPRETE AQUITAINE", "codeape": "3811Z", "cp": "47550" }, "geometry": { "type": "Point", "coordinates": [ 0.18783, 44.53177 ] } },
{ "type": "Feature", "properties": { "gml_id": "ETABLISSEMENTS_POLLUEURS.8485", "identifiant": "0005205626", "idetab": "8485", "nom": "SMCTOM DU PAYS D'ALBRET -RÉAUP-LISSE", "codeape": "3821Z", "cp": "47170" }, "geometry": { "type": "Point", "coordinates": [ 0.188495, 44.089158 ] } },
{ "type": "Feature", "properties": { "gml_id": "ETABLISSEMENTS_POLLUEURS.12039", "identifiant": "47320012", "idetab": "12039", "nom": "EARL DU DOMAINE DE TAUZIA - SITE SAUPIQUET", "codeape": "0147Z", "cp": "47160" }, "geometry": { "type": "Point", "coordinates": [ 0.198191, 44.315831 ] } },
{ "type": "Feature", "properties": { "gml_id": "ETABLISSEMENTS_POLLUEURS.10514", "identifiant": "0005205745", "idetab": "10514", "nom": "CREUZET AERONAUTIQUE", "codeape": "3030Z", "cp": "47200" }, "geometry": { "type": "Point", "coordinates": [ 0.19986, 44.49382 ] } },
{ "type": "Feature", "properties": { "gml_id": "ETABLISSEMENTS_POLLUEURS.7411", "identifiant": "47320030", "idetab": "7411", "nom": "EARL DOMÄINE DE TAUZIA", "codeape": "0147Z", "cp": "47160" }, "geometry": { "type": "Point", "coordinates": [ 0.203313, 44.315153 ] } },
{ "type": "Feature", "properties": { "gml_id": "ETABLISSEMENTS_POLLUEURS.13625", "identifiant": "0006803289", "idetab": "13625", "nom": "NOVASOL", "codeape": "4621Z", "cp": "32480" }, "geometry": { "type": "Point", "coordinates": [ 0.44844, 44.02742 ] } },
{ "type": "Feature", "properties": { "gml_id": "ETABLISSEMENTS_POLLUEURS.6157", "identifiant": "0005202228", "idetab": "6157", "nom": "SYNGENTA FRANCE S.A.S. - NÉRAC", "codeape": "0111Z", "cp": "47600" }, "geometry": { "type": "Point", "coordinates": [ 0.336062, 44.133816 ] } },
{ "type": "Feature", "properties": { "gml_id": "ETABLISSEMENTS_POLLUEURS.6194", "identifiant": "0005204944", "idetab": "6194", "nom": "VEOLIA PROPRETE AQUITAINE", "codeape": "3811Z", "cp": "47550" }, "geometry": { "type": "Point", "coordinates": [ 0.627837, 44.158985 ] } },
{ "type": "Feature", "properties": { "gml_id": "ETABLISSEMENTS_POLLUEURS.12713", "identifiant": "0005206025", "idetab": "12713", "nom": "LDG LOGISTIQUE DISTRIBUTION DE GASCOGNE", "codeape": "5210B", "cp": "47550" }, "geometry": { "type": "Point", "coordinates": [ 0.627837, 44.158985 ] } },
{ "type": "Feature", "properties": { "gml_id": "ETABLISSEMENTS_POLLUEURS.9600", "identifiant": "0005202135", "idetab": "9600", "nom": "ROTOGARONNE S.A.S.", "codeape": "1812Z", "cp": "47310" }, "geometry": { "type": "Point", "coordinates": [ 0.589836, 44.163998 ] } },
{ "type": "Feature", "properties": { "gml_id": "ETABLISSEMENTS_POLLUEURS.10522", "identifiant": "0005207879", "idetab": "10522", "nom": "LE PARC AUTOMOBILE", "codeape": "4677Z", "cp": "47240" }, "geometry": { "type": "Point", "coordinates": [ 0.70635, 44.165582 ] } },
{ "type": "Feature", "properties": { "gml_id": "ETABLISSEMENTS_POLLUEURS.587772", "identifiant": "0005207396", "idetab": "587772", "nom": "ALIAREC ENVIRONNEMENT", "codeape": "3832Z", "cp": "47550" }, "geometry": { "type": "Point", "coordinates": [ 0.65998, 44.1781 ] } },
{ "type": "Feature", "properties": { "gml_id": "ETABLISSEMENTS_POLLUEURS.3967", "identifiant": "0005202240", "idetab": "3967", "nom": "UPSA SAS", "codeape": "2120Z", "cp": "47520" }, "geometry": { "type": "Point", "coordinates": [ 0.60521, 44.17906 ] } },
{ "type": "Feature", "properties": { "gml_id": "ETABLISSEMENTS_POLLUEURS.589517", "identifiant": "0005205556", "idetab": "589517", "nom": "DECONS OCCITANIE", "codeape": "3832Z", "cp": "47310" }, "geometry": { "type": "Point", "coordinates": [ 0.55828, 44.18723 ] } },
{ "type": "Feature", "properties": { "gml_id": "ETABLISSEMENTS_POLLUEURS.236", "identifiant": "0005202084", "idetab": "236", "nom": "CURIA FRANCE SAS", "codeape": "2014Z", "cp": "47240" }, "geometry": { "type": "Point", "coordinates": [ 0.65256, 44.19355 ] } },
{ "type": "Feature", "properties": { "gml_id": "ETABLISSEMENTS_POLLUEURS.6150", "identifiant": "0005202047", "idetab": "6150", "nom": "UPSA - AGEN- USINE GUYENNE", "codeape": "2120Z", "cp": "47000" }, "geometry": { "type": "Point", "coordinates": [ 0.628168, 44.203868 ] } },
{ "type": "Feature", "properties": { "gml_id": "ETABLISSEMENTS_POLLUEURS.11278", "identifiant": "0005205420", "idetab": "11278", "nom": "CENTRE HOSPITALIER - AGEN", "codeape": "8610Z", "cp": "47923" }, "geometry": { "type": "Point", "coordinates": [ 0.628168, 44.203868 ] } },
{ "type": "Feature", "properties": { "gml_id": "ETABLISSEMENTS_POLLUEURS.12704", "identifiant": "0005204247", "idetab": "12704", "nom": "SAS LES CARRIERES DE BRAX", "codeape": "0812Z", "cp": "47310" }, "geometry": { "type": "Point", "coordinates": [ 0.545302, 44.209432 ] } },
{ "type": "Feature", "properties": { "gml_id": "ETABLISSEMENTS_POLLUEURS.597429", "identifiant": "0005204248", "idetab": "597429", "nom": "LES CARRIERES DE BRAX SAS", "codeape": "0812Z", "cp": "47310" }, "geometry": { "type": "Point", "coordinates": [ 0.5505, 44.20978 ] } },
{ "type": "Feature", "properties": { "gml_id": "ETABLISSEMENTS_POLLUEURS.3968", "identifiant": "0005202241", "idetab": "3968", "nom": "ATEMAX FRANCE", "codeape": "3832Z", "cp": "47520" }, "geometry": { "type": "Point", "coordinates": [ 0.59675, 44.21136 ] } },
{ "type": "Feature", "properties": { "gml_id": "ETABLISSEMENTS_POLLUEURS.3969", "identifiant": "0005202243", "idetab": "3969", "nom": "SOGAD", "codeape": "3821Z", "cp": "47520" }, "geometry": { "type": "Point", "coordinates": [ 0.59675, 44.21136 ] } },
{ "type": "Feature", "properties": { "gml_id": "ETABLISSEMENTS_POLLUEURS.589505", "identifiant": "0005202250", "idetab": "589505", "nom": "SENITA LOGISTICS", "codeape": "5210B", "cp": "47480" }, "geometry": { "type": "Point", "coordinates": [ 0.65379, 44.21599 ] } },
{ "type": "Feature", "properties": { "gml_id": "ETABLISSEMENTS_POLLUEURS.13958", "identifiant": "0005206199", "idetab": "13958", "nom": "CARRIERES DU SUD OUEST", "codeape": "0812Z", "cp": "47130" }, "geometry": { "type": "Point", "coordinates": [ 0.39374, 44.22153 ] } },
{ "type": "Feature", "properties": { "gml_id": "ETABLISSEMENTS_POLLUEURS.598089", "identifiant": "0005208619", "idetab": "598089", "nom": "BORIE INDUSTRIES", "codeape": "2020Z", "cp": "47480" }, "geometry": { "type": "Point", "coordinates": [ 0.66259, 44.22581 ] } },
{ "type": "Feature", "properties": { "gml_id": "ETABLISSEMENTS_POLLUEURS.13949", "identifiant": "0005202140", "idetab": "13949", "nom": "NOVASOL", "codeape": "4621Z", "cp": "47230" }, "geometry": { "type": "Point", "coordinates": [ 0.3563, 44.22871 ] } },
{ "type": "Feature", "properties": { "gml_id": "ETABLISSEMENTS_POLLUEURS.6159", "identifiant": "0005202249", "idetab": "6159", "nom": "METAREX SA", "codeape": "242Z", "cp": "47480" }, "geometry": { "type": "Point", "coordinates": [ 0.682132, 44.233649 ] } },
{ "type": "Feature", "properties": { "gml_id": "ETABLISSEMENTS_POLLUEURS.7687", "identifiant": "0005205331", "idetab": "7687", "nom": "AGGLOMERATION D'AGEN", "codeape": "8411Z", "cp": "47510" }, "geometry": { "type": "Point", "coordinates": [ 0.67885, 44.26856 ] } },
{ "type": "Feature", "properties": { "gml_id": "ETABLISSEMENTS_POLLUEURS.8774", "identifiant": "0005202263", "idetab": "8774", "nom": "DALBY", "codeape": "2920Z", "cp": "47340" }, "geometry": { "type": "Point", "coordinates": [ 0.707, 44.34598 ] } },
{ "type": "Feature", "properties": { "gml_id": "ETABLISSEMENTS_POLLUEURS.11482", "identifiant": "0005202322", "idetab": "11482", "nom": "ETEX FRANCE BUILDING PERFORMANCE", "codeape": "2362Z", "cp": "47300" }, "geometry": { "type": "Point", "coordinates": [ 0.72113, 44.39203 ] } },
{ "type": "Feature", "properties": { "gml_id": "ETABLISSEMENTS_POLLUEURS.11333", "identifiant": "0005205889", "idetab": "11333", "nom": "COMMUNAUTE D AGGLOMERATION DU GRAND VILLENEUVOIS", "codeape": "3700Z", "cp": "47300" }, "geometry": { "type": "Point", "coordinates": [ 0.729094, 44.392716 ] } },
{ "type": "Feature", "properties": { "gml_id": "ETABLISSEMENTS_POLLUEURS.590280", "identifiant": "0005202330", "idetab": "590280", "nom": "DEUERER PETCARE FRANCE", "codeape": "1092Z", "cp": "47300" }, "geometry": { "type": "Point", "coordinates": [ 0.74852, 44.39288 ] } },
{ "type": "Feature", "properties": { "gml_id": "ETABLISSEMENTS_POLLUEURS.588401", "identifiant": "0005207365", "idetab": "588401", "nom": "SOS VIDANGE ASSAINISSEMENT - STE LIVRADE", "codeape": "3700Z", "cp": "47110" }, "geometry": { "type": "Point", "coordinates": [ 0.590502, 44.396757 ] } },
{ "type": "Feature", "properties": { "gml_id": "ETABLISSEMENTS_POLLUEURS.6162", "identifiant": "0005202274", "idetab": "6162", "nom": "RAYNAL ET ROQUELAURE", "codeape": "1085Z", "cp": "47110" }, "geometry": { "type": "Point", "coordinates": [ 0.5935, 44.3988 ] } },
{ "type": "Feature", "properties": { "gml_id": "ETABLISSEMENTS_POLLUEURS.588404", "identifiant": "0005208127", "idetab": "588404", "nom": "BRANGE ENVIRONNEMENT", "codeape": "3832Z", "cp": "47300" }, "geometry": { "type": "Point", "coordinates": [ 0.65293, 44.39966 ] } },
{ "type": "Feature", "properties": { "gml_id": "ETABLISSEMENTS_POLLUEURS.590277", "identifiant": "0005202111", "idetab": "590277", "nom": "D'AUCY CASTELMORON", "codeape": "1039A", "cp": "47260" }, "geometry": { "type": "Point", "coordinates": [ 0.49554, 44.40408 ] } },
{ "type": "Feature", "properties": { "gml_id": "ETABLISSEMENTS_POLLUEURS.3972", "identifiant": "0005202283", "idetab": "3972", "nom": "CONSERVES FRANCE", "codeape": "1039A", "cp": "47140" }, "geometry": { "type": "Point", "coordinates": [ 0.82539, 44.40777 ] } },
{ "type": "Feature", "properties": { "gml_id": "ETABLISSEMENTS_POLLUEURS.590278", "identifiant": "0005202151", "idetab": "590278", "nom": "EARL PAJAU PORC FERMIER", "codeape": "0146Z", "cp": "47400" }, "geometry": { "type": "Point", "coordinates": [ 0.3678, 44.40945 ] } },
{ "type": "Feature", "properties": { "gml_id": "ETABLISSEMENTS_POLLUEURS.12734", "identifiant": "0005209487", "idetab": "12734", "nom": "CODIMATRA", "codeape": "4663Z", "cp": "47240" }, "geometry": { "type": "Point", "coordinates": [ 0.69175, 44.17443 ] } },
{ "type": "Feature", "properties": { "gml_id": "ETABLISSEMENTS_POLLUEURS.12735", "identifiant": "0005209542", "idetab": "12735", "nom": "SEVIA", "codeape": "3812Z", "cp": "47480" }, "geometry": { "type": "Point", "coordinates": [ 0.6703, 44.22698 ] } },
{ "type": "Feature", "properties": { "gml_id": "ETABLISSEMENTS_POLLUEURS.589533", "identifiant": "0005211709", "idetab": "589533", "nom": "BIOVILLENEUVOIS", "codeape": "3521Z", "cp": "47300" }, "geometry": { "type": "Point", "coordinates": [ 0.74514, 44.39525 ] } },
{ "type": "Feature", "properties": { "gml_id": "ETABLISSEMENTS_POLLUEURS.588426", "identifiant": "0005212718", "idetab": "588426", "nom": "FAYAT ENTREPRISE TP", "codeape": "0811Z", "cp": "47510" }, "geometry": { "type": "Point", "coordinates": [ 0.63877, 44.24213 ] } },
{ "type": "Feature", "properties": { "gml_id": "ETABLISSEMENTS_POLLUEURS.588445", "identifiant": "0005213888", "idetab": "588445", "nom": "EUROVIA AQUITAINE", "codeape": "7010Z", "cp": "47300" }, "geometry": { "type": "Point", "coordinates": [ 0.694995, 44.35694 ] } },
{ "type": "Feature", "properties": { "gml_id": "ETABLISSEMENTS_POLLUEURS.5178", "identifiant": "0006802453", "idetab": "5178", "nom": "VILLEROY ET BOCH", "codeape": "2342Z", "cp": "82400" }, "geometry": { "type": "Point", "coordinates": [ 0.88367, 44.11902 ] } },
{ "type": "Feature", "properties": { "gml_id": "ETABLISSEMENTS_POLLUEURS.592328", "identifiant": "0006803019", "idetab": "592328", "nom": "ETS TOUZERY", "codeape": "4511Z", "cp": "82400" }, "geometry": { "type": "Point", "coordinates": [ 0.86124, 44.1014 ] } },
{ "type": "Feature", "properties": { "gml_id": "ETABLISSEMENTS_POLLUEURS.592363", "identifiant": "0006803272", "idetab": "592363", "nom": "ACCIAUTO", "codeape": "4520A", "cp": "82400" }, "geometry": { "type": "Point", "coordinates": [ 0.90058, 44.1078 ] } },
{ "type": "Feature", "properties": { "gml_id": "ETABLISSEMENTS_POLLUEURS.594705", "identifiant": "0006804629", "idetab": "594705", "nom": "GRAND SUD INDUSTRIES", "codeape": "2399Z", "cp": "82340" }, "geometry": { "type": "Point", "coordinates": [ 0.86111, 44.09248 ] } },
{ "type": "Feature", "properties": { "gml_id": "ETABLISSEMENTS_POLLUEURS.9214", "identifiant": "0006806119", "idetab": "9214", "nom": "CARRIERES DU SUD OUEST", "codeape": "0812Z", "cp": "82340" }, "geometry": { "type": "Point", "coordinates": [ 0.86852, 44.08883 ] } },
{ "type": "Feature", "properties": { "gml_id": "ETABLISSEMENTS_POLLUEURS.592310", "identifiant": "0006806297", "idetab": "592310", "nom": "COMMUNAUTE DE COMMUNES DES DEUX RIVES", "codeape": "8411Z", "cp": "82400" }, "geometry": { "type": "Point", "coordinates": [ 0.87855, 44.12049 ] } },
{ "type": "Feature", "properties": { "gml_id": "ETABLISSEMENTS_POLLUEURS.592315", "identifiant": "0006811754", "idetab": "592315", "nom": "ENTREPRISE DONINI", "codeape": "4312A", "cp": "82340" }, "geometry": { "type": "Point", "coordinates": [ 0.89961, 44.07051 ] } },
{ "type": "Feature", "properties": { "gml_id": "ETABLISSEMENTS_POLLUEURS.592606", "identifiant": "0009069941", "idetab": "592606", "nom": "ELECTRICITE DE FRANCE", "codeape": "3511Z", "cp": "82400" }, "geometry": { "type": "Point", "coordinates": [ 0.89872, 44.10764 ] } },
{ "type": "Feature", "properties": { "gml_id": "ETABLISSEMENTS_POLLUEURS.591291", "identifiant": "0069908003", "idetab": "591291", "nom": "EDF - CNPE DE GOLFECH", "codeape": "3511Z", "cp": "82400" }, "geometry": { "type": "Point", "coordinates": [ 0.895327, 44.11022 ] } },
{ "type": "Feature", "properties": { "gml_id": "ETABLISSEMENTS_POLLUEURS.599341", "identifiant": "0100044049", "idetab": "599341", "nom": "NGE ROUTES", "codeape": "4211Z", "cp": "47110" }, "geometry": { "type": "Point", "coordinates": [ 0.50908, 44.37354 ] } },
{ "type": "Feature", "properties": { "gml_id": "ETABLISSEMENTS_POLLUEURS.10404", "identifiant": "47112058", "idetab": "10404", "nom": "EARL PAJAU PORC FERMIER", "codeape": "0146Z", "cp": "47400" }, "geometry": { "type": "Point", "coordinates": [ 0.392117, 44.43009 ] } },
{ "type": "Feature", "properties": { "gml_id": "ETABLISSEMENTS_POLLUEURS.7412", "identifiant": "47323010", "idetab": "7412", "nom": "DEUERER PETCARE FRANCE", "codeape": "1092Z", "cp": "47300" }, "geometry": { "type": "Point", "coordinates": [ 0.714591, 44.40846 ] } },
{ "type": "Feature", "properties": { "gml_id": "ETABLISSEMENTS_POLLUEURS.7584", "identifiant": "75647002", "idetab": "7584", "nom": "SAS LES FILS DE A. DEPENNE", "codeape": "1039A", "cp": "47260" }, "geometry": { "type": "Point", "coordinates": [ 0.507462, 44.403769 ] } },
{ "type": "Feature", "properties": { "gml_id": "ETABLISSEMENTS_POLLUEURS.11279", "identifiant": "0005205618", "idetab": "11279", "nom": "SYNDICAT MIXTE DE VALORISATION ET DE TRAITEMENT DES DECHETS MENAGERS ET ASSIMILES EN LOT ET GARONNE", "codeape": "3821Z", "cp": "47150" }, "geometry": { "type": "Point", "coordinates": [ 0.70058, 44.52965 ] } },
{ "type": "Feature", "properties": { "gml_id": "ETABLISSEMENTS_POLLUEURS.6202", "identifiant": "0005205545", "idetab": "6202", "nom": "SYNDICAT MIXTE DE VALORISATION ET DE TRAITEMENT DES DECHETS MENAGERS ET ASSIMILES EN LOT ET GARONNE", "codeape": "3821Z", "cp": "47150" }, "geometry": { "type": "Point", "coordinates": [ 0.76854, 44.5322 ] } },
{ "type": "Feature", "properties": { "gml_id": "ETABLISSEMENTS_POLLUEURS.6155", "identifiant": "0005202214", "idetab": "6155", "nom": "C2R - MIRAMONT", "codeape": "1623Z", "cp": "47800" }, "geometry": { "type": "Point", "coordinates": [ 0.360043, 44.600628 ] } },
{ "type": "Feature", "properties": { "gml_id": "ETABLISSEMENTS_POLLUEURS.11280", "identifiant": "0005205679", "idetab": "11280", "nom": "SMID PAYS DU DROPT- MIRAMONT", "codeape": "3811Z", "cp": "47800" }, "geometry": { "type": "Point", "coordinates": [ 0.360043, 44.600628 ] } },
{ "type": "Feature", "properties": { "gml_id": "ETABLISSEMENTS_POLLUEURS.594367", "identifiant": "0005205949", "idetab": "594367", "nom": "CALCAIRES ET DIORITE DU PERIGORD", "codeape": "0812Z", "cp": "24560" }, "geometry": { "type": "Point", "coordinates": [ 0.54473, 44.70062 ] } },
{ "type": "Feature", "properties": { "gml_id": "ETABLISSEMENTS_POLLUEURS.7666", "identifiant": "0005200210", "idetab": "7666", "nom": "TRAIT ALU", "codeape": "2561Z", "cp": "24240" }, "geometry": { "type": "Point", "coordinates": [ 0.4218, 44.75701 ] } },
{ "type": "Feature", "properties": { "gml_id": "ETABLISSEMENTS_POLLUEURS.10526", "identifiant": "0005208312", "idetab": "10526", "nom": "RAMEAU JEAN CLAUDE ET FILS", "codeape": "4520A", "cp": "24520" }, "geometry": { "type": "Point", "coordinates": [ 0.54371, 44.82066 ] } },
{ "type": "Feature", "properties": { "gml_id": "ETABLISSEMENTS_POLLUEURS.11479", "identifiant": "0005200082", "idetab": "11479", "nom": "BALDO RECUPERATION", "codeape": "3831Z", "cp": "24680" }, "geometry": { "type": "Point", "coordinates": [ 0.398367, 44.832714 ] } },
{ "type": "Feature", "properties": { "gml_id": "ETABLISSEMENTS_POLLUEURS.198", "identifiant": "0005200010", "idetab": "198", "nom": "POLYREY", "codeape": "2221Z", "cp": "24150" }, "geometry": { "type": "Point", "coordinates": [ 0.69737, 44.83506 ] } },
{ "type": "Feature", "properties": { "gml_id": "ETABLISSEMENTS_POLLUEURS.3994", "identifiant": "0005205487", "idetab": "3994", "nom": "USINE POLYREY", "codeape": "3530Z", "cp": "24150" }, "geometry": { "type": "Point", "coordinates": [ 0.739112, 44.836057 ] } },
{ "type": "Feature", "properties": { "gml_id": "ETABLISSEMENTS_POLLUEURS.3993", "identifiant": "0005205229", "idetab": "3993", "nom": "COGESTAR 2", "codeape": "3511Z", "cp": "24150" }, "geometry": { "type": "Point", "coordinates": [ 0.73807, 44.83679 ] } },
{ "type": "Feature", "properties": { "gml_id": "ETABLISSEMENTS_POLLUEURS.199", "identifiant": "0005200028", "idetab": "199", "nom": "EURENCO FRANCE SAS", "codeape": "2051Z", "cp": "24108" }, "geometry": { "type": "Point", "coordinates": [ 0.5013, 44.84376 ] } },
{ "type": "Feature", "properties": { "gml_id": "ETABLISSEMENTS_POLLUEURS.10520", "identifiant": "0005207267", "idetab": "10520", "nom": "MANUCO", "codeape": "2016Z", "cp": "24100" }, "geometry": { "type": "Point", "coordinates": [ 0.519736, 44.846078 ] } },
{ "type": "Feature", "properties": { "gml_id": "ETABLISSEMENTS_POLLUEURS.3935", "identifiant": "0005200081", "idetab": "3935", "nom": "AHLSTROM ROTTERSAC", "codeape": "1712Z", "cp": "24150" }, "geometry": { "type": "Point", "coordinates": [ 0.74771, 44.84841 ] } },
{ "type": "Feature", "properties": { "gml_id": "ETABLISSEMENTS_POLLUEURS.7665", "identifiant": "0005200026", "idetab": "7665", "nom": "BOUCHILLOU ALKYA", "codeape": "2030Z", "cp": "24100" }, "geometry": { "type": "Point", "coordinates": [ 0.486177, 44.85298 ] } },
{ "type": "Feature", "properties": { "gml_id": "ETABLISSEMENTS_POLLUEURS.3933", "identifiant": "0005200016", "idetab": "3933", "nom": "EURENCO (EX-BERGERAC NC)", "codeape": "2051Z", "cp": "24108" }, "geometry": { "type": "Point", "coordinates": [ 0.486177, 44.85298 ] } },
{ "type": "Feature", "properties": { "gml_id": "ETABLISSEMENTS_POLLUEURS.588405", "identifiant": "0005208223", "idetab": "588405", "nom": "S. MIXTE DEP. POUR LA GESTION ET LE TRAIT. DES DECHETS MENAGERS ET ASSIMILES", "codeape": "3821Z", "cp": "24100" }, "geometry": { "type": "Point", "coordinates": [ 0.50633, 44.85444 ] } },
{ "type": "Feature", "properties": { "gml_id": "ETABLISSEMENTS_POLLUEURS.6079", "identifiant": "0005200064", "idetab": "6079", "nom": "BERNARD DUMAS SA", "codeape": "2314Z", "cp": "24100" }, "geometry": { "type": "Point", "coordinates": [ 0.56675, 44.85488 ] } },
{ "type": "Feature", "properties": { "gml_id": "ETABLISSEMENTS_POLLUEURS.6210", "identifiant": "0005206189", "idetab": "6210", "nom": "VILGO", "codeape": "3250A", "cp": "24102" }, "geometry": { "type": "Point", "coordinates": [ 0.569655, 44.856191 ] } },
{ "type": "Feature", "properties": { "gml_id": "ETABLISSEMENTS_POLLUEURS.13960", "identifiant": "0005206625", "idetab": "13960", "nom": "CHROMADURLIN", "codeape": "2030Z", "cp": "24100" }, "geometry": { "type": "Point", "coordinates": [ 0.569655, 44.856191 ] } },
{ "type": "Feature", "properties": { "gml_id": "ETABLISSEMENTS_POLLUEURS.588388", "identifiant": "0005203048", "idetab": "588388", "nom": "CALCAIRES ET DIORITE DU PERIGORD", "codeape": "7010Z", "cp": "24520" }, "geometry": { "type": "Point", "coordinates": [ 0.60674, 44.91124 ] } },
{ "type": "Feature", "properties": { "gml_id": "ETABLISSEMENTS_POLLUEURS.589527", "identifiant": "0005208807", "idetab": "589527", "nom": "SOCIETE INDUSTRIELLE DE RECUPERATION DES METAUX", "codeape": "3831Z", "cp": "24680" }, "geometry": { "type": "Point", "coordinates": [ 0.37676, 44.83933 ] } },
{ "type": "Feature", "properties": { "gml_id": "ETABLISSEMENTS_POLLUEURS.589530", "identifiant": "0005209664", "idetab": "589530", "nom": "S. MIXTE DEP. POUR LA GESTION ET LE TRAIT. DES DECHETS MENAGERS ET ASSIMILES", "codeape": "3821Z", "cp": "24100" }, "geometry": { "type": "Point", "coordinates": [ 0.50633, 44.85444 ] } },
{ "type": "Feature", "properties": { "gml_id": "ETABLISSEMENTS_POLLUEURS.588417", "identifiant": "0005209779", "idetab": "588417", "nom": "S. MIXTE DEP. POUR LA GESTION ET LE TRAIT. DES DECHETS MENAGERS ET ASSIMILES", "codeape": "3821Z", "cp": "24480" }, "geometry": { "type": "Point", "coordinates": [ 0.858989, 44.82986 ] } },
{ "type": "Feature", "properties": { "gml_id": "ETABLISSEMENTS_POLLUEURS.599104", "identifiant": "0052400080", "idetab": "599104", "nom": "DELMOND FOIES GRAS", "codeape": "1012Z", "cp": "24100" }, "geometry": { "type": "Point", "coordinates": [ 0.52258, 44.85499 ] } },
{ "type": "Feature", "properties": { "gml_id": "ETABLISSEMENTS_POLLUEURS.589367", "identifiant": "0052400144", "idetab": "589367", "nom": "TOMATES D'AQUITAINE SAS", "codeape": "1039A", "cp": "24100" }, "geometry": { "type": "Point", "coordinates": [ 0.454992, 44.850062 ] } },
{ "type": "Feature", "properties": { "gml_id": "ETABLISSEMENTS_POLLUEURS.590801", "identifiant": "0052400446", "idetab": "590801", "nom": "PECH DU DOGNON", "codeape": "0146Z", "cp": "24260" }, "geometry": { "type": "Point", "coordinates": [ 0.87199, 44.98739 ] } },
{ "type": "Feature", "properties": { "gml_id": "ETABLISSEMENTS_POLLUEURS.598963", "identifiant": "0100007787", "idetab": "598963", "nom": "S. MIXTE DEP. POUR LA GESTION ET LE TRAIT. DES DECHETS MENAGERS ET ASSIMILES", "codeape": "3821Z", "cp": "24240" }, "geometry": { "type": "Point", "coordinates": [ 0.42281, 44.75756 ] } },
{ "type": "Feature", "properties": { "gml_id": "ETABLISSEMENTS_POLLUEURS.10353", "identifiant": "24217039", "idetab": "10353", "nom": "GAEC DU PECH DU DOGNON", "codeape": "0146Z", "cp": "24260" }, "geometry": { "type": "Point", "coordinates": [ 0.888213, 44.971743 ] } },
{ "type": "Feature", "properties": { "gml_id": "ETABLISSEMENTS_POLLUEURS.11265", "identifiant": "75624001", "idetab": "11265", "nom": "CONSERVERIE DE BERGERAC", "codeape": "1039A", "cp": "24100" }, "geometry": { "type": "Point", "coordinates": [ 0.48588, 44.861972 ] } },
{ "type": "Feature", "properties": { "gml_id": "ETABLISSEMENTS_POLLUEURS.590279", "identifiant": "0005202315", "idetab": "590279", "nom": "SAS DOMAINE DU TAUZIA", "codeape": "1089Z", "cp": "47160" }, "geometry": { "type": "Point", "coordinates": [ 0.2187, 44.32928 ] } },
{ "type": "Feature", "properties": { "gml_id": "ETABLISSEMENTS_POLLUEURS.596991", "identifiant": "0003106886", "idetab": "596991", "nom": "SAS DOMAINE DU TAUZIA", "codeape": "1089Z", "cp": "47160" }, "geometry": { "type": "Point", "coordinates": [ 0.21899, 44.30377 ] } },
{ "type": "Feature", "properties": { "gml_id": "ETABLISSEMENTS_POLLUEURS.10519", "identifiant": "0005207083", "idetab": "10519", "nom": "VEOLIA AGRICULTURE FRANCE", "codeape": "3821Z", "cp": "47160" }, "geometry": { "type": "Point", "coordinates": [ 0.21954, 44.268 ] } },
{ "type": "Feature", "properties": { "gml_id": "ETABLISSEMENTS_POLLUEURS.597202", "identifiant": "0005208969", "idetab": "597202", "nom": "SAS DOMAINE DU TAUZIA", "codeape": "1089Z", "cp": "47160" }, "geometry": { "type": "Point", "coordinates": [ 0.22496, 44.32807 ] } },
{ "type": "Feature", "properties": { "gml_id": "ETABLISSEMENTS_POLLUEURS.592029", "identifiant": "0003101785", "idetab": "592029", "nom": "EURIVIM", "codeape": "4110C", "cp": "47160" }, "geometry": { "type": "Point", "coordinates": [ 0.26763, 44.29068 ] } },
{ "type": "Feature", "properties": { "gml_id": "ETABLISSEMENTS_POLLUEURS.12731", "identifiant": "0005208685", "idetab": "12731", "nom": "SOREGOM", "codeape": "3832Z", "cp": "47160" }, "geometry": { "type": "Point", "coordinates": [ 0.26763, 44.29068 ] } },
{ "type": "Feature", "properties": { "gml_id": "ETABLISSEMENTS_POLLUEURS.12706", "identifiant": "0005204338", "idetab": "12706", "nom": "LAFARGE GRANULATS", "codeape": "0812Z", "cp": "47400" }, "geometry": { "type": "Point", "coordinates": [ 0.27506, 44.39057 ] } },
{ "type": "Feature", "properties": { "gml_id": "ETABLISSEMENTS_POLLUEURS.11486", "identifiant": "0005208689", "idetab": "11486", "nom": "XILOFRANCE SAS", "codeape": "1621Z", "cp": "47160" }, "geometry": { "type": "Point", "coordinates": [ 0.278715, 44.288348 ] } },
{ "type": "Feature", "properties": { "gml_id": "ETABLISSEMENTS_POLLUEURS.11453", "identifiant": "0005202130", "idetab": "11453", "nom": "AMAT - ENTREPRISE ADAPTEE", "codeape": "8292Z", "cp": "47160" }, "geometry": { "type": "Point", "coordinates": [ 0.278715, 44.288348 ] } },
{ "type": "Feature", "properties": { "gml_id": "ETABLISSEMENTS_POLLUEURS.6204", "identifiant": "0005205617", "idetab": "6204", "nom": "CSDU DE FAUILLET", "codeape": "3811Z", "cp": "47400" }, "geometry": { "type": "Point", "coordinates": [ 0.292028, 44.423097 ] } },
{ "type": "Feature", "properties": { "gml_id": "ETABLISSEMENTS_POLLUEURS.13954", "identifiant": "0005204261", "idetab": "13954", "nom": "SOCIETE DEPARTEMENTALE DE CARRIERES", "codeape": "0812Z", "cp": "47160" }, "geometry": { "type": "Point", "coordinates": [ 0.29843, 44.27254 ] } },
{ "type": "Feature", "properties": { "gml_id": "ETABLISSEMENTS_POLLUEURS.594279", "identifiant": "0005204302", "idetab": "594279", "nom": "LES DRAGAGES DU PONT DE ST LEGER", "codeape": "5040Z", "cp": "47160" }, "geometry": { "type": "Point", "coordinates": [ 0.30051, 44.31238 ] } },
{ "type": "Feature", "properties": { "gml_id": "ETABLISSEMENTS_POLLUEURS.7410", "identifiant": "47110012", "idetab": "7410", "nom": "GAEC DE WENNUS", "codeape": "0146Z", "cp": "47400" }, "geometry": { "type": "Point", "coordinates": [ 0.301291, 44.463647 ] } },
{ "type": "Feature", "properties": { "gml_id": "ETABLISSEMENTS_POLLUEURS.12705", "identifiant": "0005204301", "idetab": "12705", "nom": "LES DRAGAGES DU PONT DE ST LEGER", "codeape": "0812Z", "cp": "47160" }, "geometry": { "type": "Point", "coordinates": [ 0.30676, 44.28629 ] } },
{ "type": "Feature", "properties": { "gml_id": "ETABLISSEMENTS_POLLUEURS.9419", "identifiant": "47310043", "idetab": "9419", "nom": "SOGP FRANCE", "codeape": "0147Z", "cp": "47400" }, "geometry": { "type": "Point", "coordinates": [ 0.313127, 44.39862 ] } },
{ "type": "Feature", "properties": { "gml_id": "ETABLISSEMENTS_POLLUEURS.597040", "identifiant": "0005207737", "idetab": "597040", "nom": "GAEC DE WENNUS", "codeape": "0146Z", "cp": "47400" }, "geometry": { "type": "Point", "coordinates": [ 0.3136, 44.44782 ] } },
{ "type": "Feature", "properties": { "gml_id": "ETABLISSEMENTS_POLLUEURS.6163", "identifiant": "0005202306", "idetab": "6163", "nom": "RIGHINI", "codeape": "1623Z", "cp": "47400" }, "geometry": { "type": "Point", "coordinates": [ 0.316106, 44.402994 ] } },
{ "type": "Feature", "properties": { "gml_id": "ETABLISSEMENTS_POLLUEURS.241", "identifiant": "0005202305", "idetab": "241", "nom": "CURIA FRANCE SAS", "codeape": "2014Z", "cp": "47400" }, "geometry": { "type": "Point", "coordinates": [ 0.32168, 44.39545 ] } },
{ "type": "Feature", "properties": { "gml_id": "ETABLISSEMENTS_POLLUEURS.6205", "identifiant": "0005205637", "idetab": "6205", "nom": "SYNDICAT MIXTE DE VALORISATION ET DE TRAITEMENT DES DECHETS MENAGERS ET ASSIMILES EN LOT ET GARONNE", "codeape": "3821Z", "cp": "47190" }, "geometry": { "type": "Point", "coordinates": [ 0.33088, 44.32698 ] } },
{ "type": "Feature", "properties": { "gml_id": "ETABLISSEMENTS_POLLUEURS.597082", "identifiant": "0003103910", "idetab": "597082", "nom": "SYNDICAT MIXTE DE VALORISATION ET DE TRAITEMENT DES DECHETS MENAGERS ET ASSIMILES EN LOT ET GARONNE", "codeape": "3821Z", "cp": "47160" }, "geometry": { "type": "Point", "coordinates": [ 0.33927, 44.29219 ] } },
{ "type": "Feature", "properties": { "gml_id": "ETABLISSEMENTS_POLLUEURS.237", "identifiant": "0005202124", "idetab": "237", "nom": "TARKETT BOIS", "codeape": "1622Z", "cp": "47500" }, "geometry": { "type": "Point", "coordinates": [ 0.950688, 44.543223 ] } },
{ "type": "Feature", "properties": { "gml_id": "ETABLISSEMENTS_POLLUEURS.596437", "identifiant": "0005206764", "idetab": "596437", "nom": "ARGECO DEVELOPPEMENT", "codeape": "2399Z", "cp": "47500" }, "geometry": { "type": "Point", "coordinates": [ 0.96363, 44.50916 ] } },
{ "type": "Feature", "properties": { "gml_id": "ETABLISSEMENTS_POLLUEURS.599354", "identifiant": "0003106216", "idetab": "599354", "nom": "S. MIXTE DEP. POUR LA GESTION ET LE TRAIT. DES DECHETS MENAGERS ET ASSIMILES", "codeape": "3821Z", "cp": "24170" }, "geometry": { "type": "Point", "coordinates": [ 0.96873, 44.75665 ] } },
{ "type": "Feature", "properties": { "gml_id": "ETABLISSEMENTS_POLLUEURS.238", "identifiant": "0005202148", "idetab": "238", "nom": "METALTEMPLE AQUITAINE", "codeape": "2562B", "cp": "47500" }, "geometry": { "type": "Point", "coordinates": [ 0.970426, 44.498039 ] } },
{ "type": "Feature", "properties": { "gml_id": "ETABLISSEMENTS_POLLUEURS.6221", "identifiant": "0005206997", "idetab": "6221", "nom": "L.N.U.F. MONTAYRAL", "codeape": "1051A", "cp": "47500" }, "geometry": { "type": "Point", "coordinates": [ 0.97346, 44.4834 ] } },
{ "type": "Feature", "properties": { "gml_id": "ETABLISSEMENTS_POLLUEURS.3970", "identifiant": "0005202270", "idetab": "3970", "nom": "SARL BRUYERES ET FILS", "codeape": "2352Z", "cp": "47500" }, "geometry": { "type": "Point", "coordinates": [ 0.97787, 44.57471 ] } },
{ "type": "Feature", "properties": { "gml_id": "ETABLISSEMENTS_POLLUEURS.6156", "identifiant": "0005202221", "idetab": "6156", "nom": "CMS (CHROMAGE MECANIQUE SERVICES)", "codeape": "2561Z", "cp": "47500" }, "geometry": { "type": "Point", "coordinates": [ 0.988075, 44.47946 ] } }
]
}
