{
"type": "FeatureCollection",
"name": "ms:ETABLISSEMENTS_POLLUEURS",
"crs": { "type": "name", "properties": { "name": "urn:ogc:def:crs:OGC:1.3:CRS84" } },
"features": [
{ "type": "Feature", "properties": { "gml_id": "ETABLISSEMENTS_POLLUEURS.10510", "identifiant": "0005202487", "idetab": "10510", "nom": "FREIRE DE AMORIN", "codeape": "3831Z", "cp": "64210" }, "geometry": { "type": "Point", "coordinates": [ -1.56429, 43.43708 ] } },
{ "type": "Feature", "properties": { "gml_id": "ETABLISSEMENTS_POLLUEURS.3996", "identifiant": "0005206336", "idetab": "3996", "nom": "LYONNAISE DES EAUX (SITE DE BARDOS)", "codeape": "2015Z", "cp": "64200" }, "geometry": { "type": "Point", "coordinates": [ -1.558842, 43.482183 ] } },
{ "type": "Feature", "properties": { "gml_id": "ETABLISSEMENTS_POLLUEURS.9604", "identifiant": "0005202483", "idetab": "9604", "nom": "AFM RECYCLAGE", "codeape": "3831Z", "cp": "64200" }, "geometry": { "type": "Point", "coordinates": [ -1.54391, 43.46296 ] } },
{ "type": "Feature", "properties": { "gml_id": "ETABLISSEMENTS_POLLUEURS.12695", "identifiant": "0005202484", "idetab": "12695", "nom": "HARRIET", "codeape": "3831Z", "cp": "64200" }, "geometry": { "type": "Point", "coordinates": [ -1.54183, 43.46982 ] } },
{ "type": "Feature", "properties": { "gml_id": "ETABLISSEMENTS_POLLUEURS.12696", "identifiant": "0005202485", "idetab": "12696", "nom": "SEVIA SA", "codeape": "3812Z", "cp": "64200" }, "geometry": { "type": "Point", "coordinates": [ -1.538566, 43.459855 ] } },
{ "type": "Feature", "properties": { "gml_id": "ETABLISSEMENTS_POLLUEURS.12693", "identifiant": "0005202353", "idetab": "12693", "nom": "CENTRE DE DECONSTRUCTION AUTOMOBILE DE LA COTE BASQUE", "codeape": "4511Z", "cp": "64600" }, "geometry": { "type": "Point", "coordinates": [ -1.51601, 43.46368 ] } },
{ "type": "Feature", "properties": { "gml_id": "ETABLISSEMENTS_POLLUEURS.6167", "identifiant": "0005202372", "idetab": "6167", "nom": "ALCORE BRIGANTINE", "codeape": "3030Z", "cp": "64600" }, "geometry": { "type": "Point", "coordinates": [ -1.515364, 43.480083 ] } },
{ "type": "Feature", "properties": { "gml_id": "ETABLISSEMENTS_POLLUEURS.6165", "identifiant": "0005202352", "idetab": "6165", "nom": "ERDF UREA - ALLÉE PRINCE IMPÉRIAL", "codeape": "3513Z", "cp": "64600" }, "geometry": { "type": "Point", "coordinates": [ -1.515364, 43.480083 ] } },
{ "type": "Feature", "properties": { "gml_id": "ETABLISSEMENTS_POLLUEURS.598447", "identifiant": "0005208777", "idetab": "598447", "nom": "LAMINOIRS DES LANDES", "codeape": "2410Z", "cp": "40220" }, "geometry": { "type": "Point", "coordinates": [ -1.51308, 43.53047 ] } },
{ "type": "Feature", "properties": { "gml_id": "ETABLISSEMENTS_POLLUEURS.3966", "identifiant": "0005201998", "idetab": "3966", "nom": "CHANE TERMINAL BAYONNE", "codeape": "5210B", "cp": "40220" }, "geometry": { "type": "Point", "coordinates": [ -1.51173, 43.52964 ] } },
{ "type": "Feature", "properties": { "gml_id": "ETABLISSEMENTS_POLLUEURS.232", "identifiant": "0005201996", "idetab": "232", "nom": "TIMAC AGRO", "codeape": "2015Z", "cp": "40220" }, "geometry": { "type": "Point", "coordinates": [ -1.51173, 43.52964 ] } },
{ "type": "Feature", "properties": { "gml_id": "ETABLISSEMENTS_POLLUEURS.587773", "identifiant": "0005207576", "idetab": "587773", "nom": "ELIS BERROGAIN", "codeape": "9601A", "cp": "64600" }, "geometry": { "type": "Point", "coordinates": [ -1.499658, 43.497281 ] } },
{ "type": "Feature", "properties": { "gml_id": "ETABLISSEMENTS_POLLUEURS.246", "identifiant": "0005202511", "idetab": "246", "nom": "CELSA FRANCE", "codeape": "2410Z", "cp": "64340" }, "geometry": { "type": "Point", "coordinates": [ -1.49844, 43.52826 ] } },
{ "type": "Feature", "properties": { "gml_id": "ETABLISSEMENTS_POLLUEURS.243", "identifiant": "0005202378", "idetab": "243", "nom": "DASSAULT AVIATION SA", "codeape": "3030Z", "cp": "64600" }, "geometry": { "type": "Point", "coordinates": [ -1.498198, 43.500288 ] } },
{ "type": "Feature", "properties": { "gml_id": "ETABLISSEMENTS_POLLUEURS.12694", "identifiant": "0005202355", "idetab": "12694", "nom": "ETABLISSEMENTS PRIEUR", "codeape": "4677Z", "cp": "64600" }, "geometry": { "type": "Point", "coordinates": [ -1.49749, 43.4553 ] } },
{ "type": "Feature", "properties": { "gml_id": "ETABLISSEMENTS_POLLUEURS.591950", "identifiant": "0005202516", "idetab": "591950", "nom": "MAISICA DE BAYONNE", "codeape": "5210B", "cp": "64340" }, "geometry": { "type": "Point", "coordinates": [ -1.49502, 43.52719 ] } },
{ "type": "Feature", "properties": { "gml_id": "ETABLISSEMENTS_POLLUEURS.13955", "identifiant": "0005204774", "idetab": "13955", "nom": "SUEZ RV PLASTIQUES ATLANTIQUE", "codeape": "3832Z", "cp": "64100" }, "geometry": { "type": "Point", "coordinates": [ -1.49048, 43.46845 ] } },
{ "type": "Feature", "properties": { "gml_id": "ETABLISSEMENTS_POLLUEURS.7681", "identifiant": "0005202515", "idetab": "7681", "nom": "SAADEG", "codeape": "8121Z", "cp": "64340" }, "geometry": { "type": "Point", "coordinates": [ -1.486763, 43.521537 ] } },
{ "type": "Feature", "properties": { "gml_id": "ETABLISSEMENTS_POLLUEURS.247", "identifiant": "0005202517", "idetab": "247", "nom": "ETABLISSEMENT DU BOUCAU", "codeape": "5210B", "cp": "64340" }, "geometry": { "type": "Point", "coordinates": [ -1.486763, 43.521537 ] } },
{ "type": "Feature", "properties": { "gml_id": "ETABLISSEMENTS_POLLUEURS.589531", "identifiant": "0005211482", "idetab": "589531", "nom": "SYND TRAIT ORDUR MENAG COTE SUD LANDES", "codeape": "3812Z", "cp": "40220" }, "geometry": { "type": "Point", "coordinates": [ -1.48304, 43.53787 ] } },
{ "type": "Feature", "properties": { "gml_id": "ETABLISSEMENTS_POLLUEURS.245", "identifiant": "0005202444", "idetab": "245", "nom": "CIVD DE BACHEFORÈS", "codeape": "900B", "cp": "64100" }, "geometry": { "type": "Point", "coordinates": [ -1.474151, 43.492803 ] } },
{ "type": "Feature", "properties": { "gml_id": "ETABLISSEMENTS_POLLUEURS.588411", "identifiant": "0005208490", "idetab": "588411", "nom": "SYNDICAT  MIXTE BIL TA GARBI", "codeape": "8413Z", "cp": "64100" }, "geometry": { "type": "Point", "coordinates": [ -1.46677, 43.4981 ] } },
{ "type": "Feature", "properties": { "gml_id": "ETABLISSEMENTS_POLLUEURS.9603", "identifiant": "0005202451", "idetab": "9603", "nom": "AFM RECYCLAGE", "codeape": "3832Z", "cp": "64100" }, "geometry": { "type": "Point", "coordinates": [ -1.46047, 43.49935 ] } },
{ "type": "Feature", "properties": { "gml_id": "ETABLISSEMENTS_POLLUEURS.587771", "identifiant": "0005207189", "idetab": "587771", "nom": "SUEZ RV SUD OUEST", "codeape": "3811Z", "cp": "64990" }, "geometry": { "type": "Point", "coordinates": [ -1.43341, 43.48782 ] } },
{ "type": "Feature", "properties": { "gml_id": "ETABLISSEMENTS_POLLUEURS.8633", "identifiant": "0005207269", "idetab": "8633", "nom": "BAB ASSAINISSEMENT S.A.", "codeape": "900E", "cp": "40390" }, "geometry": { "type": "Point", "coordinates": [ -1.41979, 43.53166 ] } },
{ "type": "Feature", "properties": { "gml_id": "ETABLISSEMENTS_POLLUEURS.6184", "identifiant": "0005202697", "idetab": "6184", "nom": "SCB", "codeape": "144Z", "cp": "64990" }, "geometry": { "type": "Point", "coordinates": [ -1.417067, 43.467021 ] } },
{ "type": "Feature", "properties": { "gml_id": "ETABLISSEMENTS_POLLUEURS.587777", "identifiant": "0005208495", "idetab": "587777", "nom": "PHENIX RECYCLAGE", "codeape": "3832Z", "cp": "40390" }, "geometry": { "type": "Point", "coordinates": [ -1.41622, 43.52949 ] } },
{ "type": "Feature", "properties": { "gml_id": "ETABLISSEMENTS_POLLUEURS.591354", "identifiant": "0005208366", "idetab": "591354", "nom": "SUEZ RV SUD OUEST", "codeape": "3811Z", "cp": "40390" }, "geometry": { "type": "Point", "coordinates": [ -1.41454, 43.52917 ] } },
{ "type": "Feature", "properties": { "gml_id": "ETABLISSEMENTS_POLLUEURS.589513", "identifiant": "0005205154", "idetab": "589513", "nom": "DECONS SUD AQUITAINE", "codeape": "3832Z", "cp": "40390" }, "geometry": { "type": "Point", "coordinates": [ -1.41454, 43.52917 ] } },
{ "type": "Feature", "properties": { "gml_id": "ETABLISSEMENTS_POLLUEURS.10479", "identifiant": "0002508495", "idetab": "10479", "nom": "SARL PHENIX RECYCLAGE", "codeape": "3832Z", "cp": "40390" }, "geometry": { "type": "Point", "coordinates": [ -1.414239, 43.530031 ] } },
{ "type": "Feature", "properties": { "gml_id": "ETABLISSEMENTS_POLLUEURS.587793", "identifiant": "0005209617", "idetab": "587793", "nom": "SYND TRAIT ORDUR MENAG COTE SUD LANDES", "codeape": "3812Z", "cp": "40390" }, "geometry": { "type": "Point", "coordinates": [ -1.41323, 43.52733 ] } },
{ "type": "Feature", "properties": { "gml_id": "ETABLISSEMENTS_POLLUEURS.596575", "identifiant": "0005202521", "idetab": "596575", "nom": "TILT AUTO", "codeape": "4677Z", "cp": "64240" }, "geometry": { "type": "Point", "coordinates": [ -1.31835, 43.48515 ] } },
{ "type": "Feature", "properties": { "gml_id": "ETABLISSEMENTS_POLLUEURS.591932", "identifiant": "0009076401", "idetab": "591932", "nom": "CA DU PAYS BASQUE", "codeape": "3700Z", "cp": "64600" }, "geometry": { "type": "Point", "coordinates": [ -1.49801, 43.50209 ] } },
{ "type": "Feature", "properties": { "gml_id": "ETABLISSEMENTS_POLLUEURS.597747", "identifiant": "0056400060", "idetab": "597747", "nom": "ARCADIE VIANDES", "codeape": "1011Z", "cp": "64600" }, "geometry": { "type": "Point", "coordinates": [ -1.499193, 43.523263 ] } },
{ "type": "Feature", "properties": { "gml_id": "ETABLISSEMENTS_POLLUEURS.592805", "identifiant": "0056400252", "idetab": "592805", "nom": "ERRECART", "codeape": "0147Z", "cp": "64520" }, "geometry": { "type": "Point", "coordinates": [ -1.21825, 43.45866 ] } },
{ "type": "Feature", "properties": { "gml_id": "ETABLISSEMENTS_POLLUEURS.591148", "identifiant": "0056401753", "idetab": "591148", "nom": "ARCADIE SUD-OUEST", "codeape": "1011Z", "cp": "64600" }, "geometry": { "type": "Point", "coordinates": [ -1.499343, 43.523004 ] } },
{ "type": "Feature", "properties": { "gml_id": "ETABLISSEMENTS_POLLUEURS.10452", "identifiant": "0076402409", "idetab": "10452", "nom": "STEP - PONT DE L'AVEUGLE", "codeape": "3700Z", "cp": "64600" }, "geometry": { "type": "Point", "coordinates": [ -1.498014, 43.502093 ] } },
{ "type": "Feature", "properties": { "gml_id": "ETABLISSEMENTS_POLLUEURS.10416", "identifiant": "64024001", "idetab": "10416", "nom": "ARCADIE SUD-OUEST ABATTOIR", "codeape": "1011Z", "cp": "64600" }, "geometry": { "type": "Point", "coordinates": [ -1.515969, 43.489059 ] } },
{ "type": "Feature", "properties": { "gml_id": "ETABLISSEMENTS_POLLUEURS.6140", "identifiant": "0005201774", "idetab": "6140", "nom": "BAYER SEEDS SAS", "codeape": "4621Z", "cp": "40300" }, "geometry": { "type": "Point", "coordinates": [ -1.12659, 43.54867 ] } },
{ "type": "Feature", "properties": { "gml_id": "ETABLISSEMENTS_POLLUEURS.7679", "identifiant": "0005201990", "idetab": "7679", "nom": "SAFRAN HELICOPTER ENGINES", "codeape": "3316Z", "cp": "40220" }, "geometry": { "type": "Point", "coordinates": [ -1.46858, 43.55259 ] } },
{ "type": "Feature", "properties": { "gml_id": "ETABLISSEMENTS_POLLUEURS.595788", "identifiant": "0005202509", "idetab": "595788", "nom": "AIR LIQUIDE FRANCE INDUSTRIE", "codeape": "2011Z", "cp": "40220" }, "geometry": { "type": "Point", "coordinates": [ -1.46858, 43.55259 ] } },
{ "type": "Feature", "properties": { "gml_id": "ETABLISSEMENTS_POLLUEURS.587784", "identifiant": "0005209604", "idetab": "587784", "nom": "SYND TRAIT ORDUR MENAG COTE SUD LANDES", "codeape": "3812Z", "cp": "40390" }, "geometry": { "type": "Point", "coordinates": [ -1.35335, 43.56293 ] } },
{ "type": "Feature", "properties": { "gml_id": "ETABLISSEMENTS_POLLUEURS.587781", "identifiant": "0005209601", "idetab": "587781", "nom": "SYND TRAIT ORDUR MENAG COTE SUD LANDES", "codeape": "3812Z", "cp": "40390" }, "geometry": { "type": "Point", "coordinates": [ -1.26112, 43.56933 ] } },
{ "type": "Feature", "properties": { "gml_id": "ETABLISSEMENTS_POLLUEURS.587796", "identifiant": "0005209623", "idetab": "587796", "nom": "SYND TRAIT ORDUR MENAG COTE SUD LANDES", "codeape": "3812Z", "cp": "40530" }, "geometry": { "type": "Point", "coordinates": [ -1.44135, 43.57802 ] } },
{ "type": "Feature", "properties": { "gml_id": "ETABLISSEMENTS_POLLUEURS.587786", "identifiant": "0005209606", "idetab": "587786", "nom": "SYND TRAIT ORDUR MENAG COTE SUD LANDES", "codeape": "3812Z", "cp": "40300" }, "geometry": { "type": "Point", "coordinates": [ -1.14554, 43.5871 ] } },
{ "type": "Feature", "properties": { "gml_id": "ETABLISSEMENTS_POLLUEURS.6136", "identifiant": "0005201616", "idetab": "6136", "nom": "SUD OUEST LEGUMES ALLIANCE SOLEAL", "codeape": "1039A", "cp": "40530" }, "geometry": { "type": "Point", "coordinates": [ -1.40889, 43.59385 ] } },
{ "type": "Feature", "properties": { "gml_id": "ETABLISSEMENTS_POLLUEURS.6144", "identifiant": "0005201847", "idetab": "6144", "nom": "GROUPE SEOSSE", "codeape": "6420Z", "cp": "40300" }, "geometry": { "type": "Point", "coordinates": [ -1.1464, 43.596702 ] } },
{ "type": "Feature", "properties": { "gml_id": "ETABLISSEMENTS_POLLUEURS.587782", "identifiant": "0005209602", "idetab": "587782", "nom": "SYND TRAIT ORDUR MENAG COTE SUD LANDES", "codeape": "3812Z", "cp": "40230" }, "geometry": { "type": "Point", "coordinates": [ -1.29377, 43.61364 ] } },
{ "type": "Feature", "properties": { "gml_id": "ETABLISSEMENTS_POLLUEURS.595105", "identifiant": "0003100845", "idetab": "595105", "nom": "BIOGASCONHA", "codeape": "3521Z", "cp": "40230" }, "geometry": { "type": "Point", "coordinates": [ -1.40158, 43.62828 ] } },
{ "type": "Feature", "properties": { "gml_id": "ETABLISSEMENTS_POLLUEURS.3957", "identifiant": "0005201464", "idetab": "3957", "nom": "SYND TRAIT ORDUR MENAG COTE SUD LANDES", "codeape": "3511Z", "cp": "40230" }, "geometry": { "type": "Point", "coordinates": [ -1.398474, 43.629605 ] } },
{ "type": "Feature", "properties": { "gml_id": "ETABLISSEMENTS_POLLUEURS.11336", "identifiant": "0005208478", "idetab": "11336", "nom": "SYND TRAIT ORDUR MENAG COTE SUD LANDES", "codeape": "3811Z", "cp": "40230" }, "geometry": { "type": "Point", "coordinates": [ -1.397032, 43.63215 ] } },
{ "type": "Feature", "properties": { "gml_id": "ETABLISSEMENTS_POLLUEURS.587799", "identifiant": "0005213502", "idetab": "587799", "nom": "SYND TRAIT ORDUR MENAG COTE SUD LANDES", "codeape": "3812Z", "cp": "40230" }, "geometry": { "type": "Point", "coordinates": [ -1.39781, 43.63286 ] } },
{ "type": "Feature", "properties": { "gml_id": "ETABLISSEMENTS_POLLUEURS.588425", "identifiant": "0005211833", "idetab": "588425", "nom": "I.S.D.I. CAPBRETON", "codeape": "3811Z", "cp": "40130" }, "geometry": { "type": "Point", "coordinates": [ -1.425542, 43.63925 ] } },
{ "type": "Feature", "properties": { "gml_id": "ETABLISSEMENTS_POLLUEURS.587788", "identifiant": "0005209608", "idetab": "587788", "nom": "SYND TRAIT ORDUR MENAG COTE SUD LANDES", "codeape": "3812Z", "cp": "40300" }, "geometry": { "type": "Point", "coordinates": [ -1.18159, 43.64734 ] } },
{ "type": "Feature", "properties": { "gml_id": "ETABLISSEMENTS_POLLUEURS.597537", "identifiant": "0003104122", "idetab": "597537", "nom": "MAJ", "codeape": "7729Z", "cp": "40230" }, "geometry": { "type": "Point", "coordinates": [ -1.22306, 43.65238 ] } },
{ "type": "Feature", "properties": { "gml_id": "ETABLISSEMENTS_POLLUEURS.587787", "identifiant": "0005209607", "idetab": "587787", "nom": "SYND TRAIT ORDUR MENAG COTE SUD LANDES", "codeape": "3811Z", "cp": "40230" }, "geometry": { "type": "Point", "coordinates": [ -1.25758, 43.65287 ] } },
{ "type": "Feature", "properties": { "gml_id": "ETABLISSEMENTS_POLLUEURS.592325", "identifiant": "0005213830", "idetab": "592325", "nom": "SITCOM CÔTE SUD DES LANDES", "codeape": "3811Z", "cp": "40130" }, "geometry": { "type": "Point", "coordinates": [ -1.443351, 43.655544 ] } },
{ "type": "Feature", "properties": { "gml_id": "ETABLISSEMENTS_POLLUEURS.12692", "identifiant": "0005201914", "idetab": "12692", "nom": "SERIPANNEAUX", "codeape": "1621Z", "cp": "40230" }, "geometry": { "type": "Point", "coordinates": [ -1.31615, 43.65917 ] } },
{ "type": "Feature", "properties": { "gml_id": "ETABLISSEMENTS_POLLUEURS.587794", "identifiant": "0005209619", "idetab": "587794", "nom": "SYND TRAIT ORDUR MENAG COTE SUD LANDES", "codeape": "3812Z", "cp": "40230" }, "geometry": { "type": "Point", "coordinates": [ -1.28743, 43.66142 ] } },
{ "type": "Feature", "properties": { "gml_id": "ETABLISSEMENTS_POLLUEURS.591947", "identifiant": "0005201917", "idetab": "591947", "nom": "MAISADOUR - ST VINCENT DE TYROSSE", "codeape": "4621Z", "cp": "40230" }, "geometry": { "type": "Point", "coordinates": [ -1.279802, 43.665714 ] } },
{ "type": "Feature", "properties": { "gml_id": "ETABLISSEMENTS_POLLUEURS.587798", "identifiant": "0005212323", "idetab": "587798", "nom": "SYND TRAIT ORDUR MENAG COTE SUD LANDES", "codeape": "3812Z", "cp": "40150" }, "geometry": { "type": "Point", "coordinates": [ -1.38619, 43.67502 ] } },
{ "type": "Feature", "properties": { "gml_id": "ETABLISSEMENTS_POLLUEURS.591013", "identifiant": "0054000863", "idetab": "591013", "nom": "LABEYRIE FINE FOODS FRANCE", "codeape": "4639B", "cp": "40230" }, "geometry": { "type": "Point", "coordinates": [ -1.26038, 43.67608 ] } },
{ "type": "Feature", "properties": { "gml_id": "ETABLISSEMENTS_POLLUEURS.596433", "identifiant": "0056400478", "idetab": "596433", "nom": "LABEYRIE FINE FOODS FRANCE", "codeape": "1012Z", "cp": "40230" }, "geometry": { "type": "Point", "coordinates": [ -1.26038, 43.67608 ] } },
{ "type": "Feature", "properties": { "gml_id": "ETABLISSEMENTS_POLLUEURS.589515", "identifiant": "0005205489", "idetab": "589515", "nom": "SUEZ RV SUD OUEST", "codeape": "3811Z", "cp": "40990" }, "geometry": { "type": "Point", "coordinates": [ -1.13373, 43.68402 ] } },
{ "type": "Feature", "properties": { "gml_id": "ETABLISSEMENTS_POLLUEURS.6143", "identifiant": "0005201839", "idetab": "6143", "nom": "LABEYRIE SA - ST GEOURS DE MAREMNE", "codeape": "1020Z", "cp": "40230" }, "geometry": { "type": "Point", "coordinates": [ -1.229537, 43.686948 ] } },
{ "type": "Feature", "properties": { "gml_id": "ETABLISSEMENTS_POLLUEURS.6149", "identifiant": "0005202007", "idetab": "6149", "nom": "RAMONDIN FRANCE (DUVICQ)", "codeape": "2592Z", "cp": "40230" }, "geometry": { "type": "Point", "coordinates": [ -1.332289, 43.689424 ] } },
{ "type": "Feature", "properties": { "gml_id": "ETABLISSEMENTS_POLLUEURS.588431", "identifiant": "0005213833", "idetab": "588431", "nom": "CARRIERES LAFITTE", "codeape": "0812Z", "cp": "40230" }, "geometry": { "type": "Point", "coordinates": [ -1.226508, 43.699465 ] } },
{ "type": "Feature", "properties": { "gml_id": "ETABLISSEMENTS_POLLUEURS.8773", "identifiant": "0005201671", "idetab": "8773", "nom": "BOIS IMPREGNES SA", "codeape": "1610B", "cp": "40990" }, "geometry": { "type": "Point", "coordinates": [ -1.105952, 43.702606 ] } },
{ "type": "Feature", "properties": { "gml_id": "ETABLISSEMENTS_POLLUEURS.6179", "identifiant": "0005202615", "idetab": "6179", "nom": "PYRENEFROM", "codeape": "1051C", "cp": "64120" }, "geometry": { "type": "Point", "coordinates": [ -1.08793, 43.22588 ] } },
{ "type": "Feature", "properties": { "gml_id": "ETABLISSEMENTS_POLLUEURS.12189", "identifiant": "0005208451", "idetab": "12189", "nom": "M.F.A. MATÉRIEL FERROVIAIRE D'ARBERATS", "codeape": "2452Z", "cp": "64120" }, "geometry": { "type": "Point", "coordinates": [ -1.002764, 43.345608 ] } },
{ "type": "Feature", "properties": { "gml_id": "ETABLISSEMENTS_POLLUEURS.589514", "identifiant": "0005205164", "idetab": "589514", "nom": "LURALI SAS", "codeape": "1091Z", "cp": "64120" }, "geometry": { "type": "Point", "coordinates": [ -1.021344, 43.349567 ] } },
{ "type": "Feature", "properties": { "gml_id": "ETABLISSEMENTS_POLLUEURS.9602", "identifiant": "0005202348", "idetab": "9602", "nom": "LUR BERRI SAS", "codeape": "7010Z", "cp": "64120" }, "geometry": { "type": "Point", "coordinates": [ -1.022863, 43.350645 ] } },
{ "type": "Feature", "properties": { "gml_id": "ETABLISSEMENTS_POLLUEURS.591347", "identifiant": "0005204518", "idetab": "591347", "nom": "HEIDELBERG MATERIALS FRANCE GRANULATS", "codeape": "0812Z", "cp": "64270" }, "geometry": { "type": "Point", "coordinates": [ -1.05547, 43.44053 ] } },
{ "type": "Feature", "properties": { "gml_id": "ETABLISSEMENTS_POLLUEURS.8775", "identifiant": "0005202535", "idetab": "8775", "nom": "ETEX FRANCE BUILDING PERFORMANCE", "codeape": "2352Z", "cp": "64270" }, "geometry": { "type": "Point", "coordinates": [ -1.0014, 43.48409 ] } },
{ "type": "Feature", "properties": { "gml_id": "ETABLISSEMENTS_POLLUEURS.593086", "identifiant": "0005204605", "idetab": "593086", "nom": "CEMEX GRANULATS SUD OUEST", "codeape": "0812Z", "cp": "64270" }, "geometry": { "type": "Point", "coordinates": [ -1.00705, 43.49208 ] } },
{ "type": "Feature", "properties": { "gml_id": "ETABLISSEMENTS_POLLUEURS.5927", "identifiant": "75664050", "idetab": "5927", "nom": "LABEYRIE", "codeape": "1012Z", "cp": "64520" }, "geometry": { "type": "Point", "coordinates": [ -1.100081, 43.478697 ] } },
{ "type": "Feature", "properties": { "gml_id": "ETABLISSEMENTS_POLLUEURS.222", "identifiant": "0005201642", "idetab": "222", "nom": "LES DERIVES RESINIQUES ET TERPENIQUES", "codeape": "2014Z", "cp": "40260" }, "geometry": { "type": "Point", "coordinates": [ -1.03948, 43.99166 ] } },
{ "type": "Feature", "properties": { "gml_id": "ETABLISSEMENTS_POLLUEURS.588433", "identifiant": "0005213837", "idetab": "588433", "nom": "SITCOM CÔTE SUD DES LANDES (ISDI)", "codeape": "3811Z", "cp": "40990" }, "geometry": { "type": "Point", "coordinates": [ -1.089184, 43.768654 ] } },
{ "type": "Feature", "properties": { "gml_id": "ETABLISSEMENTS_POLLUEURS.589543", "identifiant": "0005213889", "idetab": "589543", "nom": "VILLE D'HENDAYE (ISDI AGORRETA)", "codeape": "3821Z", "cp": "64700" }, "geometry": { "type": "Point", "coordinates": [ -1.772075, 43.368955 ] } },
{ "type": "Feature", "properties": { "gml_id": "ETABLISSEMENTS_POLLUEURS.10523", "identifiant": "0005207882", "idetab": "10523", "nom": "SOCIETE D'EXPLOITATION ALBERDI", "codeape": "3831Z", "cp": "64700" }, "geometry": { "type": "Point", "coordinates": [ -1.77041, 43.34832 ] } },
{ "type": "Feature", "properties": { "gml_id": "ETABLISSEMENTS_POLLUEURS.7682", "identifiant": "0005202584", "idetab": "7682", "nom": "EPTA FRANCE SAS", "codeape": "2825Z", "cp": "64703" }, "geometry": { "type": "Point", "coordinates": [ -1.76887, 43.34725 ] } },
{ "type": "Feature", "properties": { "gml_id": "ETABLISSEMENTS_POLLUEURS.12697", "identifiant": "0005202498", "idetab": "12697", "nom": "SOCIETE D'EXPLOITATION ALBERDI", "codeape": "4677Z", "cp": "64700" }, "geometry": { "type": "Point", "coordinates": [ -1.74459, 43.34487 ] } },
{ "type": "Feature", "properties": { "gml_id": "ETABLISSEMENTS_POLLUEURS.591348", "identifiant": "0005204743", "idetab": "591348", "nom": "SOCIETE BASQUE DE CARRIERES", "codeape": "0812Z", "cp": "64122" }, "geometry": { "type": "Point", "coordinates": [ -1.72465, 43.34757 ] } },
{ "type": "Feature", "properties": { "gml_id": "ETABLISSEMENTS_POLLUEURS.8483", "identifiant": "0005202839", "idetab": "8483", "nom": "BIL TA GARBI (URRUGNE)", "codeape": "8413Z", "cp": "64122" }, "geometry": { "type": "Point", "coordinates": [ -1.701162, 43.361372 ] } },
{ "type": "Feature", "properties": { "gml_id": "ETABLISSEMENTS_POLLUEURS.6188", "identifiant": "0005202841", "idetab": "6188", "nom": "SIGNATURE VERTICAL & MOBILITY SOLUTIONS", "codeape": "2599B", "cp": "64122" }, "geometry": { "type": "Point", "coordinates": [ -1.69157, 43.34809 ] } },
{ "type": "Feature", "properties": { "gml_id": "ETABLISSEMENTS_POLLUEURS.12190", "identifiant": "0005209563", "idetab": "12190", "nom": "SARL CBA ARTOLA", "codeape": "0321Z", "cp": "64500" }, "geometry": { "type": "Point", "coordinates": [ -1.653978, 43.388802 ] } },
{ "type": "Feature", "properties": { "gml_id": "ETABLISSEMENTS_POLLUEURS.6207", "identifiant": "0005205987", "idetab": "6207", "nom": "SYNDICAT  MIXTE BIL TA GARBI", "codeape": "8413Z", "cp": "64310" }, "geometry": { "type": "Point", "coordinates": [ -1.57205, 43.38248 ] } },
{ "type": "Feature", "properties": { "gml_id": "ETABLISSEMENTS_POLLUEURS.592746", "identifiant": "0005204728", "idetab": "592746", "nom": "SOCIETE DES CARRIERES DE SARE SA", "codeape": "0812Z", "cp": "64310" }, "geometry": { "type": "Point", "coordinates": [ -1.56716, 43.26777 ] } },
{ "type": "Feature", "properties": { "gml_id": "ETABLISSEMENTS_POLLUEURS.3995", "identifiant": "0005206330", "idetab": "3995", "nom": "CET DE ZALUAGA", "codeape": "3821Z", "cp": "64310" }, "geometry": { "type": "Point", "coordinates": [ -1.551224, 43.356168 ] } },
{ "type": "Feature", "properties": { "gml_id": "ETABLISSEMENTS_POLLUEURS.594081", "identifiant": "0005204510", "idetab": "594081", "nom": "LARRONDE ET CIE S A", "codeape": "0812Z", "cp": "64250" }, "geometry": { "type": "Point", "coordinates": [ -1.49078, 43.29056 ] } },
{ "type": "Feature", "properties": { "gml_id": "ETABLISSEMENTS_POLLUEURS.594792", "identifiant": "0005204738", "idetab": "594792", "nom": "LARRONDE ET CIE S A", "codeape": "0812Z", "cp": "64250" }, "geometry": { "type": "Point", "coordinates": [ -1.48539, 43.32859 ] } },
{ "type": "Feature", "properties": { "gml_id": "ETABLISSEMENTS_POLLUEURS.10521", "identifiant": "0005207863", "idetab": "10521", "nom": "AUTO-CASSE DU LABOURD", "codeape": "4677Z", "cp": "64480" }, "geometry": { "type": "Point", "coordinates": [ -1.453172, 43.393529 ] } },
{ "type": "Feature", "properties": { "gml_id": "ETABLISSEMENTS_POLLUEURS.6174", "identifiant": "0005202554", "idetab": "6174", "nom": "TANNERIE REMY CARRIAT", "codeape": "1511Z", "cp": "64250" }, "geometry": { "type": "Point", "coordinates": [ -1.44533, 43.33611 ] } },
{ "type": "Feature", "properties": { "gml_id": "ETABLISSEMENTS_POLLUEURS.589539", "identifiant": "0005213849", "idetab": "589539", "nom": "SOCIETE BASQUE DE MATERIELS ET TRAVAUX", "codeape": "4312A", "cp": "64250" }, "geometry": { "type": "Point", "coordinates": [ -1.44207, 43.34406 ] } },
{ "type": "Feature", "properties": { "gml_id": "ETABLISSEMENTS_POLLUEURS.6176", "identifiant": "0005202589", "idetab": "6176", "nom": "LOREKI", "codeape": "2015Z", "cp": "64250" }, "geometry": { "type": "Point", "coordinates": [ -1.41726, 43.3467 ] } },
{ "type": "Feature", "properties": { "gml_id": "ETABLISSEMENTS_POLLUEURS.12699", "identifiant": "0005202590", "idetab": "12699", "nom": "AUTO ERROBI", "codeape": "4677Z", "cp": "64250" }, "geometry": { "type": "Point", "coordinates": [ -1.40485, 43.324455 ] } },
{ "type": "Feature", "properties": { "gml_id": "ETABLISSEMENTS_POLLUEURS.590304", "identifiant": "0005213867", "idetab": "590304", "nom": "SYNDICAT  MIXTE BIL TA GARBI", "codeape": "8413Z", "cp": "64250" }, "geometry": { "type": "Point", "coordinates": [ -1.38592, 43.35844 ] } },
{ "type": "Feature", "properties": { "gml_id": "ETABLISSEMENTS_POLLUEURS.588393", "identifiant": "0005205601", "idetab": "588393", "nom": "ONETIK", "codeape": "1051C", "cp": "64240" }, "geometry": { "type": "Point", "coordinates": [ -1.317737, 43.332999 ] } },
{ "type": "Feature", "properties": { "gml_id": "ETABLISSEMENTS_POLLUEURS.6175", "identifiant": "0005202564", "idetab": "6175", "nom": "LAUAK INDUSTRIE", "codeape": "2511Z", "cp": "64240" }, "geometry": { "type": "Point", "coordinates": [ -1.31462, 43.38164 ] } },
{ "type": "Feature", "properties": { "gml_id": "ETABLISSEMENTS_POLLUEURS.255", "identifiant": "0005206586", "idetab": "255", "nom": "CEPB", "codeape": "3821Z", "cp": "64240" }, "geometry": { "type": "Point", "coordinates": [ -1.30858, 43.39683 ] } },
{ "type": "Feature", "properties": { "gml_id": "ETABLISSEMENTS_POLLUEURS.587778", "identifiant": "0005209075", "idetab": "587778", "nom": "LAUAK FRANCE", "codeape": "2511Z", "cp": "64240" }, "geometry": { "type": "Point", "coordinates": [ -1.306175, 43.383183 ] } },
{ "type": "Feature", "properties": { "gml_id": "ETABLISSEMENTS_POLLUEURS.594920", "identifiant": "0005202422", "idetab": "594920", "nom": "LAUAK FRANCE", "codeape": "2511Z", "cp": "64240" }, "geometry": { "type": "Point", "coordinates": [ -1.28593, 43.38362 ] } },
{ "type": "Feature", "properties": { "gml_id": "ETABLISSEMENTS_POLLUEURS.6171", "identifiant": "0005202503", "idetab": "6171", "nom": "BONCOLAC", "codeape": "1071A", "cp": "64240" }, "geometry": { "type": "Point", "coordinates": [ -1.267558, 43.365348 ] } },
{ "type": "Feature", "properties": { "gml_id": "ETABLISSEMENTS_POLLUEURS.593448", "identifiant": "0005204638", "idetab": "593448", "nom": "SOCIETE DES CARRIERES DE SARE SA", "codeape": "0812Z", "cp": "64240" }, "geometry": { "type": "Point", "coordinates": [ -1.22873, 43.36477 ] } },
{ "type": "Feature", "properties": { "gml_id": "ETABLISSEMENTS_POLLUEURS.589538", "identifiant": "0005213842", "idetab": "589538", "nom": "CARRIERES ET TRAVAUX DE NAVARRE", "codeape": "0812Z", "cp": "64220" }, "geometry": { "type": "Point", "coordinates": [ -1.22612, 43.15505 ] } },
{ "type": "Feature", "properties": { "gml_id": "ETABLISSEMENTS_POLLUEURS.590301", "identifiant": "0005213843", "idetab": "590301", "nom": "SOCIETE DES CARRIERES DE SARE SA", "codeape": "0812Z", "cp": "64640" }, "geometry": { "type": "Point", "coordinates": [ -1.20875, 43.33587 ] } },
{ "type": "Feature", "properties": { "gml_id": "ETABLISSEMENTS_POLLUEURS.593454", "identifiant": "0005204592", "idetab": "593454", "nom": "CARRIERES ET TRAVAUX DE NAVARRE", "codeape": "0812Z", "cp": "64220" }, "geometry": { "type": "Point", "coordinates": [ -1.18797, 43.18287 ] } },
{ "type": "Feature", "properties": { "gml_id": "ETABLISSEMENTS_POLLUEURS.596570", "identifiant": "0056400372", "idetab": "596570", "nom": "BONCOLAC", "codeape": "1071A", "cp": "64240" }, "geometry": { "type": "Point", "coordinates": [ -1.26743, 43.36876 ] } },
{ "type": "Feature", "properties": { "gml_id": "ETABLISSEMENTS_POLLUEURS.596955", "identifiant": "0056401481", "idetab": "596955", "nom": "SCEA EYHERABIDE", "codeape": "0147Z", "cp": "64220" }, "geometry": { "type": "Point", "coordinates": [ -1.214499, 43.195581 ] } },
{ "type": "Feature", "properties": { "gml_id": "ETABLISSEMENTS_POLLUEURS.587795", "identifiant": "0005209620", "idetab": "587795", "nom": "SYND TRAIT ORDUR MENAG COTE SUD LANDES", "codeape": "3812Z", "cp": "40140" }, "geometry": { "type": "Point", "coordinates": [ -1.34879, 43.74186 ] } },
{ "type": "Feature", "properties": { "gml_id": "ETABLISSEMENTS_POLLUEURS.6147", "identifiant": "0005201973", "idetab": "6147", "nom": "ENNOLYS", "codeape": "1089Z", "cp": "40140" }, "geometry": { "type": "Point", "coordinates": [ -1.32957, 43.7441 ] } },
{ "type": "Feature", "properties": { "gml_id": "ETABLISSEMENTS_POLLUEURS.6148", "identifiant": "0005201975", "idetab": "6148", "nom": "PACCOR FRANCE SAS", "codeape": "2221Z", "cp": "40140" }, "geometry": { "type": "Point", "coordinates": [ -1.32415, 43.74709 ] } },
{ "type": "Feature", "properties": { "gml_id": "ETABLISSEMENTS_POLLUEURS.587789", "identifiant": "0005209609", "idetab": "587789", "nom": "SYND TRAIT ORDUR MENAG COTE SUD LANDES", "codeape": "3812Z", "cp": "40140" }, "geometry": { "type": "Point", "coordinates": [ -1.23464, 43.77337 ] } },
{ "type": "Feature", "properties": { "gml_id": "ETABLISSEMENTS_POLLUEURS.588414", "identifiant": "0005209612", "idetab": "588414", "nom": "SYND TRAIT ORDUR MENAG COTE SUD LANDES", "codeape": "3812Z", "cp": "40480" }, "geometry": { "type": "Point", "coordinates": [ -1.39849, 43.79544 ] } },
{ "type": "Feature", "properties": { "gml_id": "ETABLISSEMENTS_POLLUEURS.588432", "identifiant": "0005213834", "idetab": "588432", "nom": "SYND TRAIT ORDUR MENAG COTE SUD LANDES", "codeape": "3811Z", "cp": "40660" }, "geometry": { "type": "Point", "coordinates": [ -1.32234, 43.79579 ] } },
{ "type": "Feature", "properties": { "gml_id": "ETABLISSEMENTS_POLLUEURS.3961", "identifiant": "0005201675", "idetab": "3961", "nom": "SITCOM - MESSANGES", "codeape": "3811Z", "cp": "40660" }, "geometry": { "type": "Point", "coordinates": [ -1.379127, 43.814765 ] } },
{ "type": "Feature", "properties": { "gml_id": "ETABLISSEMENTS_POLLUEURS.587791", "identifiant": "0005209611", "idetab": "587791", "nom": "SYND TRAIT ORDUR MENAG COTE SUD LANDES", "codeape": "3812Z", "cp": "40660" }, "geometry": { "type": "Point", "coordinates": [ -1.32479, 43.82495 ] } },
{ "type": "Feature", "properties": { "gml_id": "ETABLISSEMENTS_POLLUEURS.3959", "identifiant": "0005201506", "idetab": "3959", "nom": "LES DERIVES RESINIQUES ET TERPENIQUES", "codeape": "2014Z", "cp": "40260" }, "geometry": { "type": "Point", "coordinates": [ -1.14566, 43.86769 ] } },
{ "type": "Feature", "properties": { "gml_id": "ETABLISSEMENTS_POLLUEURS.3958", "identifiant": "0005201496", "idetab": "3958", "nom": "FIRMENICH PRODUCTIONS", "codeape": "2014Z", "cp": "40260" }, "geometry": { "type": "Point", "coordinates": [ -1.1522, 43.8687 ] } },
{ "type": "Feature", "properties": { "gml_id": "ETABLISSEMENTS_POLLUEURS.8767", "identifiant": "0005201503", "idetab": "8767", "nom": "GASCOGNE BOIS", "codeape": "1610A", "cp": "40260" }, "geometry": { "type": "Point", "coordinates": [ -1.148567, 43.873397 ] } },
{ "type": "Feature", "properties": { "gml_id": "ETABLISSEMENTS_POLLUEURS.587792", "identifiant": "0005209613", "idetab": "587792", "nom": "SYND TRAIT ORDUR MENAG COTE SUD LANDES", "codeape": "3812Z", "cp": "40260" }, "geometry": { "type": "Point", "coordinates": [ -1.11332, 43.87883 ] } },
{ "type": "Feature", "properties": { "gml_id": "ETABLISSEMENTS_POLLUEURS.590137", "identifiant": "0054000231", "idetab": "590137", "nom": "DELMAS POISSONS ET MAREE", "codeape": "1020Z", "cp": "40260" }, "geometry": { "type": "Point", "coordinates": [ -1.11846, 43.8798 ] } },
{ "type": "Feature", "properties": { "gml_id": "ETABLISSEMENTS_POLLUEURS.11332", "identifiant": "0005201501", "idetab": "11332", "nom": "SA NEURRISSE BOIS & DERIVES", "codeape": "1610A", "cp": "40260" }, "geometry": { "type": "Point", "coordinates": [ -1.148063, 43.882832 ] } },
{ "type": "Feature", "properties": { "gml_id": "ETABLISSEMENTS_POLLUEURS.587790", "identifiant": "0005209610", "idetab": "587790", "nom": "SYND TRAIT ORDUR MENAG COTE SUD LANDES", "codeape": "3812Z", "cp": "40560" }, "geometry": { "type": "Point", "coordinates": [ -1.29405, 43.914 ] } },
{ "type": "Feature", "properties": { "gml_id": "ETABLISSEMENTS_POLLUEURS.589532", "identifiant": "0005211536", "idetab": "589532", "nom": "BIOMASS ENERGY SOLUTIONS VIELLE SAINT- GIRONS", "codeape": "3530Z", "cp": "40560" }, "geometry": { "type": "Point", "coordinates": [ -1.306089, 43.916235 ] } },
{ "type": "Feature", "properties": { "gml_id": "ETABLISSEMENTS_POLLUEURS.223", "identifiant": "0005201648", "idetab": "223", "nom": "DARBO SAS", "codeape": "1621Z", "cp": "40260" }, "geometry": { "type": "Point", "coordinates": [ -1.246869, 43.920212 ] } },
{ "type": "Feature", "properties": { "gml_id": "ETABLISSEMENTS_POLLUEURS.235", "identifiant": "0005202016", "idetab": "235", "nom": "LES DERIVES RESINIQUES ET TERPENIQUES", "codeape": "2014Z", "cp": "40560" }, "geometry": { "type": "Point", "coordinates": [ -1.29872, 43.94703 ] } },
{ "type": "Feature", "properties": { "gml_id": "ETABLISSEMENTS_POLLUEURS.5724", "identifiant": "40075002", "idetab": "5724", "nom": "VIVIERS DE FRANCE-CHAPERON ARNAULT", "codeape": "152Z", "cp": "40260" }, "geometry": { "type": "Point", "coordinates": [ -1.139204, 43.889138 ] } },
{ "type": "Feature", "properties": { "gml_id": "ETABLISSEMENTS_POLLUEURS.7581", "identifiant": "75640013", "idetab": "7581", "nom": "SAS COUVOIR DE CÔTE LA D'ARGENT", "codeape": "0127Z", "cp": "40140" }, "geometry": { "type": "Point", "coordinates": [ -1.212664, 43.789067 ] } },
{ "type": "Feature", "properties": { "gml_id": "ETABLISSEMENTS_POLLUEURS.587785", "identifiant": "0005209605", "idetab": "587785", "nom": "SYND TRAIT ORDUR MENAG COTE SUD LANDES", "codeape": "3812Z", "cp": "40300" }, "geometry": { "type": "Point", "coordinates": [ -1.07557, 43.52468 ] } },
{ "type": "Feature", "properties": { "gml_id": "ETABLISSEMENTS_POLLUEURS.599267", "identifiant": "0005201605", "idetab": "599267", "nom": "CEMEX GRANULATS SUD OUEST", "codeape": "0812Z", "cp": "40300" }, "geometry": { "type": "Point", "coordinates": [ -1.00069, 43.53839 ] } },
{ "type": "Feature", "properties": { "gml_id": "ETABLISSEMENTS_POLLUEURS.587783", "identifiant": "0005209603", "idetab": "587783", "nom": "SYND TRAIT ORDUR MENAG COTE SUD LANDES", "codeape": "3812Z", "cp": "40300" }, "geometry": { "type": "Point", "coordinates": [ -1.09311, 43.55625 ] } },
{ "type": "Feature", "properties": { "gml_id": "ETABLISSEMENTS_POLLUEURS.588427", "identifiant": "0005213818", "idetab": "588427", "nom": "SITCOM CÔTE SUD DES LANDES", "codeape": "3811Z", "cp": "40300" }, "geometry": { "type": "Point", "coordinates": [ -1.084011, 43.573888 ] } },
{ "type": "Feature", "properties": { "gml_id": "ETABLISSEMENTS_POLLUEURS.591345", "identifiant": "0005204183", "idetab": "591345", "nom": "LES CARRIERES DE SAINT PANDELON", "codeape": "0812Z", "cp": "40180" }, "geometry": { "type": "Point", "coordinates": [ -1.04228, 43.67617 ] } },
{ "type": "Feature", "properties": { "gml_id": "ETABLISSEMENTS_POLLUEURS.7676", "identifiant": "0005201540", "idetab": "7676", "nom": "SOC DACQUOISE ASSAINI DEGAZAGE", "codeape": "3700Z", "cp": "40100" }, "geometry": { "type": "Point", "coordinates": [ -1.04579, 43.6824 ] } },
{ "type": "Feature", "properties": { "gml_id": "ETABLISSEMENTS_POLLUEURS.589523", "identifiant": "0005208177", "idetab": "589523", "nom": "ADOUR METAL", "codeape": "3832Z", "cp": "40100" }, "geometry": { "type": "Point", "coordinates": [ -1.03275, 43.6946 ] } },
{ "type": "Feature", "properties": { "gml_id": "ETABLISSEMENTS_POLLUEURS.6134", "identifiant": "0005201541", "idetab": "6134", "nom": "GASCOGNE FLEXIBLE", "codeape": "1712Z", "cp": "40100" }, "geometry": { "type": "Point", "coordinates": [ -1.04588, 43.69497 ] } },
{ "type": "Feature", "properties": { "gml_id": "ETABLISSEMENTS_POLLUEURS.8185", "identifiant": "0009000127", "idetab": "8185", "nom": "DEALAT DAX", "codeape": "8422Z", "cp": "40108" }, "geometry": { "type": "Point", "coordinates": [ -1.06953, 43.69836 ] } },
{ "type": "Feature", "properties": { "gml_id": "ETABLISSEMENTS_POLLUEURS.590276", "identifiant": "0005201531", "idetab": "590276", "nom": "A.T.E.D.I.A. FILMS", "codeape": "2221Z", "cp": "40100" }, "geometry": { "type": "Point", "coordinates": [ -1.03231, 43.69959 ] } },
{ "type": "Feature", "properties": { "gml_id": "ETABLISSEMENTS_POLLUEURS.8768", "identifiant": "0005201539", "idetab": "8768", "nom": "COMPAGNIE DES SALINS DU MIDI ET DES SALINES DE L'EST", "codeape": "0893Z", "cp": "40100" }, "geometry": { "type": "Point", "coordinates": [ -1.058664, 43.70637 ] } }
]
}
