{
"type": "FeatureCollection",
"name": "ms:ETABLISSEMENTS_POLLUEURS",
"crs": { "type": "name", "properties": { "name": "urn:ogc:def:crs:OGC:1.3:CRS84" } },
"features": [
{ "type": "Feature", "properties": { "gml_id": "ETABLISSEMENTS_POLLUEURS.4013", "identifiant": "0005401059", "idetab": "4013", "nom": "SOCIETE COOPERATIVE AGRICOLE ET VITICOLE BOURGOGNE DU SUD", "codeape": "4621Z", "cp": "71350" }, "geometry": { "type": "Point", "coordinates": [ 5.02721, 46.89061 ] } },
{ "type": "Feature", "properties": { "gml_id": "ETABLISSEMENTS_POLLUEURS.6307", "identifiant": "0005401060", "idetab": "6307", "nom": "SA VAL D'AUCY", "codeape": "1039A", "cp": "71350" }, "geometry": { "type": "Point", "coordinates": [ 5.041045, 46.884219 ] } },
{ "type": "Feature", "properties": { "gml_id": "ETABLISSEMENTS_POLLUEURS.10540", "identifiant": "0005400147", "idetab": "10540", "nom": "HEIDELBERG MATERIALS FRANCE GRANULATS", "codeape": "0812Z", "cp": "21820" }, "geometry": { "type": "Point", "coordinates": [ 5.12114, 46.99176 ] } },
{ "type": "Feature", "properties": { "gml_id": "ETABLISSEMENTS_POLLUEURS.11285", "identifiant": "0005401890", "idetab": "11285", "nom": "AUTO CENTRE EUROPE", "codeape": "4677Z", "cp": "21250" }, "geometry": { "type": "Point", "coordinates": [ 5.145972, 46.996696 ] } },
{ "type": "Feature", "properties": { "gml_id": "ETABLISSEMENTS_POLLUEURS.3529", "identifiant": "0024600015", "idetab": "3529", "nom": "NATRAN", "codeape": "4950Z", "cp": "71350" }, "geometry": { "type": "Point", "coordinates": [ 5.03659, 46.97899 ] } },
{ "type": "Feature", "properties": { "gml_id": "ETABLISSEMENTS_POLLUEURS.13982", "identifiant": "0005400521", "idetab": "13982", "nom": "CARRIERES BRESSE BOURGOGNE", "codeape": "0812Z", "cp": "71270" }, "geometry": { "type": "Point", "coordinates": [ 5.28495, 46.87975 ] } },
{ "type": "Feature", "properties": { "gml_id": "ETABLISSEMENTS_POLLUEURS.589638", "identifiant": "0005901630", "idetab": "589638", "nom": "EDILIANS", "codeape": "2332Z", "cp": "39230" }, "geometry": { "type": "Point", "coordinates": [ 5.50519, 46.82997 ] } },
{ "type": "Feature", "properties": { "gml_id": "ETABLISSEMENTS_POLLUEURS.598371", "identifiant": "0053900171", "idetab": "598371", "nom": "SCEA LA PORCELAINE", "codeape": "0146Z", "cp": "39120" }, "geometry": { "type": "Point", "coordinates": [ 5.49381, 46.96677 ] } },
{ "type": "Feature", "properties": { "gml_id": "ETABLISSEMENTS_POLLUEURS.592089", "identifiant": "0003202489", "idetab": "592089", "nom": "SOCIETE BRESSANE DE STOCKAGE ET DE CHARGEMENT", "codeape": "5224B", "cp": "01500" }, "geometry": { "type": "Point", "coordinates": [ 5.35873, 46.00535 ] } },
{ "type": "Feature", "properties": { "gml_id": "ETABLISSEMENTS_POLLUEURS.591907", "identifiant": "0006100307", "idetab": "591907", "nom": "GRANULATS VICAT", "codeape": "0812Z", "cp": "01640" }, "geometry": { "type": "Point", "coordinates": [ 5.35677, 46.02573 ] } },
{ "type": "Feature", "properties": { "gml_id": "ETABLISSEMENTS_POLLUEURS.593809", "identifiant": "0006100021", "idetab": "593809", "nom": "THIERRY DANNENMULLER TRANSPORTS LOCATIONS TRAVAUX PUBLICS EN ABREGE T L T P", "codeape": "0811Z", "cp": "01500" }, "geometry": { "type": "Point", "coordinates": [ 5.34282, 46.02817 ] } },
{ "type": "Feature", "properties": { "gml_id": "ETABLISSEMENTS_POLLUEURS.1283", "identifiant": "0006102037", "idetab": "1283", "nom": "ROSET SAS", "codeape": "3109B", "cp": "01640" }, "geometry": { "type": "Point", "coordinates": [ 5.38985, 46.03245 ] } },
{ "type": "Feature", "properties": { "gml_id": "ETABLISSEMENTS_POLLUEURS.1297", "identifiant": "0006102199", "idetab": "1297", "nom": "COMPTOIR PLASTIQUES DE L'AIN", "codeape": "3832Z", "cp": "01160" }, "geometry": { "type": "Point", "coordinates": [ 5.34724, 46.04448 ] } },
{ "type": "Feature", "properties": { "gml_id": "ETABLISSEMENTS_POLLUEURS.12915", "identifiant": "0006109800", "idetab": "12915", "nom": "VILL'RECUPERATION", "codeape": "3832Z", "cp": "01160" }, "geometry": { "type": "Point", "coordinates": [ 5.3268, 46.04788 ] } },
{ "type": "Feature", "properties": { "gml_id": "ETABLISSEMENTS_POLLUEURS.1298", "identifiant": "0006102200", "idetab": "1298", "nom": "AKZO NOBEL INDUSTRIAL FINISHES (ANIF)", "codeape": "518M", "cp": "01160" }, "geometry": { "type": "Point", "coordinates": [ 5.335759, 46.048422 ] } },
{ "type": "Feature", "properties": { "gml_id": "ETABLISSEMENTS_POLLUEURS.594823", "identifiant": "0006100300", "idetab": "594823", "nom": "SOC D EXPLOITATION DE SABLES ET MINERAUX", "codeape": "0811Z", "cp": "01130" }, "geometry": { "type": "Point", "coordinates": [ 5.7301, 46.18696 ] } },
{ "type": "Feature", "properties": { "gml_id": "ETABLISSEMENTS_POLLUEURS.588728", "identifiant": "0006100170", "idetab": "588728", "nom": "CARRIERES & MATERIAUX SUD-EST - CMSE", "codeape": "0811Z", "cp": "01200" }, "geometry": { "type": "Point", "coordinates": [ 5.78896, 46.05823 ] } },
{ "type": "Feature", "properties": { "gml_id": "ETABLISSEMENTS_POLLUEURS.1285", "identifiant": "0006102064", "idetab": "1285", "nom": "BALL AEROSOL PACKAGING FRANCE S.A.S", "codeape": "2592Z", "cp": "01200" }, "geometry": { "type": "Point", "coordinates": [ 5.81064, 46.13194 ] } },
{ "type": "Feature", "properties": { "gml_id": "ETABLISSEMENTS_POLLUEURS.1271", "identifiant": "0006102002", "idetab": "1271", "nom": "SYND INTERCOMMUNAL DE VALORISATION", "codeape": "3821Z", "cp": "01200" }, "geometry": { "type": "Point", "coordinates": [ 5.81411, 46.08494 ] } },
{ "type": "Feature", "properties": { "gml_id": "ETABLISSEMENTS_POLLUEURS.1270", "identifiant": "0006102001", "idetab": "1270", "nom": "SCAPA BELLEGARDE", "codeape": "2219Z", "cp": "01201" }, "geometry": { "type": "Point", "coordinates": [ 5.825347, 46.104716 ] } },
{ "type": "Feature", "properties": { "gml_id": "ETABLISSEMENTS_POLLUEURS.1272", "identifiant": "0006102004", "idetab": "1272", "nom": "GOYOT SAS", "codeape": "2829B", "cp": "01200" }, "geometry": { "type": "Point", "coordinates": [ 5.827767, 46.11036 ] } },
{ "type": "Feature", "properties": { "gml_id": "ETABLISSEMENTS_POLLUEURS.593945", "identifiant": "0006100258", "idetab": "593945", "nom": "FAMY", "codeape": "0812Z", "cp": "01200" }, "geometry": { "type": "Point", "coordinates": [ 5.84518, 46.11961 ] } },
{ "type": "Feature", "properties": { "gml_id": "ETABLISSEMENTS_POLLUEURS.597872", "identifiant": "0003200187", "idetab": "597872", "nom": "EXCOFFIER RECYCLAGE", "codeape": "3832Z", "cp": "74270" }, "geometry": { "type": "Point", "coordinates": [ 5.865, 46.06426 ] } },
{ "type": "Feature", "properties": { "gml_id": "ETABLISSEMENTS_POLLUEURS.594385", "identifiant": "0006101769", "idetab": "594385", "nom": "ANNECY BETON CARRIERES", "codeape": "0812Z", "cp": "74270" }, "geometry": { "type": "Point", "coordinates": [ 5.87298, 46.01384 ] } },
{ "type": "Feature", "properties": { "gml_id": "ETABLISSEMENTS_POLLUEURS.589665", "identifiant": "0006101771", "idetab": "589665", "nom": "CARRIERES HENRI ROUDIL", "codeape": "0812Z", "cp": "74270" }, "geometry": { "type": "Point", "coordinates": [ 5.89582, 46.02045 ] } },
{ "type": "Feature", "properties": { "gml_id": "ETABLISSEMENTS_POLLUEURS.594856", "identifiant": "0006100254", "idetab": "594856", "nom": "GRAVIERE VERNAY FILS SAS (CARRIÈRE DE POUGNY)", "codeape": "0811Z", "cp": "01550" }, "geometry": { "type": "Point", "coordinates": [ 5.962807, 46.138402 ] } },
{ "type": "Feature", "properties": { "gml_id": "ETABLISSEMENTS_POLLUEURS.588819", "identifiant": "0006114838", "idetab": "588819", "nom": "VUACHE BTP", "codeape": "4120A", "cp": "74520" }, "geometry": { "type": "Point", "coordinates": [ 5.9436, 46.07667 ] } },
{ "type": "Feature", "properties": { "gml_id": "ETABLISSEMENTS_POLLUEURS.3439", "identifiant": "0010100019", "idetab": "3439", "nom": "MGI COUTIER", "codeape": "2229A", "cp": "01410" }, "geometry": { "type": "Point", "coordinates": [ 5.817505, 46.194809 ] } },
{ "type": "Feature", "properties": { "gml_id": "ETABLISSEMENTS_POLLUEURS.3446", "identifiant": "0010100096", "idetab": "3446", "nom": "ENTREMONT - USINE DE TRÉBILLET", "codeape": "1051C", "cp": "01200" }, "geometry": { "type": "Point", "coordinates": [ 5.802788, 46.164642 ] } },
{ "type": "Feature", "properties": { "gml_id": "ETABLISSEMENTS_POLLUEURS.588263", "identifiant": "0050100064", "idetab": "588263", "nom": "SOCIETE BELLEGARDIENNE D'ABATTAGE", "codeape": "1011Z", "cp": "01200" }, "geometry": { "type": "Point", "coordinates": [ 5.816632, 46.087923 ] } },
{ "type": "Feature", "properties": { "gml_id": "ETABLISSEMENTS_POLLUEURS.589356", "identifiant": "0050100695", "idetab": "589356", "nom": "SCEA DES PISCICULTURES PETIT", "codeape": "0322Z", "cp": "01130" }, "geometry": { "type": "Point", "coordinates": [ 5.72717, 46.17186 ] } },
{ "type": "Feature", "properties": { "gml_id": "ETABLISSEMENTS_POLLUEURS.588305", "identifiant": "0057400291", "idetab": "588305", "nom": "FROMAGERIES DES HAUTS DE SAVOIE", "codeape": "1051C", "cp": "74270" }, "geometry": { "type": "Point", "coordinates": [ 5.94527, 46.0144 ] } },
{ "type": "Feature", "properties": { "gml_id": "ETABLISSEMENTS_POLLUEURS.598531", "identifiant": "0100004710", "idetab": "598531", "nom": "CELIDI", "codeape": "3821Z", "cp": "74200" }, "geometry": { "type": "Point", "coordinates": [ 5.87336, 46.02079 ] } },
{ "type": "Feature", "properties": { "gml_id": "ETABLISSEMENTS_POLLUEURS.10426", "identifiant": "74195050", "idetab": "10426", "nom": "SOCIÉTÉ LAITIÈRE DES HAUTS DE SAVOIE", "codeape": "1051C", "cp": "74270" }, "geometry": { "type": "Point", "coordinates": [ 5.932204, 46.028575 ] } },
{ "type": "Feature", "properties": { "gml_id": "ETABLISSEMENTS_POLLUEURS.9747", "identifiant": "0006102291", "idetab": "9747", "nom": "OXYANE", "codeape": "4621Z", "cp": "01330" }, "geometry": { "type": "Point", "coordinates": [ 5.0334, 46.00667 ] } },
{ "type": "Feature", "properties": { "gml_id": "ETABLISSEMENTS_POLLUEURS.14086", "identifiant": "0006100286", "idetab": "14086", "nom": "GRANULATS VICAT", "codeape": "0812Z", "cp": "01000" }, "geometry": { "type": "Point", "coordinates": [ 5.16111, 46.21483 ] } },
{ "type": "Feature", "properties": { "gml_id": "ETABLISSEMENTS_POLLUEURS.12872", "identifiant": "0006102219", "idetab": "12872", "nom": "QUINSON-FONLUPT", "codeape": "3832Z", "cp": "01000" }, "geometry": { "type": "Point", "coordinates": [ 5.200366, 46.218089 ] } },
{ "type": "Feature", "properties": { "gml_id": "ETABLISSEMENTS_POLLUEURS.1277", "identifiant": "0006102025", "idetab": "1277", "nom": "NEXANS FRANCE", "codeape": "2732Z", "cp": "01000" }, "geometry": { "type": "Point", "coordinates": [ 5.20931, 46.20714 ] } },
{ "type": "Feature", "properties": { "gml_id": "ETABLISSEMENTS_POLLUEURS.1281", "identifiant": "0006102031", "idetab": "1281", "nom": "ARCELORMITTAL WIRE FRANCE", "codeape": "2434Z", "cp": "01000" }, "geometry": { "type": "Point", "coordinates": [ 5.21418, 46.19265 ] } },
{ "type": "Feature", "properties": { "gml_id": "ETABLISSEMENTS_POLLUEURS.4555", "identifiant": "0006107156", "idetab": "4555", "nom": "ISDND LA TIENNE", "codeape": "3821Z", "cp": "01440" }, "geometry": { "type": "Point", "coordinates": [ 5.21604, 46.252361 ] } },
{ "type": "Feature", "properties": { "gml_id": "ETABLISSEMENTS_POLLUEURS.4394", "identifiant": "0006102299", "idetab": "4394", "nom": "ATEMAX FRANCE", "codeape": "3832Z", "cp": "01440" }, "geometry": { "type": "Point", "coordinates": [ 5.21604, 46.252361 ] } },
{ "type": "Feature", "properties": { "gml_id": "ETABLISSEMENTS_POLLUEURS.1315", "identifiant": "0006102296", "idetab": "1315", "nom": "MARIE USINE VIRIAT", "codeape": "1085Z", "cp": "01440" }, "geometry": { "type": "Point", "coordinates": [ 5.21604, 46.252361 ] } },
{ "type": "Feature", "properties": { "gml_id": "ETABLISSEMENTS_POLLUEURS.587904", "identifiant": "0006108149", "idetab": "587904", "nom": "KALHYGE 1", "codeape": "9601A", "cp": "01000" }, "geometry": { "type": "Point", "coordinates": [ 5.21894, 46.21572 ] } },
{ "type": "Feature", "properties": { "gml_id": "ETABLISSEMENTS_POLLUEURS.12907", "identifiant": "0006107420", "idetab": "12907", "nom": "SYNDICAT MIXTE  TRAITEMENT DES DECHETS MENAGERS ET ASSIMILES-ORGANOM", "codeape": "3821Z", "cp": "01440" }, "geometry": { "type": "Point", "coordinates": [ 5.22396, 46.24891 ] } },
{ "type": "Feature", "properties": { "gml_id": "ETABLISSEMENTS_POLLUEURS.1280", "identifiant": "0006102029", "idetab": "1280", "nom": "VOLAILLES DE L'EUROPÉAIN", "codeape": "151C", "cp": "01000" }, "geometry": { "type": "Point", "coordinates": [ 5.224982, 46.221253 ] } },
{ "type": "Feature", "properties": { "gml_id": "ETABLISSEMENTS_POLLUEURS.1282", "identifiant": "0006102033", "idetab": "1282", "nom": "UGITECH", "codeape": "2410Z", "cp": "01000" }, "geometry": { "type": "Point", "coordinates": [ 5.22786, 46.22774 ] } },
{ "type": "Feature", "properties": { "gml_id": "ETABLISSEMENTS_POLLUEURS.4554", "identifiant": "0006107061", "idetab": "4554", "nom": "GIRAUDET SAS", "codeape": "1085Z", "cp": "01007" }, "geometry": { "type": "Point", "coordinates": [ 5.23159, 46.201565 ] } },
{ "type": "Feature", "properties": { "gml_id": "ETABLISSEMENTS_POLLUEURS.1279", "identifiant": "0006102027", "idetab": "1279", "nom": "ABATTOIRS DES CRÊTS", "codeape": "1011Z", "cp": "01008" }, "geometry": { "type": "Point", "coordinates": [ 5.23159, 46.201565 ] } },
{ "type": "Feature", "properties": { "gml_id": "ETABLISSEMENTS_POLLUEURS.4376", "identifiant": "0006102032", "idetab": "4376", "nom": "RENAULT TRUCKS", "codeape": "2910Z", "cp": "01000" }, "geometry": { "type": "Point", "coordinates": [ 5.23159, 46.201565 ] } },
{ "type": "Feature", "properties": { "gml_id": "ETABLISSEMENTS_POLLUEURS.4556", "identifiant": "0006107177", "idetab": "4556", "nom": "COMPAGNIE D'ABATTAGE DE BOURG", "codeape": "1011Z", "cp": "01000" }, "geometry": { "type": "Point", "coordinates": [ 5.23159, 46.201565 ] } },
{ "type": "Feature", "properties": { "gml_id": "ETABLISSEMENTS_POLLUEURS.1278", "identifiant": "0006102026", "idetab": "1278", "nom": "REYSSOUZE ENERGIE SERVICES (RES)", "codeape": "3530Z", "cp": "01000" }, "geometry": { "type": "Point", "coordinates": [ 5.23568, 46.20154 ] } },
{ "type": "Feature", "properties": { "gml_id": "ETABLISSEMENTS_POLLUEURS.595110", "identifiant": "0009070101", "idetab": "595110", "nom": "CA DU BASSIN DE BOURG-EN-BRESSE", "codeape": "3700Z", "cp": "01440" }, "geometry": { "type": "Point", "coordinates": [ 5.22106, 46.22734 ] } },
{ "type": "Feature", "properties": { "gml_id": "ETABLISSEMENTS_POLLUEURS.5572", "identifiant": "0010100088", "idetab": "5572", "nom": "ACV BIAJOUX ASSAINISSEMENT", "codeape": "3700Z", "cp": "01960" }, "geometry": { "type": "Point", "coordinates": [ 5.202944, 46.17805 ] } },
{ "type": "Feature", "properties": { "gml_id": "ETABLISSEMENTS_POLLUEURS.592370", "identifiant": "0050100108", "idetab": "592370", "nom": "GIRAUDET", "codeape": "1085Z", "cp": "01007" }, "geometry": { "type": "Point", "coordinates": [ 5.22008, 46.21717 ] } },
{ "type": "Feature", "properties": { "gml_id": "ETABLISSEMENTS_POLLUEURS.592012", "identifiant": "0050100109", "idetab": "592012", "nom": "SOCIETE NOUVELLE UTP", "codeape": "1013A", "cp": "01000" }, "geometry": { "type": "Point", "coordinates": [ 5.22481, 46.22277 ] } },
{ "type": "Feature", "properties": { "gml_id": "ETABLISSEMENTS_POLLUEURS.592216", "identifiant": "0050100110", "idetab": "592216", "nom": "ABATTOIRS DES CRETS", "codeape": "1011Z", "cp": "01008" }, "geometry": { "type": "Point", "coordinates": [ 5.22, 46.2 ] } },
{ "type": "Feature", "properties": { "gml_id": "ETABLISSEMENTS_POLLUEURS.592210", "identifiant": "0050100111", "idetab": "592210", "nom": "COMPAGNIE D'ABATTAGE DE BOURG", "codeape": "1011Z", "cp": "01000" }, "geometry": { "type": "Point", "coordinates": [ 5.22386, 46.22669 ] } },
{ "type": "Feature", "properties": { "gml_id": "ETABLISSEMENTS_POLLUEURS.589358", "identifiant": "0050100894", "idetab": "589358", "nom": "REGIE DEPARTEMENTALE NATURAIN", "codeape": "9104Z", "cp": "01330" }, "geometry": { "type": "Point", "coordinates": [ 5.03549, 46.00273 ] } },
{ "type": "Feature", "properties": { "gml_id": "ETABLISSEMENTS_POLLUEURS.598937", "identifiant": "0100004578", "idetab": "598937", "nom": "SCEA ECO-FERME MOULIN DU BOIS", "codeape": "0129Z", "cp": "01330" }, "geometry": { "type": "Point", "coordinates": [ 5.07969, 46.04193 ] } },
{ "type": "Feature", "properties": { "gml_id": "ETABLISSEMENTS_POLLUEURS.3841", "identifiant": "01074121", "idetab": "3841", "nom": "SAS EGGTEAM AVIPONTE", "codeape": "0147Z", "cp": "01320" }, "geometry": { "type": "Point", "coordinates": [ 5.176313, 46.004764 ] } },
{ "type": "Feature", "properties": { "gml_id": "ETABLISSEMENTS_POLLUEURS.590404", "identifiant": "0006100294", "idetab": "590404", "nom": "WIENERBERGER", "codeape": "2332Z", "cp": "01190" }, "geometry": { "type": "Point", "coordinates": [ 5.01054, 46.39313 ] } },
{ "type": "Feature", "properties": { "gml_id": "ETABLISSEMENTS_POLLUEURS.12662", "identifiant": "01050004", "idetab": "12662", "nom": "EARL LES CORNALIÈRES", "codeape": "0147Z", "cp": "01190" }, "geometry": { "type": "Point", "coordinates": [ 5.002421, 46.392059 ] } },
{ "type": "Feature", "properties": { "gml_id": "ETABLISSEMENTS_POLLUEURS.596875", "identifiant": "0005906440", "idetab": "596875", "nom": "SOC EXPLOIT ET DE TRPTS PERNOT", "codeape": "0812Z", "cp": "39800" }, "geometry": { "type": "Point", "coordinates": [ 5.72519, 46.81419 ] } },
{ "type": "Feature", "properties": { "gml_id": "ETABLISSEMENTS_POLLUEURS.1190", "identifiant": "0005900903", "idetab": "1190", "nom": "ETABLISSEMENTS VERPILLAT", "codeape": "2593Z", "cp": "39260" }, "geometry": { "type": "Point", "coordinates": [ 5.72644, 46.42224 ] } },
{ "type": "Feature", "properties": { "gml_id": "ETABLISSEMENTS_POLLUEURS.588694", "identifiant": "0005906463", "idetab": "588694", "nom": "SARL GOYARD", "codeape": "4312A", "cp": "39130" }, "geometry": { "type": "Point", "coordinates": [ 5.73329, 46.59266 ] } },
{ "type": "Feature", "properties": { "gml_id": "ETABLISSEMENTS_POLLUEURS.4341", "identifiant": "0005901046", "idetab": "4341", "nom": "GMV ESCHMANN INTERNATIONAL", "codeape": "2561Z", "cp": "39360" }, "geometry": { "type": "Point", "coordinates": [ 5.73687, 46.30001 ] } },
{ "type": "Feature", "properties": { "gml_id": "ETABLISSEMENTS_POLLUEURS.590393", "identifiant": "0005901640", "idetab": "590393", "nom": "SOCIETE DES CARRIERES DES LACS", "codeape": "0811Z", "cp": "39130" }, "geometry": { "type": "Point", "coordinates": [ 5.74178, 46.62063 ] } },
{ "type": "Feature", "properties": { "gml_id": "ETABLISSEMENTS_POLLUEURS.4336", "identifiant": "0005900854", "idetab": "4336", "nom": "LUCITE INTERNATIONAL FRANCE", "codeape": "2221Z", "cp": "39130" }, "geometry": { "type": "Point", "coordinates": [ 5.758658, 46.568854 ] } },
{ "type": "Feature", "properties": { "gml_id": "ETABLISSEMENTS_POLLUEURS.12274", "identifiant": "0005900905", "idetab": "12274", "nom": "EUROSTYLE SYSTEMS MOLINGES", "codeape": "2932Z", "cp": "39360" }, "geometry": { "type": "Point", "coordinates": [ 5.76819, 46.35776 ] } },
{ "type": "Feature", "properties": { "gml_id": "ETABLISSEMENTS_POLLUEURS.10643", "identifiant": "0005903713", "idetab": "10643", "nom": "JURA-TERROIR", "codeape": "1051C", "cp": "39300" }, "geometry": { "type": "Point", "coordinates": [ 5.78369, 46.72707 ] } },
{ "type": "Feature", "properties": { "gml_id": "ETABLISSEMENTS_POLLUEURS.6527", "identifiant": "0005901015", "idetab": "6527", "nom": "BOURBON AUTOMOTIVE PLASTICS JURA EN ABREGE BOURBON AP JURA", "codeape": "2932Z", "cp": "39170" }, "geometry": { "type": "Point", "coordinates": [ 5.79272, 46.40513 ] } },
{ "type": "Feature", "properties": { "gml_id": "ETABLISSEMENTS_POLLUEURS.594719", "identifiant": "0005901627", "idetab": "594719", "nom": "SOC EXPLOIT ET DE TRPTS PERNOT", "codeape": "0812Z", "cp": "39800" }, "geometry": { "type": "Point", "coordinates": [ 5.79439, 46.79208 ] } },
{ "type": "Feature", "properties": { "gml_id": "ETABLISSEMENTS_POLLUEURS.589643", "identifiant": "0005906513", "idetab": "589643", "nom": "SARL GOYARD", "codeape": "4312A", "cp": "39170" }, "geometry": { "type": "Point", "coordinates": [ 5.7957, 46.3931 ] } },
{ "type": "Feature", "properties": { "gml_id": "ETABLISSEMENTS_POLLUEURS.593849", "identifiant": "0005901658", "idetab": "593849", "nom": "CARRIERE AYEL", "codeape": "0812Z", "cp": "39300" }, "geometry": { "type": "Point", "coordinates": [ 5.79625, 46.75483 ] } },
{ "type": "Feature", "properties": { "gml_id": "ETABLISSEMENTS_POLLUEURS.593661", "identifiant": "0005901656", "idetab": "593661", "nom": "SOC EXPLOIT ET DE TRPTS PERNOT", "codeape": "0812Z", "cp": "39300" }, "geometry": { "type": "Point", "coordinates": [ 5.80859, 46.7609 ] } },
{ "type": "Feature", "properties": { "gml_id": "ETABLISSEMENTS_POLLUEURS.1192", "identifiant": "0005901000", "idetab": "1192", "nom": "COMTOISE TRAITEMENT DE SURFACE", "codeape": "2561Z", "cp": "39200" }, "geometry": { "type": "Point", "coordinates": [ 5.8279, 46.3833 ] } },
{ "type": "Feature", "properties": { "gml_id": "ETABLISSEMENTS_POLLUEURS.590200", "identifiant": "0005906519", "idetab": "590200", "nom": "ARNAUD RUSTHUL TP", "codeape": "4312A", "cp": "39300" }, "geometry": { "type": "Point", "coordinates": [ 5.829994, 46.813136 ] } },
{ "type": "Feature", "properties": { "gml_id": "ETABLISSEMENTS_POLLUEURS.6526", "identifiant": "0005900997", "idetab": "6526", "nom": "TUBINDUS", "codeape": "2550B", "cp": "39200" }, "geometry": { "type": "Point", "coordinates": [ 5.83343, 46.38337 ] } },
{ "type": "Feature", "properties": { "gml_id": "ETABLISSEMENTS_POLLUEURS.596606", "identifiant": "0005900991", "idetab": "596606", "nom": "RECUP'39", "codeape": "3832Z", "cp": "39200" }, "geometry": { "type": "Point", "coordinates": [ 5.83343, 46.38337 ] } },
{ "type": "Feature", "properties": { "gml_id": "ETABLISSEMENTS_POLLUEURS.4357", "identifiant": "0005902151", "idetab": "4357", "nom": "MBF ALUMINIUM", "codeape": "2454Z", "cp": "39200" }, "geometry": { "type": "Point", "coordinates": [ 5.835203, 46.383041 ] } },
{ "type": "Feature", "properties": { "gml_id": "ETABLISSEMENTS_POLLUEURS.12863", "identifiant": "0005900998", "idetab": "12863", "nom": "DECHETERIE DU PLAN D'ACIER", "codeape": "8412Z", "cp": "39200" }, "geometry": { "type": "Point", "coordinates": [ 5.86531, 46.387336 ] } },
{ "type": "Feature", "properties": { "gml_id": "ETABLISSEMENTS_POLLUEURS.8966", "identifiant": "0005900758", "idetab": "8966", "nom": "SUBLIMETAL", "codeape": "2561Z", "cp": "39300" }, "geometry": { "type": "Point", "coordinates": [ 5.8981, 46.74994 ] } },
{ "type": "Feature", "properties": { "gml_id": "ETABLISSEMENTS_POLLUEURS.588699", "identifiant": "0005906516", "idetab": "588699", "nom": "SARL GOYARD", "codeape": "4312A", "cp": "39150" }, "geometry": { "type": "Point", "coordinates": [ 5.90724, 46.5239 ] } },
{ "type": "Feature", "properties": { "gml_id": "ETABLISSEMENTS_POLLUEURS.1185", "identifiant": "0005900761", "idetab": "1185", "nom": "ERASTEEL CHAMPAGNOLE SA", "codeape": "2410Z", "cp": "39300" }, "geometry": { "type": "Point", "coordinates": [ 5.91551, 46.74373 ] } },
{ "type": "Feature", "properties": { "gml_id": "ETABLISSEMENTS_POLLUEURS.4335", "identifiant": "0005900834", "idetab": "4335", "nom": "SAB THEVENIN", "codeape": "2453Z", "cp": "39300" }, "geometry": { "type": "Point", "coordinates": [ 5.94354, 46.75791 ] } },
{ "type": "Feature", "properties": { "gml_id": "ETABLISSEMENTS_POLLUEURS.596445", "identifiant": "0005901022", "idetab": "596445", "nom": "BAUD DIMEP", "codeape": "2562B", "cp": "39300" }, "geometry": { "type": "Point", "coordinates": [ 5.98214, 46.73128 ] } },
{ "type": "Feature", "properties": { "gml_id": "ETABLISSEMENTS_POLLUEURS.12874", "identifiant": "0006102278", "idetab": "12874", "nom": "ENROBES ALPINS", "codeape": "2399Z", "cp": "01710" }, "geometry": { "type": "Point", "coordinates": [ 5.99668, 46.22635 ] } },
{ "type": "Feature", "properties": { "gml_id": "ETABLISSEMENTS_POLLUEURS.5600", "identifiant": "0012100040", "idetab": "5600", "nom": "MBF ALUMINIUM", "codeape": "2453Z", "cp": "39200" }, "geometry": { "type": "Point", "coordinates": [ 5.834524, 46.382394 ] } },
{ "type": "Feature", "properties": { "gml_id": "ETABLISSEMENTS_POLLUEURS.13418", "identifiant": "0012100179", "idetab": "13418", "nom": "KOHLER FRANCE", "codeape": "6820B", "cp": "39300" }, "geometry": { "type": "Point", "coordinates": [ 5.90643, 46.75496 ] } },
{ "type": "Feature", "properties": { "gml_id": "ETABLISSEMENTS_POLLUEURS.7292", "identifiant": "0012600109", "idetab": "7292", "nom": "PLASTIQUES DU VAL DE LOIRE", "codeape": "7112B", "cp": "39170" }, "geometry": { "type": "Point", "coordinates": [ 5.7914, 46.40405 ] } },
{ "type": "Feature", "properties": { "gml_id": "ETABLISSEMENTS_POLLUEURS.591693", "identifiant": "0012600338", "idetab": "591693", "nom": "CARRIERES DE MONTROND", "codeape": "0811Z", "cp": "39300" }, "geometry": { "type": "Point", "coordinates": [ 5.83578, 46.8145 ] } },
{ "type": "Feature", "properties": { "gml_id": "ETABLISSEMENTS_POLLUEURS.591694", "identifiant": "0012600505", "idetab": "591694", "nom": "CURTIL SA", "codeape": "2573B", "cp": "39200" }, "geometry": { "type": "Point", "coordinates": [ 5.8358, 46.38297 ] } },
{ "type": "Feature", "properties": { "gml_id": "ETABLISSEMENTS_POLLUEURS.12862", "identifiant": "0005900956", "idetab": "12862", "nom": "SITA CENTRE EST", "codeape": "3832Z", "cp": "39570" }, "geometry": { "type": "Point", "coordinates": [ 5.57401, 46.669608 ] } },
{ "type": "Feature", "properties": { "gml_id": "ETABLISSEMENTS_POLLUEURS.587858", "identifiant": "0005904874", "idetab": "587858", "nom": "DEMAIN", "codeape": "3832Z", "cp": "39000" }, "geometry": { "type": "Point", "coordinates": [ 5.57686, 46.67942 ] } },
{ "type": "Feature", "properties": { "gml_id": "ETABLISSEMENTS_POLLUEURS.596231", "identifiant": "0005906485", "idetab": "596231", "nom": "FAMY TP", "codeape": "4312A", "cp": "39210" }, "geometry": { "type": "Point", "coordinates": [ 5.57704, 46.7099 ] } },
{ "type": "Feature", "properties": { "gml_id": "ETABLISSEMENTS_POLLUEURS.1189", "identifiant": "0005900881", "idetab": "1189", "nom": "SYND DEPART TRAITEMENT ORDURES MENAGERES", "codeape": "4299Z", "cp": "39000" }, "geometry": { "type": "Point", "coordinates": [ 5.58106, 46.68545 ] } },
{ "type": "Feature", "properties": { "gml_id": "ETABLISSEMENTS_POLLUEURS.588698", "identifiant": "0005906515", "idetab": "588698", "nom": "FAMY", "codeape": "4312A", "cp": "39240" }, "geometry": { "type": "Point", "coordinates": [ 5.583504, 46.395933 ] } },
{ "type": "Feature", "properties": { "gml_id": "ETABLISSEMENTS_POLLUEURS.6522", "identifiant": "0005900830", "idetab": "6522", "nom": "V 33 SA", "codeape": "2030Z", "cp": "39210" }, "geometry": { "type": "Point", "coordinates": [ 5.59111, 46.76317 ] } },
{ "type": "Feature", "properties": { "gml_id": "ETABLISSEMENTS_POLLUEURS.596760", "identifiant": "0003201944", "idetab": "596760", "nom": "LES PLASTIQUES DECORES", "codeape": "2229A", "cp": "01100" }, "geometry": { "type": "Point", "coordinates": [ 5.609412, 46.268542 ] } },
{ "type": "Feature", "properties": { "gml_id": "ETABLISSEMENTS_POLLUEURS.1269", "identifiant": "0006101996", "idetab": "1269", "nom": "VISTEON SISTEMES INTERIEURS USINE DE BELLIGNAT", "codeape": "252H", "cp": "01103" }, "geometry": { "type": "Point", "coordinates": [ 5.625906, 46.242099 ] } },
{ "type": "Feature", "properties": { "gml_id": "ETABLISSEMENTS_POLLUEURS.14063", "identifiant": "0005901634", "idetab": "14063", "nom": "LES CARRIERES JURASSIENNES", "codeape": "0812Z", "cp": "39570" }, "geometry": { "type": "Point", "coordinates": [ 5.63385, 46.65323 ] } },
{ "type": "Feature", "properties": { "gml_id": "ETABLISSEMENTS_POLLUEURS.1296", "identifiant": "0006102179", "idetab": "1296", "nom": "VERNICOLOR", "codeape": "2229A", "cp": "01106" }, "geometry": { "type": "Point", "coordinates": [ 5.648359, 46.261553 ] } },
{ "type": "Feature", "properties": { "gml_id": "ETABLISSEMENTS_POLLUEURS.14059", "identifiant": "0005901034", "idetab": "14059", "nom": "MONTS & TERROIRS", "codeape": "1051C", "cp": "39570" }, "geometry": { "type": "Point", "coordinates": [ 5.65116, 46.66588 ] } },
{ "type": "Feature", "properties": { "gml_id": "ETABLISSEMENTS_POLLUEURS.4389", "identifiant": "0006102185", "idetab": "4389", "nom": "SAICA PACK EL", "codeape": "1721A", "cp": "01100" }, "geometry": { "type": "Point", "coordinates": [ 5.65398, 46.26992 ] } },
{ "type": "Feature", "properties": { "gml_id": "ETABLISSEMENTS_POLLUEURS.599264", "identifiant": "0003204699", "idetab": "599264", "nom": "PLASTIQUES FALQUET ET CIE", "codeape": "3240Z", "cp": "01100" }, "geometry": { "type": "Point", "coordinates": [ 5.65426, 46.26018 ] } },
{ "type": "Feature", "properties": { "gml_id": "ETABLISSEMENTS_POLLUEURS.598049", "identifiant": "0003201171", "idetab": "598049", "nom": "GRANULAT TRI RECYCLAGE", "codeape": "3821Z", "cp": "01100" }, "geometry": { "type": "Point", "coordinates": [ 5.65431, 46.25612 ] } },
{ "type": "Feature", "properties": { "gml_id": "ETABLISSEMENTS_POLLUEURS.4372", "identifiant": "0006101982", "idetab": "4372", "nom": "GERGONNE INDUSTRIE", "codeape": "2229B", "cp": "01100" }, "geometry": { "type": "Point", "coordinates": [ 5.65438, 46.27281 ] } },
{ "type": "Feature", "properties": { "gml_id": "ETABLISSEMENTS_POLLUEURS.1289", "identifiant": "0006102087", "idetab": "1289", "nom": "C.SERRAND", "codeape": "3832Z", "cp": "01590" }, "geometry": { "type": "Point", "coordinates": [ 5.66204, 46.32148 ] } },
{ "type": "Feature", "properties": { "gml_id": "ETABLISSEMENTS_POLLUEURS.1267", "identifiant": "0006101983", "idetab": "1267", "nom": "GROSFILLEX SAS", "codeape": "3109B", "cp": "01100" }, "geometry": { "type": "Point", "coordinates": [ 5.66324, 46.28387 ] } },
{ "type": "Feature", "properties": { "gml_id": "ETABLISSEMENTS_POLLUEURS.4388", "identifiant": "0006102181", "idetab": "4388", "nom": "ZANINI FRANCE", "codeape": "2932Z", "cp": "01100" }, "geometry": { "type": "Point", "coordinates": [ 5.66504, 46.26642 ] } },
{ "type": "Feature", "properties": { "gml_id": "ETABLISSEMENTS_POLLUEURS.589668", "identifiant": "0006102174", "idetab": "589668", "nom": "ETABLISSEMENTS GEORGES DAVID", "codeape": "2229B", "cp": "01100" }, "geometry": { "type": "Point", "coordinates": [ 5.66572, 46.2614 ] } },
{ "type": "Feature", "properties": { "gml_id": "ETABLISSEMENTS_POLLUEURS.10661", "identifiant": "0006107727", "idetab": "10661", "nom": "APTAR OYONNAX", "codeape": "2561Z", "cp": "01100" }, "geometry": { "type": "Point", "coordinates": [ 5.62157, 46.23187 ] } },
{ "type": "Feature", "properties": { "gml_id": "ETABLISSEMENTS_POLLUEURS.10662", "identifiant": "0006108136", "idetab": "10662", "nom": "ELIAN", "codeape": "2012Z", "cp": "01100" }, "geometry": { "type": "Point", "coordinates": [ 5.62876, 46.24919 ] } },
{ "type": "Feature", "properties": { "gml_id": "ETABLISSEMENTS_POLLUEURS.11988", "identifiant": "0010100155", "idetab": "11988", "nom": "COMMUNAUTE DE COMMUNES D OYONNAX", "codeape": "3812Z", "cp": "01100" }, "geometry": { "type": "Point", "coordinates": [ 5.61585, 46.26625 ] } },
{ "type": "Feature", "properties": { "gml_id": "ETABLISSEMENTS_POLLUEURS.595187", "identifiant": "0012100023", "idetab": "595187", "nom": "HEBERT P.", "codeape": "2222Z", "cp": "39270" }, "geometry": { "type": "Point", "coordinates": [ 5.60886, 46.5255 ] } },
{ "type": "Feature", "properties": { "gml_id": "ETABLISSEMENTS_POLLUEURS.7289", "identifiant": "0012100121", "idetab": "7289", "nom": "DIAGER", "codeape": "2573A", "cp": "39800" }, "geometry": { "type": "Point", "coordinates": [ 5.69751, 46.84665 ] } },
{ "type": "Feature", "properties": { "gml_id": "ETABLISSEMENTS_POLLUEURS.588266", "identifiant": "0050100715", "idetab": "588266", "nom": "S2M VOLAILLES", "codeape": "1012Z", "cp": "01560" }, "geometry": { "type": "Point", "coordinates": [ 5.03844, 46.39209 ] } },
{ "type": "Feature", "properties": { "gml_id": "ETABLISSEMENTS_POLLUEURS.596784", "identifiant": "0005402659", "idetab": "596784", "nom": "LES ENROBES BRESSANS", "codeape": "2399Z", "cp": "71470" }, "geometry": { "type": "Point", "coordinates": [ 5.07257, 46.49666 ] } },
{ "type": "Feature", "properties": { "gml_id": "ETABLISSEMENTS_POLLUEURS.324", "identifiant": "0005401142", "idetab": "324", "nom": "AL-KO", "codeape": "2920Z", "cp": "71500" }, "geometry": { "type": "Point", "coordinates": [ 5.18859, 46.65495 ] } },
{ "type": "Feature", "properties": { "gml_id": "ETABLISSEMENTS_POLLUEURS.588481", "identifiant": "0005401725", "idetab": "588481", "nom": "BRESSE RECUP - D'ALASCIO SYLVAIN", "codeape": "3832Z", "cp": "71500" }, "geometry": { "type": "Point", "coordinates": [ 5.20826, 46.61487 ] } },
{ "type": "Feature", "properties": { "gml_id": "ETABLISSEMENTS_POLLUEURS.592993", "identifiant": "0050100351", "idetab": "592993", "nom": "SCEA DE LA COLOMBE", "codeape": "0146Z", "cp": "01340" }, "geometry": { "type": "Point", "coordinates": [ 5.21419, 46.37957 ] } },
{ "type": "Feature", "properties": { "gml_id": "ETABLISSEMENTS_POLLUEURS.592167", "identifiant": "0005403268", "idetab": "592167", "nom": "SIVOM DU LOUHANNAIS", "codeape": "8411Z", "cp": "71500" }, "geometry": { "type": "Point", "coordinates": [ 5.21467, 46.62174 ] } },
{ "type": "Feature", "properties": { "gml_id": "ETABLISSEMENTS_POLLUEURS.598300", "identifiant": "0024700066", "idetab": "598300", "nom": "HUTTEPAIN SUD EST", "codeape": "1091Z", "cp": "71500" }, "geometry": { "type": "Point", "coordinates": [ 5.21792, 46.63267 ] } },
{ "type": "Feature", "properties": { "gml_id": "ETABLISSEMENTS_POLLUEURS.8831", "identifiant": "0005401245", "idetab": "8831", "nom": "DANONE PRODUITS FRAIS FRANCE", "codeape": "1051A", "cp": "71500" }, "geometry": { "type": "Point", "coordinates": [ 5.222261, 46.627059 ] } },
{ "type": "Feature", "properties": { "gml_id": "ETABLISSEMENTS_POLLUEURS.8825", "identifiant": "0005401143", "idetab": "8825", "nom": "LDC BOURGOGNE", "codeape": "151C", "cp": "71500" }, "geometry": { "type": "Point", "coordinates": [ 5.222261, 46.627059 ] } },
{ "type": "Feature", "properties": { "gml_id": "ETABLISSEMENTS_POLLUEURS.590705", "identifiant": "0050100354", "idetab": "590705", "nom": "DES QUATRE SAISONS", "codeape": "0146Z", "cp": "01340" }, "geometry": { "type": "Point", "coordinates": [ 5.23197, 46.40327 ] } },
{ "type": "Feature", "properties": { "gml_id": "ETABLISSEMENTS_POLLUEURS.598321", "identifiant": "0003303276", "idetab": "598321", "nom": "EMMANUEL MASSOT", "codeape": "0147Z", "cp": "71470" }, "geometry": { "type": "Point", "coordinates": [ 5.23825, 46.55769 ] } },
{ "type": "Feature", "properties": { "gml_id": "ETABLISSEMENTS_POLLUEURS.591705", "identifiant": "0050100466", "idetab": "591705", "nom": "GAEC DE CHAVANOSSE", "codeape": "0146Z", "cp": "71480" }, "geometry": { "type": "Point", "coordinates": [ 5.243829, 46.481392 ] } },
{ "type": "Feature", "properties": { "gml_id": "ETABLISSEMENTS_POLLUEURS.592516", "identifiant": "0005401062", "idetab": "592516", "nom": "LAITERIE DE BRESSE", "codeape": "1051C", "cp": "71480" }, "geometry": { "type": "Point", "coordinates": [ 5.24604, 46.48817 ] } },
{ "type": "Feature", "properties": { "gml_id": "ETABLISSEMENTS_POLLUEURS.592913", "identifiant": "0003302330", "idetab": "592913", "nom": "GAEC DE CHAVANOSSE", "codeape": "0146Z", "cp": "71480" }, "geometry": { "type": "Point", "coordinates": [ 5.24742, 46.46681 ] } },
{ "type": "Feature", "properties": { "gml_id": "ETABLISSEMENTS_POLLUEURS.591703", "identifiant": "0050100313", "idetab": "591703", "nom": "SCEA ROBIN FERME DE LA RICHARDIERE", "codeape": "0150Z", "cp": "01270" }, "geometry": { "type": "Point", "coordinates": [ 5.2818, 46.42433 ] } },
{ "type": "Feature", "properties": { "gml_id": "ETABLISSEMENTS_POLLUEURS.598065", "identifiant": "0050100311", "idetab": "598065", "nom": "GAEC DES COURS", "codeape": "0150Z", "cp": "01270" }, "geometry": { "type": "Point", "coordinates": [ 5.29566, 46.41619 ] } },
{ "type": "Feature", "properties": { "gml_id": "ETABLISSEMENTS_POLLUEURS.4339", "identifiant": "0005900985", "idetab": "4339", "nom": "PROVALT JURA", "codeape": "3832Z", "cp": "39160" }, "geometry": { "type": "Point", "coordinates": [ 5.31894, 46.42109 ] } },
{ "type": "Feature", "properties": { "gml_id": "ETABLISSEMENTS_POLLUEURS.592540", "identifiant": "0050100816", "idetab": "592540", "nom": "SA GAVAND ET PRUDENT", "codeape": "1012Z", "cp": "01270" }, "geometry": { "type": "Point", "coordinates": [ 5.33297, 46.36485 ] } },
{ "type": "Feature", "properties": { "gml_id": "ETABLISSEMENTS_POLLUEURS.7287", "identifiant": "0012100022", "idetab": "7287", "nom": "ALGECO", "codeape": "2511Z", "cp": "39160" }, "geometry": { "type": "Point", "coordinates": [ 5.34209, 46.4318 ] } },
{ "type": "Feature", "properties": { "gml_id": "ETABLISSEMENTS_POLLUEURS.588695", "identifiant": "0005906484", "idetab": "588695", "nom": "ISDI ST AMOUR", "codeape": "4312A", "cp": "39160" }, "geometry": { "type": "Point", "coordinates": [ 5.343447, 46.436081 ] } },
{ "type": "Feature", "properties": { "gml_id": "ETABLISSEMENTS_POLLUEURS.13419", "identifiant": "0012600140", "idetab": "13419", "nom": "BELLEVRET INDUSTRIES", "codeape": "2529Z", "cp": "39160" }, "geometry": { "type": "Point", "coordinates": [ 5.353373, 46.457229 ] } },
{ "type": "Feature", "properties": { "gml_id": "ETABLISSEMENTS_POLLUEURS.4014", "identifiant": "0005401073", "idetab": "4014", "nom": "GRACE PRODUITS CONSTRUCTION", "codeape": "2059Z", "cp": "71580" }, "geometry": { "type": "Point", "coordinates": [ 5.369099, 46.690775 ] } },
{ "type": "Feature", "properties": { "gml_id": "ETABLISSEMENTS_POLLUEURS.592569", "identifiant": "0005901623", "idetab": "592569", "nom": "FAMY", "codeape": "0812Z", "cp": "39160" }, "geometry": { "type": "Point", "coordinates": [ 5.37162, 46.45865 ] } },
{ "type": "Feature", "properties": { "gml_id": "ETABLISSEMENTS_POLLUEURS.4026", "identifiant": "0005401230", "idetab": "4026", "nom": "GROUPE BIGARD", "codeape": "1011Z", "cp": "71480" }, "geometry": { "type": "Point", "coordinates": [ 5.38702, 46.492399 ] } },
{ "type": "Feature", "properties": { "gml_id": "ETABLISSEMENTS_POLLUEURS.8826", "identifiant": "0005401150", "idetab": "8826", "nom": "LARUE SAS", "codeape": "0811Z", "cp": "71480" }, "geometry": { "type": "Point", "coordinates": [ 5.38702, 46.492399 ] } },
{ "type": "Feature", "properties": { "gml_id": "ETABLISSEMENTS_POLLUEURS.588692", "identifiant": "0005906445", "idetab": "588692", "nom": "FONTENAT GRANULATS VICAT - FGV", "codeape": "0812Z", "cp": "39160" }, "geometry": { "type": "Point", "coordinates": [ 5.38897, 46.36752 ] } },
{ "type": "Feature", "properties": { "gml_id": "ETABLISSEMENTS_POLLUEURS.591692", "identifiant": "0012600093", "idetab": "591692", "nom": "LACROIX EMBALLAGES", "codeape": "1624Z", "cp": "39190" }, "geometry": { "type": "Point", "coordinates": [ 5.389295, 46.529145 ] } },
{ "type": "Feature", "properties": { "gml_id": "ETABLISSEMENTS_POLLUEURS.6519", "identifiant": "0005900794", "idetab": "6519", "nom": "SOC NOISEENNE OUTILLAGE DE PRESSE SNOP", "codeape": "2550B", "cp": "39190" }, "geometry": { "type": "Point", "coordinates": [ 5.39118, 46.53148 ] } },
{ "type": "Feature", "properties": { "gml_id": "ETABLISSEMENTS_POLLUEURS.588496", "identifiant": "0005426140", "idetab": "588496", "nom": "FAMY TP", "codeape": "3821Z", "cp": "71480" }, "geometry": { "type": "Point", "coordinates": [ 5.39457, 46.49788 ] } },
{ "type": "Feature", "properties": { "gml_id": "ETABLISSEMENTS_POLLUEURS.593337", "identifiant": "0005901736", "idetab": "593337", "nom": "FAMY", "codeape": "0812Z", "cp": "39160" }, "geometry": { "type": "Point", "coordinates": [ 5.40633, 46.45647 ] } },
{ "type": "Feature", "properties": { "gml_id": "ETABLISSEMENTS_POLLUEURS.592674", "identifiant": "0050100817", "idetab": "592674", "nom": "EUROPEENNE GASTRONOMIQUE DE CHARCUTERIE", "codeape": "1013A", "cp": "01270" }, "geometry": { "type": "Point", "coordinates": [ 5.33297, 46.36485 ] } },
{ "type": "Feature", "properties": { "gml_id": "ETABLISSEMENTS_POLLUEURS.592937", "identifiant": "0050100877", "idetab": "592937", "nom": "CLERC BRENDA", "codeape": "0147Z", "cp": "01560" }, "geometry": { "type": "Point", "coordinates": [ 5.11227, 46.47968 ] } },
{ "type": "Feature", "properties": { "gml_id": "ETABLISSEMENTS_POLLUEURS.590712", "identifiant": "0050100899", "idetab": "590712", "nom": "EARL DU CHARPET", "codeape": "0146Z", "cp": "01270" }, "geometry": { "type": "Point", "coordinates": [ 5.309698, 46.355582 ] } },
{ "type": "Feature", "properties": { "gml_id": "ETABLISSEMENTS_POLLUEURS.13836", "identifiant": "0050100901", "idetab": "13836", "nom": "EARL DU SOLEIL LEVANT", "codeape": "0146Z", "cp": "01270" }, "geometry": { "type": "Point", "coordinates": [ 5.31785, 46.33593 ] } },
{ "type": "Feature", "properties": { "gml_id": "ETABLISSEMENTS_POLLUEURS.590713", "identifiant": "0050101120", "idetab": "590713", "nom": "LES CORNALIERES", "codeape": "0147Z", "cp": "01190" }, "geometry": { "type": "Point", "coordinates": [ 5.01584, 46.35606 ] } },
{ "type": "Feature", "properties": { "gml_id": "ETABLISSEMENTS_POLLUEURS.13518", "identifiant": "0057100394", "idetab": "13518", "nom": "GROUPE BIGARD", "codeape": "1011Z", "cp": "71480" }, "geometry": { "type": "Point", "coordinates": [ 5.37638, 46.49997 ] } },
{ "type": "Feature", "properties": { "gml_id": "ETABLISSEMENTS_POLLUEURS.592535", "identifiant": "0057100395", "idetab": "592535", "nom": "PRODIA BRESSE", "codeape": "3832Z", "cp": "71480" }, "geometry": { "type": "Point", "coordinates": [ 5.3872, 46.49535 ] } },
{ "type": "Feature", "properties": { "gml_id": "ETABLISSEMENTS_POLLUEURS.3844", "identifiant": "01147112", "idetab": "3844", "nom": "SCEA ROBIN", "codeape": "0146Z", "cp": "01270" }, "geometry": { "type": "Point", "coordinates": [ 5.300172, 46.427049 ] } },
{ "type": "Feature", "properties": { "gml_id": "ETABLISSEMENTS_POLLUEURS.3848", "identifiant": "01312009", "idetab": "3848", "nom": "PROVENT SDPR - ELEVAGE DES 3 MONTS", "codeape": "0146Z", "cp": "01370" }, "geometry": { "type": "Point", "coordinates": [ 5.390364, 46.329951 ] } },
{ "type": "Feature", "properties": { "gml_id": "ETABLISSEMENTS_POLLUEURS.10475", "identifiant": "01433001", "idetab": "10475", "nom": "CLERC JEAN-MARC", "codeape": "0147Z", "cp": "01560" }, "geometry": { "type": "Point", "coordinates": [ 5.109792, 46.489114 ] } },
{ "type": "Feature", "properties": { "gml_id": "ETABLISSEMENTS_POLLUEURS.8729", "identifiant": "01445005", "idetab": "8729", "nom": "EARL DU CHARPET", "codeape": "0146Z", "cp": "01270" }, "geometry": { "type": "Point", "coordinates": [ 5.32231, 46.354077 ] } },
{ "type": "Feature", "properties": { "gml_id": "ETABLISSEMENTS_POLLUEURS.11241", "identifiant": "71056001", "idetab": "11241", "nom": "LDC BOURGOGNE", "codeape": "1012Z", "cp": "71501" }, "geometry": { "type": "Point", "coordinates": [ 5.222741, 46.63605 ] } },
{ "type": "Feature", "properties": { "gml_id": "ETABLISSEMENTS_POLLUEURS.7467", "identifiant": "71157028", "idetab": "7467", "nom": "GROUPE BIGARD", "codeape": "151A", "cp": "71480" }, "geometry": { "type": "Point", "coordinates": [ 5.397032, 46.498155 ] } },
{ "type": "Feature", "properties": { "gml_id": "ETABLISSEMENTS_POLLUEURS.3574", "identifiant": "71558900", "idetab": "3574", "nom": "SA PRELY", "codeape": "0146Z", "cp": "71480" }, "geometry": { "type": "Point", "coordinates": [ 5.249563, 46.48947 ] } },
{ "type": "Feature", "properties": { "gml_id": "ETABLISSEMENTS_POLLUEURS.595477", "identifiant": "0005401145", "idetab": "595477", "nom": "SOMAGIC", "codeape": "2752Z", "cp": "71290" }, "geometry": { "type": "Point", "coordinates": [ 5.0345, 46.5418 ] } },
{ "type": "Feature", "properties": { "gml_id": "ETABLISSEMENTS_POLLUEURS.7356", "identifiant": "0024700051", "idetab": "7356", "nom": "BERRY SUPERFOS LA GENETE", "codeape": "2222Z", "cp": "71290" }, "geometry": { "type": "Point", "coordinates": [ 5.03756, 46.54191 ] } },
{ "type": "Feature", "properties": { "gml_id": "ETABLISSEMENTS_POLLUEURS.596738", "identifiant": "0003301612", "idetab": "596738", "nom": "AGRIMETHABRESSE", "codeape": "3521Z", "cp": "71330" }, "geometry": { "type": "Point", "coordinates": [ 5.17897, 46.73965 ] } },
{ "type": "Feature", "properties": { "gml_id": "ETABLISSEMENTS_POLLUEURS.8339", "identifiant": "0024600004", "idetab": "8339", "nom": "AUTOS PIECES LOUHANS", "codeape": "4677Z", "cp": "71500" }, "geometry": { "type": "Point", "coordinates": [ 5.18323, 46.65417 ] } },
{ "type": "Feature", "properties": { "gml_id": "ETABLISSEMENTS_POLLUEURS.588495", "identifiant": "0005426139", "idetab": "588495", "nom": "BOIVIN TP", "codeape": "4312A", "cp": "71270" }, "geometry": { "type": "Point", "coordinates": [ 5.213141, 46.813602 ] } },
{ "type": "Feature", "properties": { "gml_id": "ETABLISSEMENTS_POLLUEURS.590062", "identifiant": "0025000026", "idetab": "590062", "nom": "SIVOM DU LOUHANNAIS", "codeape": "8411Z", "cp": "71500" }, "geometry": { "type": "Point", "coordinates": [ 5.179822, 46.643321 ] } },
{ "type": "Feature", "properties": { "gml_id": "ETABLISSEMENTS_POLLUEURS.591159", "identifiant": "0057100135", "idetab": "591159", "nom": "EGGFARMS SAS", "codeape": "0147Z", "cp": "71500" }, "geometry": { "type": "Point", "coordinates": [ 5.17827, 46.66262 ] } },
{ "type": "Feature", "properties": { "gml_id": "ETABLISSEMENTS_POLLUEURS.13517", "identifiant": "0057100136", "idetab": "13517", "nom": "LDC BOURGOGNE", "codeape": "1012Z", "cp": "71501" }, "geometry": { "type": "Point", "coordinates": [ 5.21136, 46.63601 ] } },
{ "type": "Feature", "properties": { "gml_id": "ETABLISSEMENTS_POLLUEURS.13924", "identifiant": "71056059", "idetab": "13924", "nom": "SAS EGGTEAM VAL PRODUITS", "codeape": "0147Z", "cp": "71500" }, "geometry": { "type": "Point", "coordinates": [ 5.180294, 46.652312 ] } },
{ "type": "Feature", "properties": { "gml_id": "ETABLISSEMENTS_POLLUEURS.3573", "identifiant": "71056601", "idetab": "3573", "nom": "SARL VAL PRODUITS", "codeape": "0147Z", "cp": "71500" }, "geometry": { "type": "Point", "coordinates": [ 5.185564, 46.651402 ] } },
{ "type": "Feature", "properties": { "gml_id": "ETABLISSEMENTS_POLLUEURS.4384", "identifiant": "0006102142", "idetab": "4384", "nom": "STE NOUVELLE LA BRESSE", "codeape": "1013A", "cp": "01660" }, "geometry": { "type": "Point", "coordinates": [ 5.047589, 46.235344 ] } },
{ "type": "Feature", "properties": { "gml_id": "ETABLISSEMENTS_POLLUEURS.592996", "identifiant": "0050100258", "idetab": "592996", "nom": "BRESSE OEUFS PRODUCTION", "codeape": "7010Z", "cp": "01310" }, "geometry": { "type": "Point", "coordinates": [ 5.06394, 46.27418 ] } },
{ "type": "Feature", "properties": { "gml_id": "ETABLISSEMENTS_POLLUEURS.590703", "identifiant": "0050100253", "idetab": "590703", "nom": "SARL DE MONTBURON", "codeape": "0146Z", "cp": "01310" }, "geometry": { "type": "Point", "coordinates": [ 5.06471, 46.274 ] } },
{ "type": "Feature", "properties": { "gml_id": "ETABLISSEMENTS_POLLUEURS.597331", "identifiant": "0003202492", "idetab": "597331", "nom": "TRIVIGAZ VERT", "codeape": "7010Z", "cp": "01560" }, "geometry": { "type": "Point", "coordinates": [ 5.07522, 46.46463 ] } },
{ "type": "Feature", "properties": { "gml_id": "ETABLISSEMENTS_POLLUEURS.10304", "identifiant": "0010100127", "idetab": "10304", "nom": "SYNDICAT MIXTE DE CROCU (SM POUR LE TRAITEMENT DES DECHETS MENAGERS ET ASSIMILES)", "codeape": "3821Z", "cp": "01560" }, "geometry": { "type": "Point", "coordinates": [ 5.08099, 46.45994 ] } },
{ "type": "Feature", "properties": { "gml_id": "ETABLISSEMENTS_POLLUEURS.14103", "identifiant": "0006102119", "idetab": "14103", "nom": "CEMEX GRANULATS RHONE MEDITERRANEE", "codeape": "0812Z", "cp": "01340" }, "geometry": { "type": "Point", "coordinates": [ 5.12773, 46.34641 ] } },
{ "type": "Feature", "properties": { "gml_id": "ETABLISSEMENTS_POLLUEURS.1305", "identifiant": "0006102252", "idetab": "1305", "nom": "ELECTROLIUM", "codeape": "2561Z", "cp": "01240" }, "geometry": { "type": "Point", "coordinates": [ 5.128571, 46.095369 ] } },
{ "type": "Feature", "properties": { "gml_id": "ETABLISSEMENTS_POLLUEURS.14105", "identifiant": "0006102215", "idetab": "14105", "nom": "BELL FRANCE SAS", "codeape": "1013A", "cp": "01960" }, "geometry": { "type": "Point", "coordinates": [ 5.145859, 46.156228 ] } },
{ "type": "Feature", "properties": { "gml_id": "ETABLISSEMENTS_POLLUEURS.597350", "identifiant": "0003203310", "idetab": "597350", "nom": "JUGNON BIOGAZ", "codeape": "3521Z", "cp": "01440" }, "geometry": { "type": "Point", "coordinates": [ 5.15991, 46.28979 ] } },
{ "type": "Feature", "properties": { "gml_id": "ETABLISSEMENTS_POLLUEURS.1313", "identifiant": "0006102275", "idetab": "1313", "nom": "SAINT GOBAIN WEBER FRANCE", "codeape": "2364Z", "cp": "01960" }, "geometry": { "type": "Point", "coordinates": [ 5.16172, 46.12587 ] } },
{ "type": "Feature", "properties": { "gml_id": "ETABLISSEMENTS_POLLUEURS.4391", "identifiant": "0006102276", "idetab": "4391", "nom": "BRESSOR SA SITE DE SERVAS", "codeape": "1051C", "cp": "01960" }, "geometry": { "type": "Point", "coordinates": [ 5.164571, 46.132066 ] } },
{ "type": "Feature", "properties": { "gml_id": "ETABLISSEMENTS_POLLUEURS.590704", "identifiant": "0050100340", "idetab": "590704", "nom": "ELEVAGE DU BOIS COCHON", "codeape": "0146Z", "cp": "01340" }, "geometry": { "type": "Point", "coordinates": [ 5.16679, 46.39098 ] } },
{ "type": "Feature", "properties": { "gml_id": "ETABLISSEMENTS_POLLUEURS.588764", "identifiant": "0006109081", "idetab": "588764", "nom": "BDS RECYCLAGE", "codeape": "3832Z", "cp": "01440" }, "geometry": { "type": "Point", "coordinates": [ 5.18001, 46.25011 ] } },
{ "type": "Feature", "properties": { "gml_id": "ETABLISSEMENTS_POLLUEURS.1290", "identifiant": "0006102089", "idetab": "1290", "nom": "STORENGY FRANCE", "codeape": "5210B", "cp": "01340" }, "geometry": { "type": "Point", "coordinates": [ 5.18011, 46.32147 ] } },
{ "type": "Feature", "properties": { "gml_id": "ETABLISSEMENTS_POLLUEURS.592191", "identifiant": "0050100327", "idetab": "592191", "nom": "LAITERIE COOPERATIVE D'ETREZ-FOISSIAT", "codeape": "1051C", "cp": "01340" }, "geometry": { "type": "Point", "coordinates": [ 5.18122, 46.33375 ] } },
{ "type": "Feature", "properties": { "gml_id": "ETABLISSEMENTS_POLLUEURS.4381", "identifiant": "0006102088", "idetab": "4381", "nom": "LAITERIE COOPERATIVE ETREZ BEAUPONT", "codeape": "1051C", "cp": "01340" }, "geometry": { "type": "Point", "coordinates": [ 5.186794, 46.334631 ] } },
{ "type": "Feature", "properties": { "gml_id": "ETABLISSEMENTS_POLLUEURS.598578", "identifiant": "0050100328", "idetab": "598578", "nom": "PERRIN VALERIAN", "codeape": "0147Z", "cp": "01340" }, "geometry": { "type": "Point", "coordinates": [ 5.20355, 46.33927 ] } },
{ "type": "Feature", "properties": { "gml_id": "ETABLISSEMENTS_POLLUEURS.591704", "identifiant": "0050100339", "idetab": "591704", "nom": "ELEVAGE DES CHARMES", "codeape": "0146Z", "cp": "01340" }, "geometry": { "type": "Point", "coordinates": [ 5.2117, 46.40229 ] } },
{ "type": "Feature", "properties": { "gml_id": "ETABLISSEMENTS_POLLUEURS.588770", "identifiant": "0006111951", "idetab": "588770", "nom": "GRTGAZ ETREZ", "codeape": "4950Z", "cp": "01340" }, "geometry": { "type": "Point", "coordinates": [ 5.214165, 46.334767 ] } },
{ "type": "Feature", "properties": { "gml_id": "ETABLISSEMENTS_POLLUEURS.592948", "identifiant": "0050100420", "idetab": "592948", "nom": "SCEA PIROUX", "codeape": "0147Z", "cp": "01560" }, "geometry": { "type": "Point", "coordinates": [ 5.1422, 46.39462 ] } },
{ "type": "Feature", "properties": { "gml_id": "ETABLISSEMENTS_POLLUEURS.592021", "identifiant": "0050100525", "idetab": "592021", "nom": "AU CHAPON BRESSAN", "codeape": "1012Z", "cp": "01340" }, "geometry": { "type": "Point", "coordinates": [ 5.12198, 46.33741 ] } },
{ "type": "Feature", "properties": { "gml_id": "ETABLISSEMENTS_POLLUEURS.592523", "identifiant": "0050100526", "idetab": "592523", "nom": "LES VOLAILLES MIERAL", "codeape": "1012Z", "cp": "01340" }, "geometry": { "type": "Point", "coordinates": [ 5.12714, 46.34203 ] } },
{ "type": "Feature", "properties": { "gml_id": "ETABLISSEMENTS_POLLUEURS.590706", "identifiant": "0050100575", "idetab": "590706", "nom": "AIRPORC", "codeape": "0146Z", "cp": "01310" }, "geometry": { "type": "Point", "coordinates": [ 5.14593, 46.25487 ] } },
{ "type": "Feature", "properties": { "gml_id": "ETABLISSEMENTS_POLLUEURS.590707", "identifiant": "0050100576", "idetab": "590707", "nom": "LES VERNAYS", "codeape": "0111Z", "cp": "01310" }, "geometry": { "type": "Point", "coordinates": [ 5.11254, 46.23621 ] } },
{ "type": "Feature", "properties": { "gml_id": "ETABLISSEMENTS_POLLUEURS.592022", "identifiant": "0050100634", "idetab": "592022", "nom": "CRYSTAL", "codeape": "1013A", "cp": "01960" }, "geometry": { "type": "Point", "coordinates": [ 5.14445, 46.15604 ] } },
{ "type": "Feature", "properties": { "gml_id": "ETABLISSEMENTS_POLLUEURS.590710", "identifiant": "0050100659", "idetab": "590710", "nom": "SOGIFRA", "codeape": "0146Z", "cp": "01340" }, "geometry": { "type": "Point", "coordinates": [ 5.07744, 46.31579 ] } },
{ "type": "Feature", "properties": { "gml_id": "ETABLISSEMENTS_POLLUEURS.592958", "identifiant": "0050100725", "idetab": "592958", "nom": "AIRPORC", "codeape": "0146Z", "cp": "01560" }, "geometry": { "type": "Point", "coordinates": [ 5.0964, 46.39882 ] } },
{ "type": "Feature", "properties": { "gml_id": "ETABLISSEMENTS_POLLUEURS.592524", "identifiant": "0050100790", "idetab": "592524", "nom": "COMPAGNIE DES FROMAGES ET RICHESMONTS", "codeape": "1051C", "cp": "01560" }, "geometry": { "type": "Point", "coordinates": [ 5.08345, 46.45739 ] } },
{ "type": "Feature", "properties": { "gml_id": "ETABLISSEMENTS_POLLUEURS.589357", "identifiant": "0050100831", "idetab": "589357", "nom": "SIBERT LA BRESSE", "codeape": "1013A", "cp": "01960" }, "geometry": { "type": "Point", "coordinates": [ 5.17523, 46.13269 ] } },
{ "type": "Feature", "properties": { "gml_id": "ETABLISSEMENTS_POLLUEURS.592371", "identifiant": "0050100832", "idetab": "592371", "nom": "BRESSOR SA", "codeape": "1051C", "cp": "01960" }, "geometry": { "type": "Point", "coordinates": [ 5.16363, 46.12955 ] } },
{ "type": "Feature", "properties": { "gml_id": "ETABLISSEMENTS_POLLUEURS.595166", "identifiant": "0050100923", "idetab": "595166", "nom": "MARIE", "codeape": "1085Z", "cp": "01440" }, "geometry": { "type": "Point", "coordinates": [ 5.21107, 46.25574 ] } },
{ "type": "Feature", "properties": { "gml_id": "ETABLISSEMENTS_POLLUEURS.591938", "identifiant": "0050100925", "idetab": "591938", "nom": "ATEMAX FRANCE", "codeape": "3832Z", "cp": "01440" }, "geometry": { "type": "Point", "coordinates": [ 5.17968, 46.24532 ] } },
{ "type": "Feature", "properties": { "gml_id": "ETABLISSEMENTS_POLLUEURS.13837", "identifiant": "0050101006", "idetab": "13837", "nom": "METHANEA", "codeape": "3511Z", "cp": "01560" }, "geometry": { "type": "Point", "coordinates": [ 5.14051, 46.39462 ] } },
{ "type": "Feature", "properties": { "gml_id": "ETABLISSEMENTS_POLLUEURS.3843", "identifiant": "01115003", "idetab": "3843", "nom": "SARL DE MONTBURON", "codeape": "0146Z", "cp": "01310" }, "geometry": { "type": "Point", "coordinates": [ 5.07215, 46.275053 ] } },
{ "type": "Feature", "properties": { "gml_id": "ETABLISSEMENTS_POLLUEURS.3845", "identifiant": "01163009", "idetab": "3845", "nom": "SARL ELEVAGE DES CHARMES", "codeape": "0146Z", "cp": "01340" }, "geometry": { "type": "Point", "coordinates": [ 5.179516, 46.375277 ] } },
{ "type": "Feature", "properties": { "gml_id": "ETABLISSEMENTS_POLLUEURS.8725", "identifiant": "01163015", "idetab": "8725", "nom": "SARL ELEVAGE DU BOIS COCHON", "codeape": "0146Z", "cp": "01340" }, "geometry": { "type": "Point", "coordinates": [ 5.174273, 46.376187 ] } },
{ "type": "Feature", "properties": { "gml_id": "ETABLISSEMENTS_POLLUEURS.587753", "identifiant": "01163177", "idetab": "587753", "nom": "EARL DES QUATRES SAISONS", "codeape": "0146Z", "cp": "01340" }, "geometry": { "type": "Point", "coordinates": [ 5.174273, 46.376187 ] } },
{ "type": "Feature", "properties": { "gml_id": "ETABLISSEMENTS_POLLUEURS.3846", "identifiant": "01264005", "idetab": "3846", "nom": "SA MULTIPORC", "codeape": "012E", "cp": "01310" }, "geometry": { "type": "Point", "coordinates": [ 5.128465, 46.20553 ] } },
{ "type": "Feature", "properties": { "gml_id": "ETABLISSEMENTS_POLLUEURS.3847", "identifiant": "01301084", "idetab": "3847", "nom": "SARL ELEVAGE DES MARAIS", "codeape": "0146Z", "cp": "01310" }, "geometry": { "type": "Point", "coordinates": [ 5.132009, 46.256992 ] } },
{ "type": "Feature", "properties": { "gml_id": "ETABLISSEMENTS_POLLUEURS.8727", "identifiant": "01346010", "idetab": "8727", "nom": "SCEA SOGIFRA", "codeape": "0146Z", "cp": "01340" }, "geometry": { "type": "Point", "coordinates": [ 5.061562, 46.314806 ] } },
{ "type": "Feature", "properties": { "gml_id": "ETABLISSEMENTS_POLLUEURS.3850", "identifiant": "01383001", "idetab": "3850", "nom": "EARL BEJOINT", "codeape": "012E", "cp": "01240" }, "geometry": { "type": "Point", "coordinates": [ 5.131145, 46.106965 ] } },
{ "type": "Feature", "properties": { "gml_id": "ETABLISSEMENTS_POLLUEURS.4333", "identifiant": "0005900792", "idetab": "4333", "nom": "SYND DEPART TRAITEMENT ORDURES MENAGERES", "codeape": "4299Z", "cp": "39570" }, "geometry": { "type": "Point", "coordinates": [ 5.43668, 46.67373 ] } },
{ "type": "Feature", "properties": { "gml_id": "ETABLISSEMENTS_POLLUEURS.589642", "identifiant": "0005906489", "idetab": "589642", "nom": "PETITJEAN T.P.", "codeape": "4312B", "cp": "39190" }, "geometry": { "type": "Point", "coordinates": [ 5.43854, 46.57286 ] } },
{ "type": "Feature", "properties": { "gml_id": "ETABLISSEMENTS_POLLUEURS.1184", "identifiant": "0005900723", "idetab": "1184", "nom": "SPEICHIM PROCESSING", "codeape": "2014Z", "cp": "39190" }, "geometry": { "type": "Point", "coordinates": [ 5.44235, 46.57906 ] } },
{ "type": "Feature", "properties": { "gml_id": "ETABLISSEMENTS_POLLUEURS.13422", "identifiant": "0012600475", "idetab": "13422", "nom": "TRIADIS SERVICES", "codeape": "3812Z", "cp": "39190" }, "geometry": { "type": "Point", "coordinates": [ 5.44235, 46.57906 ] } },
{ "type": "Feature", "properties": { "gml_id": "ETABLISSEMENTS_POLLUEURS.590048", "identifiant": "0012100173", "idetab": "590048", "nom": "EDILIANS", "codeape": "2332Z", "cp": "39140" }, "geometry": { "type": "Point", "coordinates": [ 5.44351, 46.82604 ] } },
{ "type": "Feature", "properties": { "gml_id": "ETABLISSEMENTS_POLLUEURS.590049", "identifiant": "0012100206", "idetab": "590049", "nom": "EDILIANS", "codeape": "2332Z", "cp": "39140" }, "geometry": { "type": "Point", "coordinates": [ 5.45027, 46.78194 ] } },
{ "type": "Feature", "properties": { "gml_id": "ETABLISSEMENTS_POLLUEURS.13421", "identifiant": "0012600356", "idetab": "13421", "nom": "LONS ENROBES", "codeape": "2399Z", "cp": "39140" }, "geometry": { "type": "Point", "coordinates": [ 5.45109, 46.79449 ] } },
{ "type": "Feature", "properties": { "gml_id": "ETABLISSEMENTS_POLLUEURS.1186", "identifiant": "0005900787", "idetab": "1186", "nom": "EDILIANS", "codeape": "2332Z", "cp": "39140" }, "geometry": { "type": "Point", "coordinates": [ 5.45477, 46.80146 ] } },
{ "type": "Feature", "properties": { "gml_id": "ETABLISSEMENTS_POLLUEURS.597440", "identifiant": "0005904293", "idetab": "597440", "nom": "MONTS & TERROIRS", "codeape": "1051C", "cp": "39570" }, "geometry": { "type": "Point", "coordinates": [ 5.46256, 46.67794 ] } },
{ "type": "Feature", "properties": { "gml_id": "ETABLISSEMENTS_POLLUEURS.590050", "identifiant": "0012600434", "idetab": "590050", "nom": "ASSOCIATION DEPARTEMENTALE DU LUTTE CONTRE LES ADDICTIONS", "codeape": "3314Z", "cp": "39140" }, "geometry": { "type": "Point", "coordinates": [ 5.46355, 46.74923 ] } },
{ "type": "Feature", "properties": { "gml_id": "ETABLISSEMENTS_POLLUEURS.6523", "identifiant": "0005900863", "idetab": "6523", "nom": "GCP PRODUITS DE CONSTRUCTION SAS", "codeape": "2059Z", "cp": "39140" }, "geometry": { "type": "Point", "coordinates": [ 5.47835, 46.70971 ] } },
{ "type": "Feature", "properties": { "gml_id": "ETABLISSEMENTS_POLLUEURS.14064", "identifiant": "0005901743", "idetab": "14064", "nom": "LES CARRIERES JURASSIENNES", "codeape": "0812Z", "cp": "39230" }, "geometry": { "type": "Point", "coordinates": [ 5.49658, 46.76443 ] } },
{ "type": "Feature", "properties": { "gml_id": "ETABLISSEMENTS_POLLUEURS.6524", "identifiant": "0005900878", "idetab": "6524", "nom": "FLEXICO ETABLISSEMENT DE LONS", "codeape": "2222Z", "cp": "39000" }, "geometry": { "type": "Point", "coordinates": [ 5.5, 46.6 ] } },
{ "type": "Feature", "properties": { "gml_id": "ETABLISSEMENTS_POLLUEURS.7288", "identifiant": "0012100033", "idetab": "7288", "nom": "CHIMIREC CENTRE EST", "codeape": "3812Z", "cp": "39570" }, "geometry": { "type": "Point", "coordinates": [ 5.50931, 46.68077 ] } },
{ "type": "Feature", "properties": { "gml_id": "ETABLISSEMENTS_POLLUEURS.596813", "identifiant": "0003301605", "idetab": "596813", "nom": "COLAS FRANCE", "codeape": "4211Z", "cp": "39570" }, "geometry": { "type": "Point", "coordinates": [ 5.51115, 46.66254 ] } },
{ "type": "Feature", "properties": { "gml_id": "ETABLISSEMENTS_POLLUEURS.588696", "identifiant": "0005906496", "idetab": "588696", "nom": "FAMY TP", "codeape": "4312A", "cp": "39570" }, "geometry": { "type": "Point", "coordinates": [ 5.523169, 46.726112 ] } },
{ "type": "Feature", "properties": { "gml_id": "ETABLISSEMENTS_POLLUEURS.589641", "identifiant": "0005906488", "idetab": "589641", "nom": "PETITJEAN T.P.", "codeape": "4312B", "cp": "39570" }, "geometry": { "type": "Point", "coordinates": [ 5.53548, 46.71334 ] } },
{ "type": "Feature", "properties": { "gml_id": "ETABLISSEMENTS_POLLUEURS.594263", "identifiant": "0012100171", "idetab": "594263", "nom": "SOC EXPLOIT ET DE TRPTS PERNOT", "codeape": "0812Z", "cp": "39270" }, "geometry": { "type": "Point", "coordinates": [ 5.54006, 46.59596 ] } },
{ "type": "Feature", "properties": { "gml_id": "ETABLISSEMENTS_POLLUEURS.4337", "identifiant": "0005900888", "idetab": "4337", "nom": "FROMAGERIES BEL PRODUCTION FRANCE", "codeape": "1051C", "cp": "39000" }, "geometry": { "type": "Point", "coordinates": [ 5.54637, 46.66998 ] } },
{ "type": "Feature", "properties": { "gml_id": "ETABLISSEMENTS_POLLUEURS.7291", "identifiant": "0012600105", "idetab": "7291", "nom": "SKF AEROSPACE FRANCE", "codeape": "3030Z", "cp": "39002" }, "geometry": { "type": "Point", "coordinates": [ 5.55558, 46.67561 ] } },
{ "type": "Feature", "properties": { "gml_id": "ETABLISSEMENTS_POLLUEURS.4338", "identifiant": "0005900890", "idetab": "4338", "nom": "SOCIETE FROMAGERE DE LONS LE SAUNIER", "codeape": "1051C", "cp": "39000" }, "geometry": { "type": "Point", "coordinates": [ 5.56585, 46.67221 ] } },
{ "type": "Feature", "properties": { "gml_id": "ETABLISSEMENTS_POLLUEURS.598920", "identifiant": "0057100106", "idetab": "598920", "nom": "DROUHARD FRANÇOIS", "codeape": "0147Z", "cp": "71310" }, "geometry": { "type": "Point", "coordinates": [ 5.33057, 46.76954 ] } },
{ "type": "Feature", "properties": { "gml_id": "ETABLISSEMENTS_POLLUEURS.3445", "identifiant": "0010100089", "idetab": "3445", "nom": "ETABLISSEMENTS TIFLEX", "codeape": "2030Z", "cp": "01450" }, "geometry": { "type": "Point", "coordinates": [ 5.40547, 46.08293 ] } },
{ "type": "Feature", "properties": { "gml_id": "ETABLISSEMENTS_POLLUEURS.8728", "identifiant": "01441045", "idetab": "8728", "nom": "SA LARÇON", "codeape": "0146Z", "cp": "01430" }, "geometry": { "type": "Point", "coordinates": [ 5.530222, 46.088855 ] } },
{ "type": "Feature", "properties": { "gml_id": "ETABLISSEMENTS_POLLUEURS.587754", "identifiant": "01374138", "idetab": "587754", "nom": "GAEC DE L'ORME", "codeape": "0146Z", "cp": "01160" }, "geometry": { "type": "Point", "coordinates": [ 5.329088, 46.109687 ] } },
{ "type": "Feature", "properties": { "gml_id": "ETABLISSEMENTS_POLLUEURS.590711", "identifiant": "0050100743", "idetab": "590711", "nom": "GAEC DE L'ORME", "codeape": "0146Z", "cp": "01160" }, "geometry": { "type": "Point", "coordinates": [ 5.32449, 46.11739 ] } },
{ "type": "Feature", "properties": { "gml_id": "ETABLISSEMENTS_POLLUEURS.593850", "identifiant": "0006100080", "idetab": "593850", "nom": "THIERRY DANNENMULLER TRANSPORTS LOCATIONS TRAVAUX PUBLICS EN ABREGE T L T P", "codeape": "0811Z", "cp": "01240" }, "geometry": { "type": "Point", "coordinates": [ 5.27814, 46.12357 ] } },
{ "type": "Feature", "properties": { "gml_id": "ETABLISSEMENTS_POLLUEURS.4383", "identifiant": "0006102135", "idetab": "4383", "nom": "LES FILS DE CYRILLE DUCRET", "codeape": "201A", "cp": "01430" }, "geometry": { "type": "Point", "coordinates": [ 5.54037, 46.127755 ] } },
{ "type": "Feature", "properties": { "gml_id": "ETABLISSEMENTS_POLLUEURS.4392", "identifiant": "0006102280", "idetab": "4392", "nom": "SEVIA", "codeape": "3812Z", "cp": "01250" }, "geometry": { "type": "Point", "coordinates": [ 5.3053, 46.13856 ] } },
{ "type": "Feature", "properties": { "gml_id": "ETABLISSEMENTS_POLLUEURS.598753", "identifiant": "0006102238", "idetab": "598753", "nom": "RE-UZ PRODUCTION", "codeape": "2222Z", "cp": "01430" }, "geometry": { "type": "Point", "coordinates": [ 5.55222, 46.13954 ] } },
{ "type": "Feature", "properties": { "gml_id": "ETABLISSEMENTS_POLLUEURS.3442", "identifiant": "0010100036", "idetab": "3442", "nom": "POLYONE FRANCE", "codeape": "2012Z", "cp": "01250" }, "geometry": { "type": "Point", "coordinates": [ 5.31668, 46.14156 ] } },
{ "type": "Feature", "properties": { "gml_id": "ETABLISSEMENTS_POLLUEURS.11987", "identifiant": "0010100023", "idetab": "11987", "nom": "COMPAGNIE GENERALE D'EAUX DE SOURCE", "codeape": "1107A", "cp": "01130" }, "geometry": { "type": "Point", "coordinates": [ 5.61494, 46.15001 ] } },
{ "type": "Feature", "properties": { "gml_id": "ETABLISSEMENTS_POLLUEURS.3443", "identifiant": "0010100042", "idetab": "3443", "nom": "ARBAN", "codeape": "2223Z", "cp": "01460" }, "geometry": { "type": "Point", "coordinates": [ 5.56264, 46.1773 ] } },
{ "type": "Feature", "properties": { "gml_id": "ETABLISSEMENTS_POLLUEURS.1294", "identifiant": "0006102156", "idetab": "1294", "nom": "ARBAN", "codeape": "2223Z", "cp": "01460" }, "geometry": { "type": "Point", "coordinates": [ 5.56264, 46.1773 ] } },
{ "type": "Feature", "properties": { "gml_id": "ETABLISSEMENTS_POLLUEURS.594970", "identifiant": "0006112223", "idetab": "594970", "nom": "CEICA INDUSTRIE", "codeape": "2222Z", "cp": "01460" }, "geometry": { "type": "Point", "coordinates": [ 5.548, 46.179 ] } },
{ "type": "Feature", "properties": { "gml_id": "ETABLISSEMENTS_POLLUEURS.9744", "identifiant": "0006102163", "idetab": "9744", "nom": "SCHOELLER ALLIBERT FRANCE", "codeape": "2222Z", "cp": "01460" }, "geometry": { "type": "Point", "coordinates": [ 5.53192, 46.18332 ] } },
{ "type": "Feature", "properties": { "gml_id": "ETABLISSEMENTS_POLLUEURS.596822", "identifiant": "0050100133", "idetab": "596822", "nom": "BOUVARD ALINA INDUSTRIE", "codeape": "1072Z", "cp": "01250" }, "geometry": { "type": "Point", "coordinates": [ 5.30289, 46.18744 ] } },
{ "type": "Feature", "properties": { "gml_id": "ETABLISSEMENTS_POLLUEURS.14104", "identifiant": "0006102158", "idetab": "14104", "nom": "COUPAT GLOBAL SERVICES", "codeape": "4677Z", "cp": "01460" }, "geometry": { "type": "Point", "coordinates": [ 5.58245, 46.19008 ] } },
{ "type": "Feature", "properties": { "gml_id": "ETABLISSEMENTS_POLLUEURS.14083", "identifiant": "0006100082", "idetab": "14083", "nom": "GRANULATS VICAT", "codeape": "0812Z", "cp": "01250" }, "geometry": { "type": "Point", "coordinates": [ 5.32941, 46.19438 ] } },
{ "type": "Feature", "properties": { "gml_id": "ETABLISSEMENTS_POLLUEURS.11670", "identifiant": "0006107973", "idetab": "11670", "nom": "TEXEN DECORATION", "codeape": "2222Z", "cp": "01580" }, "geometry": { "type": "Point", "coordinates": [ 5.54991, 46.20477 ] } },
{ "type": "Feature", "properties": { "gml_id": "ETABLISSEMENTS_POLLUEURS.594830", "identifiant": "0006100173", "idetab": "594830", "nom": "CARRIERES BLANC", "codeape": "0812Z", "cp": "01580" }, "geometry": { "type": "Point", "coordinates": [ 5.54392, 46.20728 ] } },
{ "type": "Feature", "properties": { "gml_id": "ETABLISSEMENTS_POLLUEURS.12283", "identifiant": "0006102114", "idetab": "12283", "nom": "STS PLASTICS", "codeape": "2229A", "cp": "01580" }, "geometry": { "type": "Point", "coordinates": [ 5.55352, 46.21084 ] } },
{ "type": "Feature", "properties": { "gml_id": "ETABLISSEMENTS_POLLUEURS.592279", "identifiant": "0006102113", "idetab": "592279", "nom": "INVOLVE MANUFACTURING IZERNORE", "codeape": "2229A", "cp": "01580" }, "geometry": { "type": "Point", "coordinates": [ 5.55522, 46.21284 ] } },
{ "type": "Feature", "properties": { "gml_id": "ETABLISSEMENTS_POLLUEURS.597971", "identifiant": "0003204077", "idetab": "597971", "nom": "SOCIETE NOUVELLE OMP", "codeape": "2454Z", "cp": "01580" }, "geometry": { "type": "Point", "coordinates": [ 5.558533, 46.213415 ] } },
{ "type": "Feature", "properties": { "gml_id": "ETABLISSEMENTS_POLLUEURS.12169", "identifiant": "0010100178", "idetab": "12169", "nom": "VERNICOLOR IZERNORE", "codeape": "2229A", "cp": "01580" }, "geometry": { "type": "Point", "coordinates": [ 5.553976, 46.218917 ] } },
{ "type": "Feature", "properties": { "gml_id": "ETABLISSEMENTS_POLLUEURS.4382", "identifiant": "0006102104", "idetab": "4382", "nom": "EST GRAINAGE", "codeape": "2561Z", "cp": "01100" }, "geometry": { "type": "Point", "coordinates": [ 5.608058, 46.22087 ] } },
{ "type": "Feature", "properties": { "gml_id": "ETABLISSEMENTS_POLLUEURS.588727", "identifiant": "0006100123", "idetab": "588727", "nom": "FAMY TP", "codeape": "4312A", "cp": "01250" }, "geometry": { "type": "Point", "coordinates": [ 5.36919, 46.22133 ] } },
{ "type": "Feature", "properties": { "gml_id": "ETABLISSEMENTS_POLLUEURS.588783", "identifiant": "0006114555", "idetab": "588783", "nom": "FAMY TP", "codeape": "4312A", "cp": "01580" }, "geometry": { "type": "Point", "coordinates": [ 5.56636, 46.24024 ] } },
{ "type": "Feature", "properties": { "gml_id": "ETABLISSEMENTS_POLLUEURS.588339", "identifiant": "0003200193", "idetab": "588339", "nom": "FLORENTAISE", "codeape": "0891Z", "cp": "01370" }, "geometry": { "type": "Point", "coordinates": [ 5.367711, 46.269004 ] } },
{ "type": "Feature", "properties": { "gml_id": "ETABLISSEMENTS_POLLUEURS.1314", "identifiant": "0006102282", "idetab": "1314", "nom": "PIROUX INDUSTRIE SARL", "codeape": "2920Z", "cp": "01370" }, "geometry": { "type": "Point", "coordinates": [ 5.367711, 46.269004 ] } },
{ "type": "Feature", "properties": { "gml_id": "ETABLISSEMENTS_POLLUEURS.7290", "identifiant": "0012600081", "idetab": "7290", "nom": "ETABLISSEMENTS BOISNIER", "codeape": "2932Z", "cp": "39240" }, "geometry": { "type": "Point", "coordinates": [ 5.5309, 46.2697 ] } },
{ "type": "Feature", "properties": { "gml_id": "ETABLISSEMENTS_POLLUEURS.10663", "identifiant": "0006108528", "idetab": "10663", "nom": "PIROUX INDUSTRIE", "codeape": "2920Z", "cp": "01370" }, "geometry": { "type": "Point", "coordinates": [ 5.29164, 46.27065 ] } },
{ "type": "Feature", "properties": { "gml_id": "ETABLISSEMENTS_POLLUEURS.592122", "identifiant": "0050100862", "idetab": "592122", "nom": "FLORENTAISE", "codeape": "0892Z", "cp": "01370" }, "geometry": { "type": "Point", "coordinates": [ 5.36687, 46.28802 ] } },
{ "type": "Feature", "properties": { "gml_id": "ETABLISSEMENTS_POLLUEURS.1702", "identifiant": "0006105209", "idetab": "1702", "nom": "PIROUX TRAITEMENT DE SURFACES", "codeape": "2561Z", "cp": "01370" }, "geometry": { "type": "Point", "coordinates": [ 5.3964, 46.30172 ] } },
{ "type": "Feature", "properties": { "gml_id": "ETABLISSEMENTS_POLLUEURS.590708", "identifiant": "0050100584", "idetab": "590708", "nom": "PROVENT - SDPR", "codeape": "0146Z", "cp": "01370" }, "geometry": { "type": "Point", "coordinates": [ 5.35407, 46.30631 ] } },
{ "type": "Feature", "properties": { "gml_id": "ETABLISSEMENTS_POLLUEURS.10385", "identifiant": "32463240", "idetab": "10385", "nom": "OR BRUN", "codeape": "0891Z", "cp": "01370" }, "geometry": { "type": "Point", "coordinates": [ 5.368211, 46.277994 ] } },
{ "type": "Feature", "properties": { "gml_id": "ETABLISSEMENTS_POLLUEURS.6549", "identifiant": "0005902007", "idetab": "6549", "nom": "DIAGER INDUSTRIE", "codeape": "2573B", "cp": "39800" }, "geometry": { "type": "Point", "coordinates": [ 5.69394, 46.84799 ] } },
{ "type": "Feature", "properties": { "gml_id": "ETABLISSEMENTS_POLLUEURS.6518", "identifiant": "0005900706", "idetab": "6518", "nom": "STANLEYBLACK&DECKER MANUFACTURING", "codeape": "2573B", "cp": "39600" }, "geometry": { "type": "Point", "coordinates": [ 5.772829, 46.902854 ] } },
{ "type": "Feature", "properties": { "gml_id": "ETABLISSEMENTS_POLLUEURS.14058", "identifiant": "0005900704", "idetab": "14058", "nom": "SOC INDUSTR D OUTILL ET BUREAU REAL AUTO", "codeape": "2454Z", "cp": "39600" }, "geometry": { "type": "Point", "coordinates": [ 5.76816, 46.91671 ] } },
{ "type": "Feature", "properties": { "gml_id": "ETABLISSEMENTS_POLLUEURS.592275", "identifiant": "0005900705", "idetab": "592275", "nom": "S0C CHARP INDUS FRANCHE COMTE", "codeape": "1623Z", "cp": "39600" }, "geometry": { "type": "Point", "coordinates": [ 5.7648, 46.9217 ] } },
{ "type": "Feature", "properties": { "gml_id": "ETABLISSEMENTS_POLLUEURS.4340", "identifiant": "0005901039", "idetab": "4340", "nom": "SOCIETE NOUVELLE REVETIS", "codeape": "2561Z", "cp": "39600" }, "geometry": { "type": "Point", "coordinates": [ 5.7458, 46.92414 ] } },
{ "type": "Feature", "properties": { "gml_id": "ETABLISSEMENTS_POLLUEURS.593346", "identifiant": "0005901669", "idetab": "593346", "nom": "RMG", "codeape": "0811Z", "cp": "39110" }, "geometry": { "type": "Point", "coordinates": [ 5.95374, 46.92422 ] } }
]
}
