{
"type": "FeatureCollection",
"name": "ms:ETABLISSEMENTS_POLLUEURS",
"crs": { "type": "name", "properties": { "name": "urn:ogc:def:crs:OGC:1.3:CRS84" } },
"features": [
{ "type": "Feature", "properties": { "gml_id": "ETABLISSEMENTS_POLLUEURS.591891", "identifiant": "0005201951", "idetab": "591891", "nom": "EURALIS CEREALES", "codeape": "4621Z", "cp": "40210" }, "geometry": { "type": "Point", "coordinates": [ -0.91909, 44.14569 ] } },
{ "type": "Feature", "properties": { "gml_id": "ETABLISSEMENTS_POLLUEURS.221", "identifiant": "0005201623", "idetab": "221", "nom": "NANKAI PLYWOOD ROLPIN (NP ROLPIN)", "codeape": "1621Z", "cp": "40210" }, "geometry": { "type": "Point", "coordinates": [ -0.916627, 44.184425 ] } },
{ "type": "Feature", "properties": { "gml_id": "ETABLISSEMENTS_POLLUEURS.8770", "identifiant": "0005201622", "idetab": "8770", "nom": "ARCHIMBAUD ET FILS", "codeape": "0220Z", "cp": "40210" }, "geometry": { "type": "Point", "coordinates": [ -0.91777, 44.19453 ] } },
{ "type": "Feature", "properties": { "gml_id": "ETABLISSEMENTS_POLLUEURS.597378", "identifiant": "0003107252", "idetab": "597378", "nom": "MALET PE17 (CENTRALE D'ENROBAGE)", "codeape": "", "cp": "40410" }, "geometry": { "type": "Point", "coordinates": [ -0.781356, 44.295616 ] } },
{ "type": "Feature", "properties": { "gml_id": "ETABLISSEMENTS_POLLUEURS.8637", "identifiant": "0005207440", "idetab": "8637", "nom": "NATURA 2004 (SARL) - 'BRANA'", "codeape": "900E", "cp": "40410" }, "geometry": { "type": "Point", "coordinates": [ -0.777705, 44.308652 ] } },
{ "type": "Feature", "properties": { "gml_id": "ETABLISSEMENTS_POLLUEURS.8636", "identifiant": "0005207439", "idetab": "8636", "nom": "NATURA 2004 (SARL) - 'LANOT'", "codeape": "3821Z", "cp": "40410" }, "geometry": { "type": "Point", "coordinates": [ -0.777705, 44.308652 ] } },
{ "type": "Feature", "properties": { "gml_id": "ETABLISSEMENTS_POLLUEURS.8638", "identifiant": "0005207441", "idetab": "8638", "nom": "NATURA 2004 (SARL) - 'REBIER'", "codeape": "3821Z", "cp": "40410" }, "geometry": { "type": "Point", "coordinates": [ -0.777705, 44.308652 ] } },
{ "type": "Feature", "properties": { "gml_id": "ETABLISSEMENTS_POLLUEURS.8634", "identifiant": "0005207436", "idetab": "8634", "nom": "NATURA 2004 (SARL) - 'DOUC'", "codeape": "3821Z", "cp": "40410" }, "geometry": { "type": "Point", "coordinates": [ -0.877828, 44.319156 ] } },
{ "type": "Feature", "properties": { "gml_id": "ETABLISSEMENTS_POLLUEURS.8635", "identifiant": "0005207437", "idetab": "8635", "nom": "NATURA 2004 (SARL) - 'CASSIOT'", "codeape": "3821Z", "cp": "40410" }, "geometry": { "type": "Point", "coordinates": [ -0.877828, 44.319156 ] } },
{ "type": "Feature", "properties": { "gml_id": "ETABLISSEMENTS_POLLUEURS.11454", "identifiant": "0005207438", "idetab": "11454", "nom": "NATURA 2004 (SARL) - 'TUYAS'", "codeape": "3821Z", "cp": "40410" }, "geometry": { "type": "Point", "coordinates": [ -0.877828, 44.319156 ] } },
{ "type": "Feature", "properties": { "gml_id": "ETABLISSEMENTS_POLLUEURS.7680", "identifiant": "0005202026", "idetab": "7680", "nom": "ANTARCTIC FOODS AQUITAINE", "codeape": "1039A", "cp": "40160" }, "geometry": { "type": "Point", "coordinates": [ -0.94316, 44.32701 ] } },
{ "type": "Feature", "properties": { "gml_id": "ETABLISSEMENTS_POLLUEURS.10525", "identifiant": "0005208150", "idetab": "10525", "nom": "THEBAULT JEAN", "codeape": "1621Z", "cp": "40210" }, "geometry": { "type": "Point", "coordinates": [ -0.91671, 44.14558 ] } },
{ "type": "Feature", "properties": { "gml_id": "ETABLISSEMENTS_POLLUEURS.592989", "identifiant": "0054000543", "idetab": "592989", "nom": "SCEA CULTURE DE TUYAS", "codeape": "0111Z", "cp": "40210" }, "geometry": { "type": "Point", "coordinates": [ -0.93923, 44.26447 ] } },
{ "type": "Feature", "properties": { "gml_id": "ETABLISSEMENTS_POLLUEURS.589394", "identifiant": "0054000753", "idetab": "589394", "nom": "EARL LA BRUYERE", "codeape": "0112Z", "cp": "40410" }, "geometry": { "type": "Point", "coordinates": [ -0.777705, 44.308652 ] } },
{ "type": "Feature", "properties": { "gml_id": "ETABLISSEMENTS_POLLUEURS.591012", "identifiant": "0054000823", "idetab": "591012", "nom": "SASSO", "codeape": "0147Z", "cp": "40630" }, "geometry": { "type": "Point", "coordinates": [ -0.74498, 44.14878 ] } },
{ "type": "Feature", "properties": { "gml_id": "ETABLISSEMENTS_POLLUEURS.5913", "identifiant": "75640005", "idetab": "5913", "nom": "SAS ELEVAGE DES TUYAS", "codeape": "0146Z", "cp": "40120" }, "geometry": { "type": "Point", "coordinates": [ -0.981515, 44.239043 ] } },
{ "type": "Feature", "properties": { "gml_id": "ETABLISSEMENTS_POLLUEURS.588409", "identifiant": "0005208385", "idetab": "588409", "nom": "AUCHAN BIGANOS", "codeape": "4711F", "cp": "33380" }, "geometry": { "type": "Point", "coordinates": [ -0.982295, 44.644904 ] } },
{ "type": "Feature", "properties": { "gml_id": "ETABLISSEMENTS_POLLUEURS.598278", "identifiant": "0005208347", "idetab": "598278", "nom": "SMURFIT WESTROCK CELLULOSE DU PIN", "codeape": "1712Z", "cp": "33380" }, "geometry": { "type": "Point", "coordinates": [ -0.97918, 44.62909 ] } },
{ "type": "Feature", "properties": { "gml_id": "ETABLISSEMENTS_POLLUEURS.3947", "identifiant": "0005200420", "idetab": "3947", "nom": "SMURFIT WESTROCK CELLULOSE DU PIN", "codeape": "1712Z", "cp": "33380" }, "geometry": { "type": "Point", "coordinates": [ -0.97612, 44.62884 ] } },
{ "type": "Feature", "properties": { "gml_id": "ETABLISSEMENTS_POLLUEURS.11488", "identifiant": "0005208848", "idetab": "11488", "nom": "DALKIA", "codeape": "3530Z", "cp": "33380" }, "geometry": { "type": "Point", "coordinates": [ -0.96444, 44.63367 ] } },
{ "type": "Feature", "properties": { "gml_id": "ETABLISSEMENTS_POLLUEURS.590273", "identifiant": "0005200856", "idetab": "590273", "nom": "SCEA DOMAINE DE GALABEN", "codeape": "0146Z", "cp": "33138" }, "geometry": { "type": "Point", "coordinates": [ -0.93341, 44.7864 ] } },
{ "type": "Feature", "properties": { "gml_id": "ETABLISSEMENTS_POLLUEURS.11282", "identifiant": "0005208708", "idetab": "11282", "nom": "SUEZ ORGANIQUE", "codeape": "3821Z", "cp": "33980" }, "geometry": { "type": "Point", "coordinates": [ -0.92014, 44.71449 ] } },
{ "type": "Feature", "properties": { "gml_id": "ETABLISSEMENTS_POLLUEURS.594860", "identifiant": "0009073303", "idetab": "594860", "nom": "SOCIETE D'ASSAINISSEMENT ET DE GESTION DE L'ENVIRONNEMENT DU BASSIN D'ARCACHON", "codeape": "3700Z", "cp": "33380" }, "geometry": { "type": "Point", "coordinates": [ -0.98593, 44.62913 ] } },
{ "type": "Feature", "properties": { "gml_id": "ETABLISSEMENTS_POLLUEURS.9461", "identifiant": "0073305101", "idetab": "9461", "nom": "STEP - BIGANOS", "codeape": "3700Z", "cp": "33380" }, "geometry": { "type": "Point", "coordinates": [ -0.985354, 44.630163 ] } },
{ "type": "Feature", "properties": { "gml_id": "ETABLISSEMENTS_POLLUEURS.224", "identifiant": "0005201743", "idetab": "224", "nom": "INERTAM", "codeape": "3822Z", "cp": "40110" }, "geometry": { "type": "Point", "coordinates": [ -0.88025, 44.01123 ] } },
{ "type": "Feature", "properties": { "gml_id": "ETABLISSEMENTS_POLLUEURS.3963", "identifiant": "0005201748", "idetab": "3963", "nom": "FINSA FRANCE SAS", "codeape": "1621Z", "cp": "40110" }, "geometry": { "type": "Point", "coordinates": [ -0.88732, 44.01589 ] } },
{ "type": "Feature", "properties": { "gml_id": "ETABLISSEMENTS_POLLUEURS.13966", "identifiant": "0005208618", "idetab": "13966", "nom": "CHOPEX", "codeape": "3821Z", "cp": "40110" }, "geometry": { "type": "Point", "coordinates": [ -0.87931, 44.01075 ] } },
{ "type": "Feature", "properties": { "gml_id": "ETABLISSEMENTS_POLLUEURS.7582", "identifiant": "75640019", "idetab": "7582", "nom": "GRIMAUD FRÈRES CENTRE OPTION", "codeape": "0147Z", "cp": "40110" }, "geometry": { "type": "Point", "coordinates": [ -0.904845, 44.035469 ] } },
{ "type": "Feature", "properties": { "gml_id": "ETABLISSEMENTS_POLLUEURS.6122", "identifiant": "0005201262", "idetab": "6122", "nom": "ARIANEGROUP SAS", "codeape": "3030Z", "cp": "33166" }, "geometry": { "type": "Point", "coordinates": [ -0.77122, 44.89409 ] } },
{ "type": "Feature", "properties": { "gml_id": "ETABLISSEMENTS_POLLUEURS.6208", "identifiant": "0005206028", "idetab": "6208", "nom": "MONDELEZ FRANCE BISCUITS PRODUCTION SAS", "codeape": "1072Z", "cp": "33610" }, "geometry": { "type": "Point", "coordinates": [ -0.76754, 44.73766 ] } },
{ "type": "Feature", "properties": { "gml_id": "ETABLISSEMENTS_POLLUEURS.217", "identifiant": "0005201250", "idetab": "217", "nom": "ROXEL FRANCE", "codeape": "3030Z", "cp": "33167" }, "geometry": { "type": "Point", "coordinates": [ -0.73716, 44.88073 ] } },
{ "type": "Feature", "properties": { "gml_id": "ETABLISSEMENTS_POLLUEURS.218", "identifiant": "0005201261", "idetab": "218", "nom": "ARIANEGROUP SAS", "codeape": "2051Z", "cp": "33167" }, "geometry": { "type": "Point", "coordinates": [ -0.72869, 44.86644 ] } },
{ "type": "Feature", "properties": { "gml_id": "ETABLISSEMENTS_POLLUEURS.6117", "identifiant": "0005201076", "idetab": "6117", "nom": "ETABLISSEMENTS DECONS", "codeape": "3832Z", "cp": "33290" }, "geometry": { "type": "Point", "coordinates": [ -0.69922, 44.95098 ] } },
{ "type": "Feature", "properties": { "gml_id": "ETABLISSEMENTS_POLLUEURS.11484", "identifiant": "0005205294", "idetab": "11484", "nom": "STRYKER SPINE", "codeape": "3250A", "cp": "33610" }, "geometry": { "type": "Point", "coordinates": [ -0.68664, 44.75368 ] } },
{ "type": "Feature", "properties": { "gml_id": "ETABLISSEMENTS_POLLUEURS.6200", "identifiant": "0005205400", "idetab": "6200", "nom": "PAPREC D3E", "codeape": "3832Z", "cp": "33610" }, "geometry": { "type": "Point", "coordinates": [ -0.68664, 44.75368 ] } },
{ "type": "Feature", "properties": { "gml_id": "ETABLISSEMENTS_POLLUEURS.598204", "identifiant": "0003105140", "idetab": "598204", "nom": "SAFRAN ADDITIVE MANUFACTURING CAMPUS", "codeape": "7219Z", "cp": "33185" }, "geometry": { "type": "Point", "coordinates": [ -0.6814, 44.87264 ] } },
{ "type": "Feature", "properties": { "gml_id": "ETABLISSEMENTS_POLLUEURS.6105", "identifiant": "0005200808", "idetab": "6105", "nom": "THALES AVIONICS", "codeape": "2651A", "cp": "33187" }, "geometry": { "type": "Point", "coordinates": [ -0.678521, 44.873168 ] } },
{ "type": "Feature", "properties": { "gml_id": "ETABLISSEMENTS_POLLUEURS.10513", "identifiant": "0005204831", "idetab": "10513", "nom": "SARL PROUST AUTOMOBILE", "codeape": "4677Z", "cp": "33185" }, "geometry": { "type": "Point", "coordinates": [ -0.678521, 44.873168 ] } },
{ "type": "Feature", "properties": { "gml_id": "ETABLISSEMENTS_POLLUEURS.3953", "identifiant": "0005200998", "idetab": "3953", "nom": "MEDA MANUFACTURING", "codeape": "2120Z", "cp": "33700" }, "geometry": { "type": "Point", "coordinates": [ -0.67849, 44.83579 ] } },
{ "type": "Feature", "properties": { "gml_id": "ETABLISSEMENTS_POLLUEURS.12087", "identifiant": "0005201014", "idetab": "12087", "nom": "GUYENNE ENROBES", "codeape": "2399Z", "cp": "33700" }, "geometry": { "type": "Point", "coordinates": [ -0.67811, 44.84903 ] } },
{ "type": "Feature", "properties": { "gml_id": "ETABLISSEMENTS_POLLUEURS.6110", "identifiant": "0005201011", "idetab": "6110", "nom": "L ELECTROLYSE", "codeape": "2561Z", "cp": "33700" }, "geometry": { "type": "Point", "coordinates": [ -0.6757, 44.85245 ] } },
{ "type": "Feature", "properties": { "gml_id": "ETABLISSEMENTS_POLLUEURS.9590", "identifiant": "0005201009", "idetab": "9590", "nom": "AQUITAINE MATERIAUX ENROBES", "codeape": "2399Z", "cp": "33700" }, "geometry": { "type": "Point", "coordinates": [ -0.675623, 44.857825 ] } },
{ "type": "Feature", "properties": { "gml_id": "ETABLISSEMENTS_POLLUEURS.3955", "identifiant": "0005201012", "idetab": "3955", "nom": "JVCOATING", "codeape": "2561Z", "cp": "33700" }, "geometry": { "type": "Point", "coordinates": [ -0.67552, 44.85234 ] } },
{ "type": "Feature", "properties": { "gml_id": "ETABLISSEMENTS_POLLUEURS.6100", "identifiant": "0005200643", "idetab": "6100", "nom": "SOLECTRON", "codeape": "2612Z", "cp": "33612" }, "geometry": { "type": "Point", "coordinates": [ -0.67, 44.760002 ] } },
{ "type": "Feature", "properties": { "gml_id": "ETABLISSEMENTS_POLLUEURS.596821", "identifiant": "0005200744", "idetab": "596821", "nom": "DIATAN 2000", "codeape": "4677Z", "cp": "33320" }, "geometry": { "type": "Point", "coordinates": [ -0.66915, 44.89526 ] } },
{ "type": "Feature", "properties": { "gml_id": "ETABLISSEMENTS_POLLUEURS.6115", "identifiant": "0005201068", "idetab": "6115", "nom": "CENTRE HOSPITALIER UNIVERSITAIRE DE BORDEAUX", "codeape": "8610Z", "cp": "33600" }, "geometry": { "type": "Point", "coordinates": [ -0.66351, 44.7834 ] } },
{ "type": "Feature", "properties": { "gml_id": "ETABLISSEMENTS_POLLUEURS.6116", "identifiant": "0005201071", "idetab": "6116", "nom": "ZINQ", "codeape": "2561Z", "cp": "33610" }, "geometry": { "type": "Point", "coordinates": [ -0.661384, 44.777278 ] } },
{ "type": "Feature", "properties": { "gml_id": "ETABLISSEMENTS_POLLUEURS.3950", "identifiant": "0005200642", "idetab": "3950", "nom": "PRODEC METAL", "codeape": "2561Z", "cp": "33610" }, "geometry": { "type": "Point", "coordinates": [ -0.651748, 44.762213 ] } },
{ "type": "Feature", "properties": { "gml_id": "ETABLISSEMENTS_POLLUEURS.6108", "identifiant": "0005201005", "idetab": "6108", "nom": "FIRST METAL (EX AIRBORNE)", "codeape": "361C", "cp": "33700" }, "geometry": { "type": "Point", "coordinates": [ -0.646682, 44.832592 ] } },
{ "type": "Feature", "properties": { "gml_id": "ETABLISSEMENTS_POLLUEURS.6114", "identifiant": "0005201064", "idetab": "6114", "nom": "LA MONNAIE DE PARIS", "codeape": "3211Z", "cp": "33604" }, "geometry": { "type": "Point", "coordinates": [ -0.63872, 44.78089 ] } },
{ "type": "Feature", "properties": { "gml_id": "ETABLISSEMENTS_POLLUEURS.6093", "identifiant": "0005200447", "idetab": "6093", "nom": "BARDINET", "codeape": "1101Z", "cp": "33290" }, "geometry": { "type": "Point", "coordinates": [ -0.637295, 44.910065 ] } },
{ "type": "Feature", "properties": { "gml_id": "ETABLISSEMENTS_POLLUEURS.6094", "identifiant": "0005200451", "idetab": "6094", "nom": "LABSO CHIMIE FINE", "codeape": "2110Z", "cp": "33291" }, "geometry": { "type": "Point", "coordinates": [ -0.637295, 44.910065 ] } },
{ "type": "Feature", "properties": { "gml_id": "ETABLISSEMENTS_POLLUEURS.6112", "identifiant": "0005201046", "idetab": "6112", "nom": "POLIGRAT FRANCE", "codeape": "2561Z", "cp": "33600" }, "geometry": { "type": "Point", "coordinates": [ -0.629114, 44.806873 ] } },
{ "type": "Feature", "properties": { "gml_id": "ETABLISSEMENTS_POLLUEURS.6113", "identifiant": "0005201056", "idetab": "6113", "nom": "TEMEX CERAMICS", "codeape": "2611Z", "cp": "33600" }, "geometry": { "type": "Point", "coordinates": [ -0.629114, 44.806873 ] } },
{ "type": "Feature", "properties": { "gml_id": "ETABLISSEMENTS_POLLUEURS.12716", "identifiant": "0005206588", "idetab": "12716", "nom": "PERNAT SMJ", "codeape": "2562A", "cp": "33160" }, "geometry": { "type": "Point", "coordinates": [ -0.691841, 44.87936 ] } },
{ "type": "Feature", "properties": { "gml_id": "ETABLISSEMENTS_POLLUEURS.6220", "identifiant": "0005206793", "idetab": "6220", "nom": "SOCIETE LA GRANDE JAUGUE", "codeape": "3821Z", "cp": "33160" }, "geometry": { "type": "Point", "coordinates": [ -0.72868, 44.86109 ] } },
{ "type": "Feature", "properties": { "gml_id": "ETABLISSEMENTS_POLLUEURS.588403", "identifiant": "0005207820", "idetab": "588403", "nom": "DECONS AQUITAINE", "codeape": "3832Z", "cp": "33460" }, "geometry": { "type": "Point", "coordinates": [ -0.72372, 44.96816 ] } },
{ "type": "Feature", "properties": { "gml_id": "ETABLISSEMENTS_POLLUEURS.589522", "identifiant": "0005208110", "idetab": "589522", "nom": "MENART ET FILS", "codeape": "3832Z", "cp": "33700" }, "geometry": { "type": "Point", "coordinates": [ -0.67785, 44.84593 ] } },
{ "type": "Feature", "properties": { "gml_id": "ETABLISSEMENTS_POLLUEURS.591353", "identifiant": "0005208348", "idetab": "591353", "nom": "SUEZ RV SUD OUEST", "codeape": "3811Z", "cp": "33600" }, "geometry": { "type": "Point", "coordinates": [ -0.64693, 44.78357 ] } },
{ "type": "Feature", "properties": { "gml_id": "ETABLISSEMENTS_POLLUEURS.589525", "identifiant": "0005208455", "idetab": "589525", "nom": "SOCIETE DES COLORANTS DU SUD-OUEST", "codeape": "2030Z", "cp": "33700" }, "geometry": { "type": "Point", "coordinates": [ -0.67034, 44.83651 ] } },
{ "type": "Feature", "properties": { "gml_id": "ETABLISSEMENTS_POLLUEURS.594368", "identifiant": "0005209843", "idetab": "594368", "nom": "CARRIERES ET MATERIAUX DU GRAND OUEST", "codeape": "0812Z", "cp": "33700" }, "geometry": { "type": "Point", "coordinates": [ -0.74093, 44.83622 ] } },
{ "type": "Feature", "properties": { "gml_id": "ETABLISSEMENTS_POLLUEURS.588421", "identifiant": "0005211529", "idetab": "588421", "nom": "PROTECTION-DECORATION DES METAUX", "codeape": "2561Z", "cp": "33700" }, "geometry": { "type": "Point", "coordinates": [ -0.722997, 44.842427 ] } },
{ "type": "Feature", "properties": { "gml_id": "ETABLISSEMENTS_POLLUEURS.588444", "identifiant": "0005213881", "idetab": "588444", "nom": "IPF 33", "codeape": "4211Z", "cp": "33160" }, "geometry": { "type": "Point", "coordinates": [ -0.76306, 44.90029 ] } },
{ "type": "Feature", "properties": { "gml_id": "ETABLISSEMENTS_POLLUEURS.7113", "identifiant": "0009000020", "idetab": "7113", "nom": "BA 106 BORDEAUX-MÉRIGNAC", "codeape": "8422Z", "cp": "33700" }, "geometry": { "type": "Point", "coordinates": [ -0.71, 44.82082 ] } },
{ "type": "Feature", "properties": { "gml_id": "ETABLISSEMENTS_POLLUEURS.7119", "identifiant": "0009000026", "idetab": "7119", "nom": "BA 204 MÉRIGNAC BEAUSÉJOUR", "codeape": "8422Z", "cp": "33700" }, "geometry": { "type": "Point", "coordinates": [ -0.6282, 44.82683 ] } },
{ "type": "Feature", "properties": { "gml_id": "ETABLISSEMENTS_POLLUEURS.10269", "identifiant": "0009000134", "idetab": "10269", "nom": "DEA MÉRIGNAC", "codeape": "8422Z", "cp": "33693" }, "geometry": { "type": "Point", "coordinates": [ -0.646682, 44.832592 ] } },
{ "type": "Feature", "properties": { "gml_id": "ETABLISSEMENTS_POLLUEURS.589224", "identifiant": "0009000293", "idetab": "589224", "nom": "ARIANEGROUP SAS", "codeape": "3030Z", "cp": "33160" }, "geometry": { "type": "Point", "coordinates": [ -0.73716, 44.88073 ] } },
{ "type": "Feature", "properties": { "gml_id": "ETABLISSEMENTS_POLLUEURS.589913", "identifiant": "0009000322", "idetab": "589913", "nom": "GSBDD BMA / PÔLE DE MÉRIGNAC", "codeape": "8422Z", "cp": "33700" }, "geometry": { "type": "Point", "coordinates": [ -0.709425, 44.815527 ] } },
{ "type": "Feature", "properties": { "gml_id": "ETABLISSEMENTS_POLLUEURS.594990", "identifiant": "0009000361", "idetab": "594990", "nom": "DGA ESSAIS DE MISSILES - SITE GIRONDE", "codeape": "8422Z", "cp": "33160" }, "geometry": { "type": "Point", "coordinates": [ -0.7004, 44.883 ] } },
{ "type": "Feature", "properties": { "gml_id": "ETABLISSEMENTS_POLLUEURS.3252", "identifiant": "0009052100", "idetab": "3252", "nom": "DGA ESSAIS DE MISSILES - SITE GIRONDE", "codeape": "8422Z", "cp": "33166" }, "geometry": { "type": "Point", "coordinates": [ -0.713733, 44.894875 ] } },
{ "type": "Feature", "properties": { "gml_id": "ETABLISSEMENTS_POLLUEURS.5789", "identifiant": "75200393", "idetab": "5789", "nom": "DOMAINE DE POT AU PIN", "codeape": "0147Z", "cp": "33610" }, "geometry": { "type": "Point", "coordinates": [ -0.680093, 44.751509 ] } },
{ "type": "Feature", "properties": { "gml_id": "ETABLISSEMENTS_POLLUEURS.9611", "identifiant": "0005205784", "idetab": "9611", "nom": "MMT-B", "codeape": "2932Z", "cp": "33290" }, "geometry": { "type": "Point", "coordinates": [ -0.61763, 44.91996 ] } },
{ "type": "Feature", "properties": { "gml_id": "ETABLISSEMENTS_POLLUEURS.12184", "identifiant": "0005205965", "idetab": "12184", "nom": "CASTEL FRERES", "codeape": "4634Z", "cp": "33270" }, "geometry": { "type": "Point", "coordinates": [ -0.61519, 44.92452 ] } },
{ "type": "Feature", "properties": { "gml_id": "ETABLISSEMENTS_POLLUEURS.599161", "identifiant": "0003104411", "idetab": "599161", "nom": "NEXSTONE", "codeape": "5210B", "cp": "33290" }, "geometry": { "type": "Point", "coordinates": [ -0.60868, 44.92224 ] } },
{ "type": "Feature", "properties": { "gml_id": "ETABLISSEMENTS_POLLUEURS.8763", "identifiant": "0005200531", "idetab": "8763", "nom": "MAJ", "codeape": "7729Z", "cp": "33000" }, "geometry": { "type": "Point", "coordinates": [ -0.60835, 44.83466 ] } },
{ "type": "Feature", "properties": { "gml_id": "ETABLISSEMENTS_POLLUEURS.598499", "identifiant": "0005206304", "idetab": "598499", "nom": "KRESSMANN", "codeape": "4634Z", "cp": "33290" }, "geometry": { "type": "Point", "coordinates": [ -0.6077, 44.941576 ] } },
{ "type": "Feature", "properties": { "gml_id": "ETABLISSEMENTS_POLLUEURS.6206", "identifiant": "0005205711", "idetab": "6206", "nom": "FORD AQUITAINE INDUSTRIES", "codeape": "2932Z", "cp": "33290" }, "geometry": { "type": "Point", "coordinates": [ -0.607442, 44.913112 ] } },
{ "type": "Feature", "properties": { "gml_id": "ETABLISSEMENTS_POLLUEURS.10506", "identifiant": "0005201299", "idetab": "10506", "nom": "SARL FCA", "codeape": "3831Z", "cp": "33650" }, "geometry": { "type": "Point", "coordinates": [ -0.607355, 44.68033 ] } },
{ "type": "Feature", "properties": { "gml_id": "ETABLISSEMENTS_POLLUEURS.3948", "identifiant": "0005200446", "idetab": "3948", "nom": "UNIVAR SOLUTIONS", "codeape": "4675Z", "cp": "33290" }, "geometry": { "type": "Point", "coordinates": [ -0.606721, 44.927737 ] } },
{ "type": "Feature", "properties": { "gml_id": "ETABLISSEMENTS_POLLUEURS.7669", "identifiant": "0005200579", "idetab": "7669", "nom": "CENTRE HOSPITALIER UNIVERSITAIRE DE BORDEAUX", "codeape": "8610Z", "cp": "33000" }, "geometry": { "type": "Point", "coordinates": [ -0.60323, 44.83038 ] } },
{ "type": "Feature", "properties": { "gml_id": "ETABLISSEMENTS_POLLUEURS.12688", "identifiant": "0005200500", "idetab": "12688", "nom": "AUCHAN - BORDEAUX MÉRIADECK", "codeape": "4711F", "cp": "33000" }, "geometry": { "type": "Point", "coordinates": [ -0.584805, 44.839081 ] } },
{ "type": "Feature", "properties": { "gml_id": "ETABLISSEMENTS_POLLUEURS.591967", "identifiant": "0005200564", "idetab": "591967", "nom": "GRAND PARC ENERGIES", "codeape": "3530Z", "cp": "33000" }, "geometry": { "type": "Point", "coordinates": [ -0.58304, 44.86134 ] } },
{ "type": "Feature", "properties": { "gml_id": "ETABLISSEMENTS_POLLUEURS.6099", "identifiant": "0005200575", "idetab": "6099", "nom": "POLYCLINIQUE BORDEAUX NORD AQUITAINE", "codeape": "851A", "cp": "33000" }, "geometry": { "type": "Point", "coordinates": [ -0.578612, 44.863472 ] } },
{ "type": "Feature", "properties": { "gml_id": "ETABLISSEMENTS_POLLUEURS.13959", "identifiant": "0005206366", "idetab": "13959", "nom": "DECONS AQUITAINE", "codeape": "3832Z", "cp": "33000" }, "geometry": { "type": "Point", "coordinates": [ -0.57114, 44.84843 ] } },
{ "type": "Feature", "properties": { "gml_id": "ETABLISSEMENTS_POLLUEURS.211", "identifiant": "0005200592", "idetab": "211", "nom": "SAFT", "codeape": "2720Z", "cp": "33074" }, "geometry": { "type": "Point", "coordinates": [ -0.56978, 44.86862 ] } },
{ "type": "Feature", "properties": { "gml_id": "ETABLISSEMENTS_POLLUEURS.212", "identifiant": "0005200597", "idetab": "212", "nom": "LA CORNUBIA", "codeape": "241E", "cp": "33016" }, "geometry": { "type": "Point", "coordinates": [ -0.565636, 44.836661 ] } },
{ "type": "Feature", "properties": { "gml_id": "ETABLISSEMENTS_POLLUEURS.6160", "identifiant": "0005202251", "idetab": "6160", "nom": "SEVIA - SRRHU", "codeape": "3812Z", "cp": "33015" }, "geometry": { "type": "Point", "coordinates": [ -0.565636, 44.836661 ] } },
{ "type": "Feature", "properties": { "gml_id": "ETABLISSEMENTS_POLLUEURS.3949", "identifiant": "0005200590", "idetab": "3949", "nom": "LESIEUR", "codeape": "1041B", "cp": "33028" }, "geometry": { "type": "Point", "coordinates": [ -0.565636, 44.836661 ] } },
{ "type": "Feature", "properties": { "gml_id": "ETABLISSEMENTS_POLLUEURS.6098", "identifiant": "0005200571", "idetab": "6098", "nom": "RÉGIE DE L'ABATTOIR", "codeape": "1011Z", "cp": "33800" }, "geometry": { "type": "Point", "coordinates": [ -0.565636, 44.836661 ] } },
{ "type": "Feature", "properties": { "gml_id": "ETABLISSEMENTS_POLLUEURS.6097", "identifiant": "0005200570", "idetab": "6097", "nom": "CLINIQUE TIVOLI", "codeape": "851A", "cp": "33000" }, "geometry": { "type": "Point", "coordinates": [ -0.565636, 44.836661 ] } },
{ "type": "Feature", "properties": { "gml_id": "ETABLISSEMENTS_POLLUEURS.213", "identifiant": "0005200598", "idetab": "213", "nom": "SOFERTI BORDEAUX", "codeape": "241J", "cp": "33100" }, "geometry": { "type": "Point", "coordinates": [ -0.565636, 44.836661 ] } },
{ "type": "Feature", "properties": { "gml_id": "ETABLISSEMENTS_POLLUEURS.7668", "identifiant": "0005200554", "idetab": "7668", "nom": "EKEM S.A.", "codeape": "1623Z", "cp": "33100" }, "geometry": { "type": "Point", "coordinates": [ -0.565636, 44.836661 ] } },
{ "type": "Feature", "properties": { "gml_id": "ETABLISSEMENTS_POLLUEURS.8762", "identifiant": "0005200518", "idetab": "8762", "nom": "SEVIA", "codeape": "3812Z", "cp": "33015" }, "geometry": { "type": "Point", "coordinates": [ -0.565636, 44.836661 ] } },
{ "type": "Feature", "properties": { "gml_id": "ETABLISSEMENTS_POLLUEURS.6096", "identifiant": "0005200512", "idetab": "6096", "nom": "PACK2PACK AQUITAINE (EX : BLAGDEN PACKAGING)", "codeape": "285A", "cp": "33100" }, "geometry": { "type": "Point", "coordinates": [ -0.565636, 44.836661 ] } },
{ "type": "Feature", "properties": { "gml_id": "ETABLISSEMENTS_POLLUEURS.6095", "identifiant": "0005200469", "idetab": "6095", "nom": "SAPESO-BDX QUAI DE BRAZZA", "codeape": "1811Z", "cp": "33100" }, "geometry": { "type": "Point", "coordinates": [ -0.565636, 44.836661 ] } },
{ "type": "Feature", "properties": { "gml_id": "ETABLISSEMENTS_POLLUEURS.10504", "identifiant": "0005200560", "idetab": "10504", "nom": "SNCF VOYAGEURS", "codeape": "4910Z", "cp": "33800" }, "geometry": { "type": "Point", "coordinates": [ -0.56475, 44.81461 ] } },
{ "type": "Feature", "properties": { "gml_id": "ETABLISSEMENTS_POLLUEURS.12687", "identifiant": "0005200472", "idetab": "12687", "nom": "BORDEAUX METROPOLE", "codeape": "4931Z", "cp": "33000" }, "geometry": { "type": "Point", "coordinates": [ -0.562226, 44.875421 ] } },
{ "type": "Feature", "properties": { "gml_id": "ETABLISSEMENTS_POLLUEURS.10524", "identifiant": "0005207979", "idetab": "10524", "nom": "SUD OUEST AUTOMOBILE 33", "codeape": "4511Z", "cp": "33110" }, "geometry": { "type": "Point", "coordinates": [ -0.60787, 44.868287 ] } },
{ "type": "Feature", "properties": { "gml_id": "ETABLISSEMENTS_POLLUEURS.12728", "identifiant": "0005208167", "idetab": "12728", "nom": "KUEHNE+NAGEL", "codeape": "4941B", "cp": "33290" }, "geometry": { "type": "Point", "coordinates": [ -0.61529, 44.92121 ] } },
{ "type": "Feature", "properties": { "gml_id": "ETABLISSEMENTS_POLLUEURS.13964", "identifiant": "0005208195", "idetab": "13964", "nom": "AUCHAN FRANCE - BORDEAUX LAC", "codeape": "7010Z", "cp": "33000" }, "geometry": { "type": "Point", "coordinates": [ -0.571086, 44.852911 ] } },
{ "type": "Feature", "properties": { "gml_id": "ETABLISSEMENTS_POLLUEURS.12729", "identifiant": "0005208202", "idetab": "12729", "nom": "LAFARGE GRANULATS", "codeape": "0812Z", "cp": "33650" }, "geometry": { "type": "Point", "coordinates": [ -0.60674, 44.60783 ] } },
{ "type": "Feature", "properties": { "gml_id": "ETABLISSEMENTS_POLLUEURS.12736", "identifiant": "0005209548", "idetab": "12736", "nom": "BORDEAUX METROPOLE", "codeape": "4931Z", "cp": "33000" }, "geometry": { "type": "Point", "coordinates": [ -0.571086, 44.852911 ] } },
{ "type": "Feature", "properties": { "gml_id": "ETABLISSEMENTS_POLLUEURS.13967", "identifiant": "0005209791", "idetab": "13967", "nom": "LAFARGE GRANULATS", "codeape": "0812Z", "cp": "33650" }, "geometry": { "type": "Point", "coordinates": [ -0.58632, 44.60178 ] } },
{ "type": "Feature", "properties": { "gml_id": "ETABLISSEMENTS_POLLUEURS.590292", "identifiant": "0005211189", "idetab": "590292", "nom": "BORDEAUX METROPOLE", "codeape": "4931Z", "cp": "33000" }, "geometry": { "type": "Point", "coordinates": [ -0.564784, 44.879971 ] } },
{ "type": "Feature", "properties": { "gml_id": "ETABLISSEMENTS_POLLUEURS.12738", "identifiant": "0005211723", "idetab": "12738", "nom": "BORDEAUX METROPOLE", "codeape": "4931Z", "cp": "33100" }, "geometry": { "type": "Point", "coordinates": [ -0.55526, 44.850499 ] } },
{ "type": "Feature", "properties": { "gml_id": "ETABLISSEMENTS_POLLUEURS.596562", "identifiant": "0005212403", "idetab": "596562", "nom": "DECONS AQUITAINE", "codeape": "3832Z", "cp": "33000" }, "geometry": { "type": "Point", "coordinates": [ -0.55691, 44.87566 ] } },
{ "type": "Feature", "properties": { "gml_id": "ETABLISSEMENTS_POLLUEURS.595092", "identifiant": "0009073304", "idetab": "595092", "nom": "SOCIETE D ASSAINISSEMENT DE BORDEAUX METROPOLE", "codeape": "3700Z", "cp": "33000" }, "geometry": { "type": "Point", "coordinates": [ -0.56451, 44.86622 ] } },
{ "type": "Feature", "properties": { "gml_id": "ETABLISSEMENTS_POLLUEURS.9460", "identifiant": "0073303905", "idetab": "9460", "nom": "STEP - CLOS DE HILDE (BÉGLES)", "codeape": "3700Z", "cp": "33130" }, "geometry": { "type": "Point", "coordinates": [ -0.557005, 44.812163 ] } },
{ "type": "Feature", "properties": { "gml_id": "ETABLISSEMENTS_POLLUEURS.9462", "identifiant": "0073306303", "idetab": "9462", "nom": "STEP - LOUIS FARGUE (BORDEAUX)", "codeape": "3700Z", "cp": "33000" }, "geometry": { "type": "Point", "coordinates": [ -0.565636, 44.836661 ] } },
{ "type": "Feature", "properties": { "gml_id": "ETABLISSEMENTS_POLLUEURS.598133", "identifiant": "0005211455", "idetab": "598133", "nom": "SAFETY - KLEEN FRANCE", "codeape": "4669B", "cp": "33240" }, "geometry": { "type": "Point", "coordinates": [ -0.45334, 44.96575 ] } },
{ "type": "Feature", "properties": { "gml_id": "ETABLISSEMENTS_POLLUEURS.12689", "identifiant": "0005200725", "idetab": "12689", "nom": "PERNOD SA - CAVES CAFÉ DE PARIS", "codeape": "1104Z", "cp": "33240" }, "geometry": { "type": "Point", "coordinates": [ -0.453207, 44.971441 ] } },
{ "type": "Feature", "properties": { "gml_id": "ETABLISSEMENTS_POLLUEURS.10518", "identifiant": "0005207042", "idetab": "10518", "nom": "B T V A", "codeape": "4511Z", "cp": "33570" }, "geometry": { "type": "Point", "coordinates": [ -0.06015, 44.98616 ] } },
{ "type": "Feature", "properties": { "gml_id": "ETABLISSEMENTS_POLLUEURS.10505", "identifiant": "0005201132", "idetab": "10505", "nom": "AUTO PIECES SARL", "codeape": "4677Z", "cp": "33240" }, "geometry": { "type": "Point", "coordinates": [ -0.411541, 44.992634 ] } },
{ "type": "Feature", "properties": { "gml_id": "ETABLISSEMENTS_POLLUEURS.6128", "identifiant": "0005201378", "idetab": "6128", "nom": "FONDERIES ATELIERS DU BELIER", "codeape": "2453Z", "cp": "33240" }, "geometry": { "type": "Point", "coordinates": [ -0.35626, 44.99454 ] } },
{ "type": "Feature", "properties": { "gml_id": "ETABLISSEMENTS_POLLUEURS.589516", "identifiant": "0005205494", "idetab": "589516", "nom": "CENTRE DE TRAITEMENT DE MATIERES VINICOLES", "codeape": "3700Z", "cp": "33570" }, "geometry": { "type": "Point", "coordinates": [ -0.0969, 44.99539 ] } },
{ "type": "Feature", "properties": { "gml_id": "ETABLISSEMENTS_POLLUEURS.599192", "identifiant": "0003106862", "idetab": "599192", "nom": "SEPUR", "codeape": "3811Z", "cp": "33910" }, "geometry": { "type": "Point", "coordinates": [ -0.15741, 44.9984 ] } },
{ "type": "Feature", "properties": { "gml_id": "ETABLISSEMENTS_POLLUEURS.6086", "identifiant": "0005200263", "idetab": "6086", "nom": "COMPAGNIE BORDELAISE DES GAZ LIQUEFIES", "codeape": "8292Z", "cp": "33810" }, "geometry": { "type": "Point", "coordinates": [ -0.51589, 44.9998 ] } },
{ "type": "Feature", "properties": { "gml_id": "ETABLISSEMENTS_POLLUEURS.6087", "identifiant": "0005200265", "idetab": "6087", "nom": "LUCIEN BERNARD & CIE", "codeape": "1101Z", "cp": "33810" }, "geometry": { "type": "Point", "coordinates": [ -0.51589, 44.9998 ] } },
{ "type": "Feature", "properties": { "gml_id": "ETABLISSEMENTS_POLLUEURS.6146", "identifiant": "0005201940", "idetab": "6146", "nom": "BIOLANDES PIN DECOR", "codeape": "1629Z", "cp": "40420" }, "geometry": { "type": "Point", "coordinates": [ -0.50117, 44.12503 ] } },
{ "type": "Feature", "properties": { "gml_id": "ETABLISSEMENTS_POLLUEURS.230", "identifiant": "0005201939", "idetab": "230", "nom": "BIOLANDES", "codeape": "2053Z", "cp": "40420" }, "geometry": { "type": "Point", "coordinates": [ -0.50117, 44.12503 ] } },
{ "type": "Feature", "properties": { "gml_id": "ETABLISSEMENTS_POLLUEURS.591342", "identifiant": "0005201153", "idetab": "591342", "nom": "SA LE LAY", "codeape": "0146Z", "cp": "33113" }, "geometry": { "type": "Point", "coordinates": [ -0.53605, 44.37507 ] } },
{ "type": "Feature", "properties": { "gml_id": "ETABLISSEMENTS_POLLUEURS.12181", "identifiant": "0005200874", "idetab": "12181", "nom": "PESCAY AUTO RECUPERATION", "codeape": "4520A", "cp": "33210" }, "geometry": { "type": "Point", "coordinates": [ -0.36664, 44.511634 ] } },
{ "type": "Feature", "properties": { "gml_id": "ETABLISSEMENTS_POLLUEURS.12180", "identifiant": "0005200841", "idetab": "12180", "nom": "LES GRANDS CHAIS DE FRANCE", "codeape": "1102B", "cp": "33720" }, "geometry": { "type": "Point", "coordinates": [ -0.42634, 44.54687 ] } },
{ "type": "Feature", "properties": { "gml_id": "ETABLISSEMENTS_POLLUEURS.6089", "identifiant": "0005200317", "idetab": "6089", "nom": "CIRON", "codeape": "4675Z", "cp": "33720" }, "geometry": { "type": "Point", "coordinates": [ -0.31789, 44.58811 ] } },
{ "type": "Feature", "properties": { "gml_id": "ETABLISSEMENTS_POLLUEURS.589471", "identifiant": "0003103627", "idetab": "589471", "nom": "HEIDELBERG MATERIALS FRANCE GRANULATS", "codeape": "0812Z", "cp": "33720" }, "geometry": { "type": "Point", "coordinates": [ -0.3884, 44.63666 ] } },
{ "type": "Feature", "properties": { "gml_id": "ETABLISSEMENTS_POLLUEURS.8480", "identifiant": "0005201405", "idetab": "8480", "nom": "UCTOM LABREDE PODENSAC", "codeape": "3821Z", "cp": "33720" }, "geometry": { "type": "Point", "coordinates": [ -0.381665, 44.661345 ] } },
{ "type": "Feature", "properties": { "gml_id": "ETABLISSEMENTS_POLLUEURS.591344", "identifiant": "0005203811", "idetab": "591344", "nom": "NEXSTONE", "codeape": "0812Z", "cp": "33640" }, "geometry": { "type": "Point", "coordinates": [ -0.44533, 44.67854 ] } },
{ "type": "Feature", "properties": { "gml_id": "ETABLISSEMENTS_POLLUEURS.9591", "identifiant": "0005201242", "idetab": "9591", "nom": "ANETT UN", "codeape": "7729Z", "cp": "33650" }, "geometry": { "type": "Point", "coordinates": [ -0.50093, 44.6975 ] } },
{ "type": "Feature", "properties": { "gml_id": "ETABLISSEMENTS_POLLUEURS.6118", "identifiant": "0005201173", "idetab": "6118", "nom": "SAS DISTILLERIE DOUENCE", "codeape": "2014Z", "cp": "33670" }, "geometry": { "type": "Point", "coordinates": [ -0.38377, 44.74447 ] } },
{ "type": "Feature", "properties": { "gml_id": "ETABLISSEMENTS_POLLUEURS.595204", "identifiant": "0005205211", "idetab": "595204", "nom": "SICSOE", "codeape": "8292Z", "cp": "33360" }, "geometry": { "type": "Point", "coordinates": [ -0.43883, 44.76977 ] } },
{ "type": "Feature", "properties": { "gml_id": "ETABLISSEMENTS_POLLUEURS.9593", "identifiant": "0005201398", "idetab": "9593", "nom": "AFM RECYCLAGE", "codeape": "3832Z", "cp": "33140" }, "geometry": { "type": "Point", "coordinates": [ -0.52355, 44.77174 ] } },
{ "type": "Feature", "properties": { "gml_id": "ETABLISSEMENTS_POLLUEURS.6130", "identifiant": "0005201403", "idetab": "6130", "nom": "ATOMLAC SA", "codeape": "2030Z", "cp": "33883" }, "geometry": { "type": "Point", "coordinates": [ -0.527785, 44.772357 ] } },
{ "type": "Feature", "properties": { "gml_id": "ETABLISSEMENTS_POLLUEURS.6129", "identifiant": "0005201401", "idetab": "6129", "nom": "GAZECHIM", "codeape": "2011Z", "cp": "33140" }, "geometry": { "type": "Point", "coordinates": [ -0.5472, 44.77363 ] } },
{ "type": "Feature", "properties": { "gml_id": "ETABLISSEMENTS_POLLUEURS.599189", "identifiant": "0005204897", "idetab": "599189", "nom": "NEXSTONE", "codeape": "3832Z", "cp": "33140" }, "geometry": { "type": "Point", "coordinates": [ -0.51664, 44.77477 ] } },
{ "type": "Feature", "properties": { "gml_id": "ETABLISSEMENTS_POLLUEURS.251", "identifiant": "0005204847", "idetab": "251", "nom": "PLACOPLATRE", "codeape": "2223Z", "cp": "33670" }, "geometry": { "type": "Point", "coordinates": [ -0.411658, 44.78113 ] } },
{ "type": "Feature", "properties": { "gml_id": "ETABLISSEMENTS_POLLUEURS.215", "identifiant": "0005200869", "idetab": "215", "nom": "L ELECTROLYSE", "codeape": "2561Z", "cp": "33360" }, "geometry": { "type": "Point", "coordinates": [ -0.49887, 44.78382 ] } },
{ "type": "Feature", "properties": { "gml_id": "ETABLISSEMENTS_POLLUEURS.591341", "identifiant": "0005200373", "idetab": "591341", "nom": "SUEZ RV SUD OUEST", "codeape": "3811Z", "cp": "33130" }, "geometry": { "type": "Point", "coordinates": [ -0.53614, 44.78817 ] } },
{ "type": "Feature", "properties": { "gml_id": "ETABLISSEMENTS_POLLUEURS.595040", "identifiant": "0005200382", "idetab": "595040", "nom": "VEOLIA PROPRETE AQUITAINE", "codeape": "3832Z", "cp": "33323" }, "geometry": { "type": "Point", "coordinates": [ -0.52971, 44.79738 ] } },
{ "type": "Feature", "properties": { "gml_id": "ETABLISSEMENTS_POLLUEURS.210", "identifiant": "0005200378", "idetab": "210", "nom": "VALBOM", "codeape": "3832Z", "cp": "33130" }, "geometry": { "type": "Point", "coordinates": [ -0.52971, 44.79738 ] } },
{ "type": "Feature", "properties": { "gml_id": "ETABLISSEMENTS_POLLUEURS.3946", "identifiant": "0005200391", "idetab": "3946", "nom": "PAPETERIES DE BEGLES (SAPB)", "codeape": "1712Z", "cp": "33323" }, "geometry": { "type": "Point", "coordinates": [ -0.537615, 44.814365 ] } },
{ "type": "Feature", "properties": { "gml_id": "ETABLISSEMENTS_POLLUEURS.13947", "identifiant": "0005200601", "idetab": "13947", "nom": "DECONS AQUITAINE", "codeape": "3832Z", "cp": "33270" }, "geometry": { "type": "Point", "coordinates": [ -0.51585, 44.82038 ] } },
{ "type": "Feature", "properties": { "gml_id": "ETABLISSEMENTS_POLLUEURS.6104", "identifiant": "0005200751", "idetab": "6104", "nom": "LAFFORT HOLDING", "codeape": "2059Z", "cp": "33270" }, "geometry": { "type": "Point", "coordinates": [ -0.52954, 44.82141 ] } },
{ "type": "Feature", "properties": { "gml_id": "ETABLISSEMENTS_POLLUEURS.9589", "identifiant": "0005200768", "idetab": "9589", "nom": "BORDELAISE DE MATERIAUX ENROBES (BME)", "codeape": "2399Z", "cp": "33270" }, "geometry": { "type": "Point", "coordinates": [ -0.525308, 44.823842 ] } },
{ "type": "Feature", "properties": { "gml_id": "ETABLISSEMENTS_POLLUEURS.596772", "identifiant": "0005200595", "idetab": "596772", "nom": "GROUPE BERNARD", "codeape": "7010Z", "cp": "33800" }, "geometry": { "type": "Point", "coordinates": [ -0.54948, 44.82648 ] } },
{ "type": "Feature", "properties": { "gml_id": "ETABLISSEMENTS_POLLUEURS.3987", "identifiant": "0005204771", "idetab": "3987", "nom": "HAUTS DE GARONNE ENERGIES", "codeape": "3530Z", "cp": "33150" }, "geometry": { "type": "Point", "coordinates": [ -0.50707, 44.85131 ] } },
{ "type": "Feature", "properties": { "gml_id": "ETABLISSEMENTS_POLLUEURS.3951", "identifiant": "0005200678", "idetab": "3951", "nom": "VALBOM", "codeape": "3832Z", "cp": "33150" }, "geometry": { "type": "Point", "coordinates": [ -0.50707, 44.85131 ] } },
{ "type": "Feature", "properties": { "gml_id": "ETABLISSEMENTS_POLLUEURS.596840", "identifiant": "0003103402", "idetab": "596840", "nom": "PLAINE DE GARONNE ENERGIES", "codeape": "3530Z", "cp": "33100" }, "geometry": { "type": "Point", "coordinates": [ -0.55022, 44.85147 ] } },
{ "type": "Feature", "properties": { "gml_id": "ETABLISSEMENTS_POLLUEURS.6088", "identifiant": "0005200290", "idetab": "6088", "nom": "SOBODEC ARTIGUES SAS", "codeape": "7410Z", "cp": "33370" }, "geometry": { "type": "Point", "coordinates": [ -0.49544, 44.857312 ] } },
{ "type": "Feature", "properties": { "gml_id": "ETABLISSEMENTS_POLLUEURS.6107", "identifiant": "0005200914", "idetab": "6107", "nom": "MARIE BRIZARD WINE & SPIRITS FRANCE", "codeape": "4617B", "cp": "33305" }, "geometry": { "type": "Point", "coordinates": [ -0.53286, 44.86358 ] } },
{ "type": "Feature", "properties": { "gml_id": "ETABLISSEMENTS_POLLUEURS.8780", "identifiant": "0005205320", "idetab": "8780", "nom": "VALPLUS SA", "codeape": "3832Z", "cp": "33210" }, "geometry": { "type": "Point", "coordinates": [ -0.294702, 44.584541 ] } },
{ "type": "Feature", "properties": { "gml_id": "ETABLISSEMENTS_POLLUEURS.6197", "identifiant": "0005205324", "idetab": "6197", "nom": "SITE DE CERONS", "codeape": "2511Z", "cp": "33720" }, "geometry": { "type": "Point", "coordinates": [ -0.334043, 44.630952 ] } },
{ "type": "Feature", "properties": { "gml_id": "ETABLISSEMENTS_POLLUEURS.6209", "identifiant": "0005206068", "idetab": "6209", "nom": "POLE TECHNIQUE", "codeape": "8412Z", "cp": "33210" }, "geometry": { "type": "Point", "coordinates": [ -0.296138, 44.534349 ] } },
{ "type": "Feature", "properties": { "gml_id": "ETABLISSEMENTS_POLLUEURS.12185", "identifiant": "0005206140", "idetab": "12185", "nom": "AFM RECYCLAGE", "codeape": "3832Z", "cp": "33130" }, "geometry": { "type": "Point", "coordinates": [ -0.54381, 44.80066 ] } },
{ "type": "Feature", "properties": { "gml_id": "ETABLISSEMENTS_POLLUEURS.6211", "identifiant": "0005206208", "idetab": "6211", "nom": "SUEZ ORGANIQUE", "codeape": "3821Z", "cp": "33650" }, "geometry": { "type": "Point", "coordinates": [ -0.44895, 44.65076 ] } },
{ "type": "Feature", "properties": { "gml_id": "ETABLISSEMENTS_POLLUEURS.10515", "identifiant": "0005206239", "idetab": "10515", "nom": "GASCOGNE BOIS", "codeape": "1610A", "cp": "33113" }, "geometry": { "type": "Point", "coordinates": [ -0.525261, 44.383485 ] } },
{ "type": "Feature", "properties": { "gml_id": "ETABLISSEMENTS_POLLUEURS.6213", "identifiant": "0005206361", "idetab": "6213", "nom": "BRENNTAG SA", "codeape": "4675Z", "cp": "33000" }, "geometry": { "type": "Point", "coordinates": [ -0.54821, 44.83539 ] } },
{ "type": "Feature", "properties": { "gml_id": "ETABLISSEMENTS_POLLUEURS.6216", "identifiant": "0005206612", "idetab": "6216", "nom": "AUCHAN BOULIAC", "codeape": "4711F", "cp": "33270" }, "geometry": { "type": "Point", "coordinates": [ -0.504014, 44.808428 ] } },
{ "type": "Feature", "properties": { "gml_id": "ETABLISSEMENTS_POLLUEURS.6219", "identifiant": "0005206768", "idetab": "6219", "nom": "THERMYA", "codeape": "372Z", "cp": "33650" }, "geometry": { "type": "Point", "coordinates": [ -0.510147, 44.717792 ] } },
{ "type": "Feature", "properties": { "gml_id": "ETABLISSEMENTS_POLLUEURS.598894", "identifiant": "0005209114", "idetab": "598894", "nom": "CONSTRUCTION NAVALE BORDEAUX", "codeape": "3012Z", "cp": "33100" }, "geometry": { "type": "Point", "coordinates": [ -0.5393, 44.86439 ] } },
{ "type": "Feature", "properties": { "gml_id": "ETABLISSEMENTS_POLLUEURS.588412", "identifiant": "0005209133", "idetab": "588412", "nom": "NEXSTONE", "codeape": "0812Z", "cp": "33650" }, "geometry": { "type": "Point", "coordinates": [ -0.44258, 44.65531 ] } },
{ "type": "Feature", "properties": { "gml_id": "ETABLISSEMENTS_POLLUEURS.590300", "identifiant": "0005212645", "idetab": "590300", "nom": "KEOLIS BORDEAUX", "codeape": "7022Z", "cp": "33000" }, "geometry": { "type": "Point", "coordinates": [ -0.54798, 44.86914 ] } },
{ "type": "Feature", "properties": { "gml_id": "ETABLISSEMENTS_POLLUEURS.5419", "identifiant": "0009000006", "idetab": "5419", "nom": "ATELIER INDUSTRIEL DE L'AÉRONAUTIQUE DE BORDEAUX", "codeape": "3316Z", "cp": "33000" }, "geometry": { "type": "Point", "coordinates": [ -0.53802, 44.82716 ] } },
{ "type": "Feature", "properties": { "gml_id": "ETABLISSEMENTS_POLLUEURS.591643", "identifiant": "0009000351", "idetab": "591643", "nom": "BA118/CTC DE CAPTIEUX 09-330", "codeape": "8422Z", "cp": "40120" }, "geometry": { "type": "Point", "coordinates": [ -0.27537, 44.18534 ] } },
{ "type": "Feature", "properties": { "gml_id": "ETABLISSEMENTS_POLLUEURS.595093", "identifiant": "0009073302", "idetab": "595093", "nom": "SOCIETE D ASSAINISSEMENT DE BORDEAUX METROPOLE", "codeape": "3700Z", "cp": "33130" }, "geometry": { "type": "Point", "coordinates": [ -0.5313, 44.8007 ] } },
{ "type": "Feature", "properties": { "gml_id": "ETABLISSEMENTS_POLLUEURS.3795", "identifiant": "75200394", "idetab": "3795", "nom": "LE LAY SAS", "codeape": "0146Z", "cp": "33113" }, "geometry": { "type": "Point", "coordinates": [ -0.48595, 44.436502 ] } },
{ "type": "Feature", "properties": { "gml_id": "ETABLISSEMENTS_POLLUEURS.593806", "identifiant": "0005200355", "idetab": "593806", "nom": "SILO PORTUAIRE DE BORDEAUX LETIERCE", "codeape": "5210B", "cp": "33530" }, "geometry": { "type": "Point", "coordinates": [ -0.53114, 44.8976 ] } },
{ "type": "Feature", "properties": { "gml_id": "ETABLISSEMENTS_POLLUEURS.6193", "identifiant": "0005204940", "idetab": "6193", "nom": "SEOSSE ECO-TRANSFORMATION", "codeape": "3832Z", "cp": "33530" }, "geometry": { "type": "Point", "coordinates": [ -0.534606, 44.904355 ] } },
{ "type": "Feature", "properties": { "gml_id": "ETABLISSEMENTS_POLLUEURS.6091", "identifiant": "0005200357", "idetab": "6091", "nom": "LINDE FRANCE (EX LINDE GAS)", "codeape": "2211Z", "cp": "33530" }, "geometry": { "type": "Point", "coordinates": [ -0.534606, 44.904355 ] } },
{ "type": "Feature", "properties": { "gml_id": "ETABLISSEMENTS_POLLUEURS.3943", "identifiant": "0005200346", "idetab": "3943", "nom": "CEREXAGRI", "codeape": "2020Z", "cp": "33530" }, "geometry": { "type": "Point", "coordinates": [ -0.534606, 44.904355 ] } },
{ "type": "Feature", "properties": { "gml_id": "ETABLISSEMENTS_POLLUEURS.207", "identifiant": "0005200349", "idetab": "207", "nom": "SOLAE FRANCE", "codeape": "1061A", "cp": "33530" }, "geometry": { "type": "Point", "coordinates": [ -0.534606, 44.904355 ] } },
{ "type": "Feature", "properties": { "gml_id": "ETABLISSEMENTS_POLLUEURS.6090", "identifiant": "0005200333", "idetab": "6090", "nom": "CLEAN 33", "codeape": "8129B", "cp": "33530" }, "geometry": { "type": "Point", "coordinates": [ -0.52808, 44.90498 ] } },
{ "type": "Feature", "properties": { "gml_id": "ETABLISSEMENTS_POLLUEURS.219", "identifiant": "0005201375", "idetab": "219", "nom": "O-I FRANCE SAS", "codeape": "2313Z", "cp": "33870" }, "geometry": { "type": "Point", "coordinates": [ -0.33796, 44.90684 ] } },
{ "type": "Feature", "properties": { "gml_id": "ETABLISSEMENTS_POLLUEURS.6127", "identifiant": "0005201370", "idetab": "6127", "nom": "FRONERI VAYRES (EX R&R ICE CREAM)", "codeape": "1052Z", "cp": "33870" }, "geometry": { "type": "Point", "coordinates": [ -0.33991, 44.90718 ] } },
{ "type": "Feature", "properties": { "gml_id": "ETABLISSEMENTS_POLLUEURS.208", "identifiant": "0005200352", "idetab": "208", "nom": "PROCINER", "codeape": "3821Z", "cp": "33530" }, "geometry": { "type": "Point", "coordinates": [ -0.53213, 44.91052 ] } },
{ "type": "Feature", "properties": { "gml_id": "ETABLISSEMENTS_POLLUEURS.3945", "identifiant": "0005200361", "idetab": "3945", "nom": "SARP INDUSTRIES AQUITAINE PYRENEES", "codeape": "3822Z", "cp": "33530" }, "geometry": { "type": "Point", "coordinates": [ -0.53213, 44.91053 ] } },
{ "type": "Feature", "properties": { "gml_id": "ETABLISSEMENTS_POLLUEURS.252", "identifiant": "0005205111", "idetab": "252", "nom": "SETHELEC", "codeape": "3511Z", "cp": "33530" }, "geometry": { "type": "Point", "coordinates": [ -0.53644, 44.91122 ] } },
{ "type": "Feature", "properties": { "gml_id": "ETABLISSEMENTS_POLLUEURS.594243", "identifiant": "0005200350", "idetab": "594243", "nom": "SOC AQUITAINE SILO BORDEAUX BASSENS", "codeape": "6820B", "cp": "33530" }, "geometry": { "type": "Point", "coordinates": [ -0.53644, 44.91122 ] } },
{ "type": "Feature", "properties": { "gml_id": "ETABLISSEMENTS_POLLUEURS.591948", "identifiant": "0005200353", "idetab": "591948", "nom": "UNION INVIVO BASSENS (TERRE)", "codeape": "5210B", "cp": "33530" }, "geometry": { "type": "Point", "coordinates": [ -0.53644, 44.91122 ] } },
{ "type": "Feature", "properties": { "gml_id": "ETABLISSEMENTS_POLLUEURS.3944", "identifiant": "0005200351", "idetab": "3944", "nom": "SIMOREP ET CIE", "codeape": "2017Z", "cp": "33530" }, "geometry": { "type": "Point", "coordinates": [ -0.52135, 44.91249 ] } },
{ "type": "Feature", "properties": { "gml_id": "ETABLISSEMENTS_POLLUEURS.209", "identifiant": "0005200359", "idetab": "209", "nom": "SAIPOL", "codeape": "2059Z", "cp": "33530" }, "geometry": { "type": "Point", "coordinates": [ -0.53973, 44.91528 ] } },
{ "type": "Feature", "properties": { "gml_id": "ETABLISSEMENTS_POLLUEURS.9609", "identifiant": "0005205088", "idetab": "9609", "nom": "AFM RECYCLAGE", "codeape": "3832Z", "cp": "33450" }, "geometry": { "type": "Point", "coordinates": [ -0.37919, 44.91571 ] } },
{ "type": "Feature", "properties": { "gml_id": "ETABLISSEMENTS_POLLUEURS.12691", "identifiant": "0005201220", "idetab": "12691", "nom": "DHL SERVICES LOGISTIQUES", "codeape": "4646Z", "cp": "33450" }, "geometry": { "type": "Point", "coordinates": [ -0.45692, 44.9203 ] } },
{ "type": "Feature", "properties": { "gml_id": "ETABLISSEMENTS_POLLUEURS.3992", "identifiant": "0005205150", "idetab": "3992", "nom": "LES DOCKS DES PETROLES D AMBES", "codeape": "5210B", "cp": "33530" }, "geometry": { "type": "Point", "coordinates": [ -0.54058, 44.9205 ] } },
{ "type": "Feature", "properties": { "gml_id": "ETABLISSEMENTS_POLLUEURS.216", "identifiant": "0005201222", "idetab": "216", "nom": "ETEX FRANCE BUILDING PERFORMANCE", "codeape": "2362Z", "cp": "33450" }, "geometry": { "type": "Point", "coordinates": [ -0.45069, 44.92255 ] } },
{ "type": "Feature", "properties": { "gml_id": "ETABLISSEMENTS_POLLUEURS.3938", "identifiant": "0005200249", "idetab": "3938", "nom": "FORESA FRANCE", "codeape": "2016Z", "cp": "33440" }, "geometry": { "type": "Point", "coordinates": [ -0.52204, 44.92578 ] } },
{ "type": "Feature", "properties": { "gml_id": "ETABLISSEMENTS_POLLUEURS.204", "identifiant": "0005200251", "idetab": "204", "nom": "SANOFI WINTHROP INDUSTRIE", "codeape": "2120Z", "cp": "33440" }, "geometry": { "type": "Point", "coordinates": [ -0.47228, 44.9286 ] } },
{ "type": "Feature", "properties": { "gml_id": "ETABLISSEMENTS_POLLUEURS.8783", "identifiant": "0005206070", "idetab": "8783", "nom": "CC LES RIVES DE LA LAURENCE", "codeape": "3600Z", "cp": "33450" }, "geometry": { "type": "Point", "coordinates": [ -0.45919, 44.9293 ] } },
{ "type": "Feature", "properties": { "gml_id": "ETABLISSEMENTS_POLLUEURS.8488", "identifiant": "0005206238", "idetab": "8488", "nom": "SCI SELIMMO (POUR SOCOGEST) AMBARÈS", "codeape": "900B", "cp": "33440" }, "geometry": { "type": "Point", "coordinates": [ -0.485929, 44.924267 ] } },
{ "type": "Feature", "properties": { "gml_id": "ETABLISSEMENTS_POLLUEURS.589519", "identifiant": "0005207123", "idetab": "589519", "nom": "MAISON JOHANES BOUBEE", "codeape": "4634Z", "cp": "33750" }, "geometry": { "type": "Point", "coordinates": [ -0.36411, 44.88253 ] } },
{ "type": "Feature", "properties": { "gml_id": "ETABLISSEMENTS_POLLUEURS.587774", "identifiant": "0005207628", "idetab": "587774", "nom": "ENROBES DE GIRONDE", "codeape": "2399Z", "cp": "33530" }, "geometry": { "type": "Point", "coordinates": [ -0.52385, 44.9037 ] } },
{ "type": "Feature", "properties": { "gml_id": "ETABLISSEMENTS_POLLUEURS.598320", "identifiant": "0005208096", "idetab": "598320", "nom": "SAIPOL", "codeape": "2059Z", "cp": "33530" }, "geometry": { "type": "Point", "coordinates": [ -0.53338, 44.91585 ] } },
{ "type": "Feature", "properties": { "gml_id": "ETABLISSEMENTS_POLLUEURS.599188", "identifiant": "0005211061", "idetab": "599188", "nom": "NEXSTONE", "codeape": "0812Z", "cp": "33530" }, "geometry": { "type": "Point", "coordinates": [ -0.53583, 44.92244 ] } },
{ "type": "Feature", "properties": { "gml_id": "ETABLISSEMENTS_POLLUEURS.590293", "identifiant": "0005211494", "idetab": "590293", "nom": "AFM RECYCLAGE", "codeape": "3832Z", "cp": "33530" }, "geometry": { "type": "Point", "coordinates": [ -0.53213, 44.91052 ] } },
{ "type": "Feature", "properties": { "gml_id": "ETABLISSEMENTS_POLLUEURS.597403", "identifiant": "0005213380", "idetab": "597403", "nom": "SX ENVIRONNEMENT", "codeape": "3811Z", "cp": "33560" }, "geometry": { "type": "Point", "coordinates": [ -0.481199, 44.898567 ] } },
{ "type": "Feature", "properties": { "gml_id": "ETABLISSEMENTS_POLLUEURS.588442", "identifiant": "0005213879", "idetab": "588442", "nom": "SCG SABLE CALCAIRE GRANULATS", "codeape": "4673A", "cp": "33127" }, "geometry": { "type": "Point", "coordinates": [ -0.44976, 44.92997 ] } },
{ "type": "Feature", "properties": { "gml_id": "ETABLISSEMENTS_POLLUEURS.589542", "identifiant": "0005213885", "idetab": "589542", "nom": "BROCHARD MATÉRIAUX - ISDI", "codeape": "4673A", "cp": "33440" }, "geometry": { "type": "Point", "coordinates": [ -0.46605, 44.937604 ] } },
{ "type": "Feature", "properties": { "gml_id": "ETABLISSEMENTS_POLLUEURS.7193", "identifiant": "0009000122", "idetab": "7193", "nom": "3E RMAT DETACHEMENT DE VAYRES", "codeape": "3317Z", "cp": "33870" }, "geometry": { "type": "Point", "coordinates": [ -0.33495, 44.90765 ] } },
{ "type": "Feature", "properties": { "gml_id": "ETABLISSEMENTS_POLLUEURS.594993", "identifiant": "0009073301", "idetab": "594993", "nom": "SOCIETE D ASSAINISSEMENT DE BORDEAUX METROPOLE", "codeape": "3700Z", "cp": "33440" }, "geometry": { "type": "Point", "coordinates": [ -0.50201, 44.92839 ] } },
{ "type": "Feature", "properties": { "gml_id": "ETABLISSEMENTS_POLLUEURS.10423", "identifiant": "0073300305", "idetab": "10423", "nom": "STEP SABAREGES", "codeape": "3700Z", "cp": "33440" }, "geometry": { "type": "Point", "coordinates": [ -0.485929, 44.924267 ] } },
{ "type": "Feature", "properties": { "gml_id": "ETABLISSEMENTS_POLLUEURS.229", "identifiant": "0005201930", "idetab": "229", "nom": "ZINQ LANDES", "codeape": "2561Z", "cp": "40120" }, "geometry": { "type": "Point", "coordinates": [ -0.35175, 44.01006 ] } },
{ "type": "Feature", "properties": { "gml_id": "ETABLISSEMENTS_POLLUEURS.591302", "identifiant": "0003102037", "idetab": "591302", "nom": "DÉCHÈTERIE D'ARUE", "codeape": "3811Z", "cp": "40120" }, "geometry": { "type": "Point", "coordinates": [ -0.300361, 44.056504 ] } },
{ "type": "Feature", "properties": { "gml_id": "ETABLISSEMENTS_POLLUEURS.594411", "identifiant": "0005213224", "idetab": "594411", "nom": "AQUALIA", "codeape": "7010Z", "cp": "40120" }, "geometry": { "type": "Point", "coordinates": [ -0.30935, 44.05653 ] } },
{ "type": "Feature", "properties": { "gml_id": "ETABLISSEMENTS_POLLUEURS.590144", "identifiant": "0054000962", "idetab": "590144", "nom": "CAILLOR SAS", "codeape": "1012Z", "cp": "40120" }, "geometry": { "type": "Point", "coordinates": [ -0.312055, 44.019697 ] } },
{ "type": "Feature", "properties": { "gml_id": "ETABLISSEMENTS_POLLUEURS.590145", "identifiant": "0054000963", "idetab": "590145", "nom": "AQUALANDE", "codeape": "1020Z", "cp": "40120" }, "geometry": { "type": "Point", "coordinates": [ -0.31606, 44.0378 ] } },
{ "type": "Feature", "properties": { "gml_id": "ETABLISSEMENTS_POLLUEURS.592897", "identifiant": "0005207731", "idetab": "592897", "nom": "GIPORC", "codeape": "0146Z", "cp": "33127" }, "geometry": { "type": "Point", "coordinates": [ -0.86359, 44.79277 ] } },
{ "type": "Feature", "properties": { "gml_id": "ETABLISSEMENTS_POLLUEURS.589508", "identifiant": "0005204029", "idetab": "589508", "nom": "SOC D EXPLOITATION DE SABLES ET MINERAUX", "codeape": "2399Z", "cp": "33380" }, "geometry": { "type": "Point", "coordinates": [ -0.84244, 44.69071 ] } },
{ "type": "Feature", "properties": { "gml_id": "ETABLISSEMENTS_POLLUEURS.590286", "identifiant": "0005206341", "idetab": "590286", "nom": "SABLIERE DE SAINT JEAN D'ILLAC", "codeape": "0812Z", "cp": "33127" }, "geometry": { "type": "Point", "coordinates": [ -0.840529, 44.820184 ] } },
{ "type": "Feature", "properties": { "gml_id": "ETABLISSEMENTS_POLLUEURS.8766", "identifiant": "0005201295", "idetab": "8766", "nom": "PGS BEYNEL", "codeape": "1610A", "cp": "33770" }, "geometry": { "type": "Point", "coordinates": [ -0.82895, 44.53107 ] } },
{ "type": "Feature", "properties": { "gml_id": "ETABLISSEMENTS_POLLUEURS.589526", "identifiant": "0005208701", "idetab": "589526", "nom": "SIBELCO FRANCE", "codeape": "0812Z", "cp": "33380" }, "geometry": { "type": "Point", "coordinates": [ -0.82748, 44.65502 ] } },
{ "type": "Feature", "properties": { "gml_id": "ETABLISSEMENTS_POLLUEURS.590302", "identifiant": "0005213847", "idetab": "590302", "nom": "CARRIERES ET MATERIAUX DU GRAND OUEST", "codeape": "0812Z", "cp": "33127" }, "geometry": { "type": "Point", "coordinates": [ -0.79739, 44.84382 ] } },
{ "type": "Feature", "properties": { "gml_id": "ETABLISSEMENTS_POLLUEURS.594360", "identifiant": "0005212662", "idetab": "594360", "nom": "CARRIERES ET MATERIAUX DU GRAND OUEST", "codeape": "0812Z", "cp": "33830" }, "geometry": { "type": "Point", "coordinates": [ -0.7921, 44.55191 ] } },
{ "type": "Feature", "properties": { "gml_id": "ETABLISSEMENTS_POLLUEURS.589235", "identifiant": "0009000305", "idetab": "589235", "nom": "13 RDP", "codeape": "8422Z", "cp": "33127" }, "geometry": { "type": "Point", "coordinates": [ -0.79076, 44.85739 ] } },
{ "type": "Feature", "properties": { "gml_id": "ETABLISSEMENTS_POLLUEURS.12188", "identifiant": "0005208090", "idetab": "12188", "nom": "DBP AQUITAINE", "codeape": "2561Z", "cp": "33114" }, "geometry": { "type": "Point", "coordinates": [ -0.787295, 44.620685 ] } },
{ "type": "Feature", "properties": { "gml_id": "ETABLISSEMENTS_POLLUEURS.596372", "identifiant": "0005209361", "idetab": "596372", "nom": "SOCIETE LA GRANDE JAUGUE", "codeape": "3821Z", "cp": "33160" }, "geometry": { "type": "Point", "coordinates": [ -0.78336, 44.8972 ] } },
{ "type": "Feature", "properties": { "gml_id": "ETABLISSEMENTS_POLLUEURS.6120", "identifiant": "0005201188", "idetab": "6120", "nom": "SMURFIT KAPPA LEMBACEL", "codeape": "212C", "cp": "33127" }, "geometry": { "type": "Point", "coordinates": [ -0.780149, 44.811504 ] } },
{ "type": "Feature", "properties": { "gml_id": "ETABLISSEMENTS_POLLUEURS.591301", "identifiant": "0003100819", "idetab": "591301", "nom": "BIOCENTRE DU SUD-OUEST", "codeape": "3900Z", "cp": "33127" }, "geometry": { "type": "Point", "coordinates": [ -0.77773, 44.78578 ] } },
{ "type": "Feature", "properties": { "gml_id": "ETABLISSEMENTS_POLLUEURS.590231", "identifiant": "0003102589", "idetab": "590231", "nom": "POLYPROCESS", "codeape": "2016Z", "cp": "33127" }, "geometry": { "type": "Point", "coordinates": [ -0.77745, 44.78487 ] } },
{ "type": "Feature", "properties": { "gml_id": "ETABLISSEMENTS_POLLUEURS.591362", "identifiant": "0005213680", "idetab": "591362", "nom": "SCG (SABLE CALCAIRE GRANULATS) - ISDI", "codeape": "4673A", "cp": "33127" }, "geometry": { "type": "Point", "coordinates": [ -0.775888, 44.840132 ] } },
{ "type": "Feature", "properties": { "gml_id": "ETABLISSEMENTS_POLLUEURS.588441", "identifiant": "0005213875", "idetab": "588441", "nom": "FABRIMACO - ISDI", "codeape": "0812Z", "cp": "33127" }, "geometry": { "type": "Point", "coordinates": [ -0.775888, 44.840132 ] } },
{ "type": "Feature", "properties": { "gml_id": "ETABLISSEMENTS_POLLUEURS.598832", "identifiant": "0005201190", "idetab": "598832", "nom": "EXPLOITATIONS FORESTIERES BARILLET", "codeape": "0220Z", "cp": "33127" }, "geometry": { "type": "Point", "coordinates": [ -0.77555, 44.79448 ] } },
{ "type": "Feature", "properties": { "gml_id": "ETABLISSEMENTS_POLLUEURS.6119", "identifiant": "0005201183", "idetab": "6119", "nom": "PENA ENVIRONNEMENT", "codeape": "3832Z", "cp": "33127" }, "geometry": { "type": "Point", "coordinates": [ -0.76843, 44.7697 ] } },
{ "type": "Feature", "properties": { "gml_id": "ETABLISSEMENTS_POLLUEURS.588193", "identifiant": "0009000275", "idetab": "588193", "nom": "AIA BORDEAUX", "codeape": "3316Z", "cp": "33610" }, "geometry": { "type": "Point", "coordinates": [ -0.76753, 44.70172 ] } },
{ "type": "Feature", "properties": { "gml_id": "ETABLISSEMENTS_POLLUEURS.6101", "identifiant": "0005200682", "idetab": "6101", "nom": "VEOLIA AGRICULTURE FRANCE", "codeape": "3700Z", "cp": "33610" }, "geometry": { "type": "Point", "coordinates": [ -0.7611, 44.69929 ] } },
{ "type": "Feature", "properties": { "gml_id": "ETABLISSEMENTS_POLLUEURS.590272", "identifiant": "0005200691", "idetab": "590272", "nom": "SOCIETE DES COLORANTS DU SUD-OUEST", "codeape": "2030Z", "cp": "33610" }, "geometry": { "type": "Point", "coordinates": [ -0.7597, 44.73252 ] } },
{ "type": "Feature", "properties": { "gml_id": "ETABLISSEMENTS_POLLUEURS.590288", "identifiant": "0005207663", "idetab": "590288", "nom": "SCI PARCOLOG BORDEAUX CESTAS", "codeape": "6820B", "cp": "33610" }, "geometry": { "type": "Point", "coordinates": [ -0.74939, 44.71917 ] } },
{ "type": "Feature", "properties": { "gml_id": "ETABLISSEMENTS_POLLUEURS.590283", "identifiant": "0005206023", "idetab": "590283", "nom": "CARRIERES ET MATERIAUX DU GRAND OUEST", "codeape": "0812Z", "cp": "33830" }, "geometry": { "type": "Point", "coordinates": [ -0.74891, 44.5151 ] } },
{ "type": "Feature", "properties": { "gml_id": "ETABLISSEMENTS_POLLUEURS.7672", "identifiant": "0005201004", "idetab": "7672", "nom": "PENA METAUX SA", "codeape": "3832Z", "cp": "33700" }, "geometry": { "type": "Point", "coordinates": [ -0.72646, 44.80983 ] } },
{ "type": "Feature", "properties": { "gml_id": "ETABLISSEMENTS_POLLUEURS.6102", "identifiant": "0005200707", "idetab": "6102", "nom": "STOCKMEIER FRANCE", "codeape": "4675Z", "cp": "33610" }, "geometry": { "type": "Point", "coordinates": [ -0.71822, 44.76719 ] } },
{ "type": "Feature", "properties": { "gml_id": "ETABLISSEMENTS_POLLUEURS.6109", "identifiant": "0005201008", "idetab": "6109", "nom": "SABENA TECHNICS BOD", "codeape": "3316Z", "cp": "33700" }, "geometry": { "type": "Point", "coordinates": [ -0.71718, 44.84054 ] } },
{ "type": "Feature", "properties": { "gml_id": "ETABLISSEMENTS_POLLUEURS.214", "identifiant": "0005200812", "idetab": "214", "nom": "ARIANEGROUP SAS", "codeape": "3030Z", "cp": "33185" }, "geometry": { "type": "Point", "coordinates": [ -0.69971, 44.86091 ] } },
{ "type": "Feature", "properties": { "gml_id": "ETABLISSEMENTS_POLLUEURS.3954", "identifiant": "0005201010", "idetab": "3954", "nom": "DASSAULT AVIATION", "codeape": "3030Z", "cp": "33700" }, "geometry": { "type": "Point", "coordinates": [ -0.69289, 44.84703 ] } },
{ "type": "Feature", "properties": { "gml_id": "ETABLISSEMENTS_POLLUEURS.590274", "identifiant": "0005200989", "idetab": "590274", "nom": "AFM RECYCLAGE", "codeape": "3832Z", "cp": "33700" }, "geometry": { "type": "Point", "coordinates": [ -0.68995, 44.84768 ] } },
{ "type": "Feature", "properties": { "gml_id": "ETABLISSEMENTS_POLLUEURS.7670", "identifiant": "0005200708", "idetab": "7670", "nom": "SUCRE D'AQUITAINE", "codeape": "631E", "cp": "33610" }, "geometry": { "type": "Point", "coordinates": [ -0.684779, 44.743158 ] } },
{ "type": "Feature", "properties": { "gml_id": "ETABLISSEMENTS_POLLUEURS.592532", "identifiant": "0009000362", "idetab": "592532", "nom": "DGA EM SAINT-JEAN-D'ILLIAC", "codeape": "8422Z", "cp": "33127" }, "geometry": { "type": "Point", "coordinates": [ -0.79522, 44.81327 ] } },
{ "type": "Feature", "properties": { "gml_id": "ETABLISSEMENTS_POLLUEURS.9508", "identifiant": "75633001", "idetab": "9508", "nom": "SA GIPORC", "codeape": "0146Z", "cp": "33127" }, "geometry": { "type": "Point", "coordinates": [ -0.775471, 44.819859 ] } },
{ "type": "Feature", "properties": { "gml_id": "ETABLISSEMENTS_POLLUEURS.8764", "identifiant": "0005200854", "idetab": "8764", "nom": "SOLEM", "codeape": "1920Z", "cp": "33210" }, "geometry": { "type": "Point", "coordinates": [ -0.269267, 44.547158 ] } },
{ "type": "Feature", "properties": { "gml_id": "ETABLISSEMENTS_POLLUEURS.6126", "identifiant": "0005201361", "idetab": "6126", "nom": "GLI SERVICES (EX CITERGAZ)", "codeape": "2599B", "cp": "33210" }, "geometry": { "type": "Point", "coordinates": [ -0.271508, 44.556866 ] } },
{ "type": "Feature", "properties": { "gml_id": "ETABLISSEMENTS_POLLUEURS.13952", "identifiant": "0005203716", "idetab": "13952", "nom": "LAFARGE GRANULATS", "codeape": "0812Z", "cp": "33190" }, "geometry": { "type": "Point", "coordinates": [ -0.04473, 44.56259 ] } },
{ "type": "Feature", "properties": { "gml_id": "ETABLISSEMENTS_POLLUEURS.7673", "identifiant": "0005201116", "idetab": "7673", "nom": "DUBOURG AUTOMOBILES", "codeape": "3832Z", "cp": "33420" }, "geometry": { "type": "Point", "coordinates": [ -0.11953, 44.77006 ] } },
{ "type": "Feature", "properties": { "gml_id": "ETABLISSEMENTS_POLLUEURS.589507", "identifiant": "0005203683", "idetab": "589507", "nom": "SARL LES PIERRES DE FRONTENAC", "codeape": "0811Z", "cp": "33420" }, "geometry": { "type": "Point", "coordinates": [ -0.156489, 44.788937 ] } },
{ "type": "Feature", "properties": { "gml_id": "ETABLISSEMENTS_POLLUEURS.592657", "identifiant": "0005201382", "idetab": "592657", "nom": "SAS DISTILLERIE DOUENCE", "codeape": "2014Z", "cp": "33330" }, "geometry": { "type": "Point", "coordinates": [ -0.15696, 44.84456 ] } },
{ "type": "Feature", "properties": { "gml_id": "ETABLISSEMENTS_POLLUEURS.588386", "identifiant": "0005201164", "idetab": "588386", "nom": "CENTRE DE RECUPERATION DU LIBOURNAIS", "codeape": "3832Z", "cp": "33330" }, "geometry": { "type": "Point", "coordinates": [ -0.155133, 44.895796 ] } },
{ "type": "Feature", "properties": { "gml_id": "ETABLISSEMENTS_POLLUEURS.6106", "identifiant": "0005200898", "idetab": "6106", "nom": "HOPITAL ROBERT BOULIN", "codeape": "8610Z", "cp": "33505" }, "geometry": { "type": "Point", "coordinates": [ -0.242156, 44.91862 ] } },
{ "type": "Feature", "properties": { "gml_id": "ETABLISSEMENTS_POLLUEURS.3932", "identifiant": "0005200001", "idetab": "3932", "nom": "SFCME", "codeape": "2712Z", "cp": "33500" }, "geometry": { "type": "Point", "coordinates": [ -0.242156, 44.91862 ] } },
{ "type": "Feature", "properties": { "gml_id": "ETABLISSEMENTS_POLLUEURS.12690", "identifiant": "0005201182", "idetab": "12690", "nom": "CARRIÈRE DES BILLAUX", "codeape": "0812Z", "cp": "33500" }, "geometry": { "type": "Point", "coordinates": [ -0.237873, 44.951812 ] } },
{ "type": "Feature", "properties": { "gml_id": "ETABLISSEMENTS_POLLUEURS.591350", "identifiant": "0005206235", "idetab": "591350", "nom": "GIE DE CHANTEMERLE", "codeape": "8299Z", "cp": "33420" }, "geometry": { "type": "Point", "coordinates": [ -0.11727, 44.78087 ] } },
{ "type": "Feature", "properties": { "gml_id": "ETABLISSEMENTS_POLLUEURS.6212", "identifiant": "0005206306", "idetab": "6212", "nom": "BOUYER LEROUX STRUCTURE", "codeape": "2332Z", "cp": "33190" }, "geometry": { "type": "Point", "coordinates": [ -0.09479, 44.59984 ] } },
{ "type": "Feature", "properties": { "gml_id": "ETABLISSEMENTS_POLLUEURS.590287", "identifiant": "0005207384", "idetab": "590287", "nom": "HOPITAL DE GARDEROSE", "codeape": "8610Z", "cp": "33505" }, "geometry": { "type": "Point", "coordinates": [ -0.242156, 44.91862 ] } },
{ "type": "Feature", "properties": { "gml_id": "ETABLISSEMENTS_POLLUEURS.12722", "identifiant": "0005207735", "idetab": "12722", "nom": "YVON MAU", "codeape": "4634Z", "cp": "33190" }, "geometry": { "type": "Point", "coordinates": [ -0.088816, 44.585079 ] } },
{ "type": "Feature", "properties": { "gml_id": "ETABLISSEMENTS_POLLUEURS.9618", "identifiant": "0005207966", "idetab": "9618", "nom": "VALPLUS", "codeape": "3832Z", "cp": "33210" }, "geometry": { "type": "Point", "coordinates": [ -0.2666, 44.53973 ] } },
{ "type": "Feature", "properties": { "gml_id": "ETABLISSEMENTS_POLLUEURS.595855", "identifiant": "0005208004", "idetab": "595855", "nom": "LAFARGE GRANULATS", "codeape": "0812Z", "cp": "33500" }, "geometry": { "type": "Point", "coordinates": [ -0.24681, 44.95436 ] } },
{ "type": "Feature", "properties": { "gml_id": "ETABLISSEMENTS_POLLUEURS.12727", "identifiant": "0005208091", "idetab": "12727", "nom": "CHRISTIAN SALVESEN - GROUPE NORBERT DENTRESSANGLE", "codeape": "5210A", "cp": "33210" }, "geometry": { "type": "Point", "coordinates": [ -0.250883, 44.556364 ] } },
{ "type": "Feature", "properties": { "gml_id": "ETABLISSEMENTS_POLLUEURS.589524", "identifiant": "0005208343", "idetab": "589524", "nom": "TEREGA", "codeape": "4950Z", "cp": "33540" }, "geometry": { "type": "Point", "coordinates": [ -0.06685, 44.69166 ] } },
{ "type": "Feature", "properties": { "gml_id": "ETABLISSEMENTS_POLLUEURS.588423", "identifiant": "0005211625", "idetab": "588423", "nom": "JUGAZAN ENVIRONNEMENT SERVICES", "codeape": "3900Z", "cp": "33420" }, "geometry": { "type": "Point", "coordinates": [ -0.16039, 44.78762 ] } },
{ "type": "Feature", "properties": { "gml_id": "ETABLISSEMENTS_POLLUEURS.589541", "identifiant": "0005213872", "idetab": "589541", "nom": "JML BATIMENTS - ISDI", "codeape": "4120A", "cp": "33190" }, "geometry": { "type": "Point", "coordinates": [ -0.032525, 44.546929 ] } },
{ "type": "Feature", "properties": { "gml_id": "ETABLISSEMENTS_POLLUEURS.588446", "identifiant": "0005213898", "idetab": "588446", "nom": "JUGAZAN ENVIRONNEMENT SERVICES", "codeape": "0811Z", "cp": "33420" }, "geometry": { "type": "Point", "coordinates": [ -0.153893, 44.788884 ] } },
{ "type": "Feature", "properties": { "gml_id": "ETABLISSEMENTS_POLLUEURS.7667", "identifiant": "0005200406", "idetab": "7667", "nom": "SAICA PACK FRANCE", "codeape": "1721A", "cp": "33430" }, "geometry": { "type": "Point", "coordinates": [ -0.24243, 44.3726 ] } },
{ "type": "Feature", "properties": { "gml_id": "ETABLISSEMENTS_POLLUEURS.12186", "identifiant": "0005206758", "idetab": "12186", "nom": "LDC AQUITAINE", "codeape": "1012Z", "cp": "33430" }, "geometry": { "type": "Point", "coordinates": [ -0.236, 44.436 ] } },
{ "type": "Feature", "properties": { "gml_id": "ETABLISSEMENTS_POLLUEURS.6092", "identifiant": "0005200366", "idetab": "6092", "nom": "FONMARTY ET FILS SAS", "codeape": "1623Z", "cp": "33430" }, "geometry": { "type": "Point", "coordinates": [ -0.212525, 44.43328 ] } },
{ "type": "Feature", "properties": { "gml_id": "ETABLISSEMENTS_POLLUEURS.5715", "identifiant": "33036002", "idetab": "5715", "nom": "LDC AQUITAINE", "codeape": "1012Z", "cp": "33430" }, "geometry": { "type": "Point", "coordinates": [ -0.203475, 44.439511 ] } },
{ "type": "Feature", "properties": { "gml_id": "ETABLISSEMENTS_POLLUEURS.592990", "identifiant": "0054000149", "idetab": "592990", "nom": "NURSY LAND", "codeape": "0146Z", "cp": "40120" }, "geometry": { "type": "Point", "coordinates": [ -0.19626, 44.17202 ] } },
{ "type": "Feature", "properties": { "gml_id": "ETABLISSEMENTS_POLLUEURS.253", "identifiant": "0005205205", "idetab": "253", "nom": "STATION DE COMPRESSION D'AUROS", "codeape": "4950Z", "cp": "33124" }, "geometry": { "type": "Point", "coordinates": [ -0.147846, 44.495614 ] } },
{ "type": "Feature", "properties": { "gml_id": "ETABLISSEMENTS_POLLUEURS.6123", "identifiant": "0005201263", "idetab": "6123", "nom": "HEXAFORM", "codeape": "1721B", "cp": "33840" }, "geometry": { "type": "Point", "coordinates": [ -0.13212, 44.288346 ] } },
{ "type": "Feature", "properties": { "gml_id": "ETABLISSEMENTS_POLLUEURS.591767", "identifiant": "0054000530", "idetab": "591767", "nom": "LOSSE VOLAILLES DES LANDES", "codeape": "1012Z", "cp": "40240" }, "geometry": { "type": "Point", "coordinates": [ -0.095, 44.125 ] } },
{ "type": "Feature", "properties": { "gml_id": "ETABLISSEMENTS_POLLUEURS.595032", "identifiant": "0003100059", "idetab": "595032", "nom": "FAYAT ENTREPRISE TP", "codeape": "4221Z", "cp": "33190" }, "geometry": { "type": "Point", "coordinates": [ -0.03434, 44.51452 ] } },
{ "type": "Feature", "properties": { "gml_id": "ETABLISSEMENTS_POLLUEURS.8482", "identifiant": "0005202285", "idetab": "8482", "nom": "DUMONA FRANCE S.A. -SAUMÉJEAN", "codeape": "103Z", "cp": "47420" }, "geometry": { "type": "Point", "coordinates": [ -0.002991, 44.235393 ] } },
{ "type": "Feature", "properties": { "gml_id": "ETABLISSEMENTS_POLLUEURS.7579", "identifiant": "75640006", "idetab": "7579", "nom": "NURSYLAND", "codeape": "", "cp": "40120" }, "geometry": { "type": "Point", "coordinates": [ -0.245528, 44.133836 ] } }
]
}
