{
"type": "FeatureCollection",
"name": "ms:ETABLISSEMENTS_POLLUEURS",
"crs": { "type": "name", "properties": { "name": "urn:ogc:def:crs:OGC:1.3:CRS84" } },
"features": [
{ "type": "Feature", "properties": { "gml_id": "ETABLISSEMENTS_POLLUEURS.589718", "identifiant": "0006300805", "idetab": "589718", "nom": "CARRIERES MOUSSET", "codeape": "0812Z", "cp": "85500" }, "geometry": { "type": "Point", "coordinates": [ -0.97568, 46.84459 ] } },
{ "type": "Feature", "properties": { "gml_id": "ETABLISSEMENTS_POLLUEURS.4727", "identifiant": "0006302382", "idetab": "4727", "nom": "BOUYER LEROUX", "codeape": "2332Z", "cp": "85570" }, "geometry": { "type": "Point", "coordinates": [ -0.90546, 46.53799 ] } },
{ "type": "Feature", "properties": { "gml_id": "ETABLISSEMENTS_POLLUEURS.6697", "identifiant": "0006301539", "idetab": "6697", "nom": "SOLITOP", "codeape": "3822Z", "cp": "85410" }, "geometry": { "type": "Point", "coordinates": [ -0.8905, 46.589724 ] } },
{ "type": "Feature", "properties": { "gml_id": "ETABLISSEMENTS_POLLUEURS.588909", "identifiant": "0006308035", "idetab": "588909", "nom": "SYNDICAT MIXTE ETUDES POUR COORDINATION DEPARTEMENTALE DE TRAITEMENT DECHETS MENAGERS DE VENDEE", "codeape": "3821Z", "cp": "85390" }, "geometry": { "type": "Point", "coordinates": [ -0.87548, 46.47055 ] } },
{ "type": "Feature", "properties": { "gml_id": "ETABLISSEMENTS_POLLUEURS.9037", "identifiant": "0006301546", "idetab": "9037", "nom": "SOLITOP", "codeape": "3822Z", "cp": "85410" }, "geometry": { "type": "Point", "coordinates": [ -0.86686, 46.56933 ] } },
{ "type": "Feature", "properties": { "gml_id": "ETABLISSEMENTS_POLLUEURS.1981", "identifiant": "0006301084", "idetab": "1981", "nom": "FLEURY MICHON LS", "codeape": "1085Z", "cp": "85390" }, "geometry": { "type": "Point", "coordinates": [ -0.8496, 46.67783 ] } },
{ "type": "Feature", "properties": { "gml_id": "ETABLISSEMENTS_POLLUEURS.596387", "identifiant": "0006307355", "idetab": "596387", "nom": "EARL THIBAUD FLORIAN", "codeape": "0147Z", "cp": "85200" }, "geometry": { "type": "Point", "coordinates": [ -0.81996, 46.42298 ] } },
{ "type": "Feature", "properties": { "gml_id": "ETABLISSEMENTS_POLLUEURS.4739", "identifiant": "0006302840", "idetab": "4739", "nom": "ADAPA FRANCE FONTENAY LE COMTE", "codeape": "2222Z", "cp": "85200" }, "geometry": { "type": "Point", "coordinates": [ -0.80863, 46.44971 ] } },
{ "type": "Feature", "properties": { "gml_id": "ETABLISSEMENTS_POLLUEURS.7921", "identifiant": "0006301182", "idetab": "7921", "nom": "PLYSOROL INTERNATIONAL", "codeape": "1621Z", "cp": "85200" }, "geometry": { "type": "Point", "coordinates": [ -0.808105, 46.466909 ] } },
{ "type": "Feature", "properties": { "gml_id": "ETABLISSEMENTS_POLLUEURS.4643", "identifiant": "0006301065", "idetab": "4643", "nom": "SOCIÉTÉ VENDÉENNE DE ROULEMENTS", "codeape": "2815Z", "cp": "85200" }, "geometry": { "type": "Point", "coordinates": [ -0.808105, 46.466909 ] } },
{ "type": "Feature", "properties": { "gml_id": "ETABLISSEMENTS_POLLUEURS.2117", "identifiant": "0006302253", "idetab": "2117", "nom": "BISCUITS CANTREAU S.A.", "codeape": "1072Z", "cp": "85206" }, "geometry": { "type": "Point", "coordinates": [ -0.807927, 46.447477 ] } },
{ "type": "Feature", "properties": { "gml_id": "ETABLISSEMENTS_POLLUEURS.594908", "identifiant": "0006306310", "idetab": "594908", "nom": "BISCOTTE PASQUIER", "codeape": "1072Z", "cp": "85201" }, "geometry": { "type": "Point", "coordinates": [ -0.7983, 46.45142 ] } },
{ "type": "Feature", "properties": { "gml_id": "ETABLISSEMENTS_POLLUEURS.14206", "identifiant": "0006304471", "idetab": "14206", "nom": "CAMBOUI RECYCL'AUTO", "codeape": "4677Z", "cp": "85200" }, "geometry": { "type": "Point", "coordinates": [ -0.79428, 46.45105 ] } },
{ "type": "Feature", "properties": { "gml_id": "ETABLISSEMENTS_POLLUEURS.4660", "identifiant": "0006301173", "idetab": "4660", "nom": "SAS TROUILLET 85", "codeape": "2920Z", "cp": "85200" }, "geometry": { "type": "Point", "coordinates": [ -0.7872, 46.45739 ] } },
{ "type": "Feature", "properties": { "gml_id": "ETABLISSEMENTS_POLLUEURS.14180", "identifiant": "0006301047", "idetab": "14180", "nom": "CARRIERES ET MATERIAUX DU GRAND OUEST", "codeape": "0812Z", "cp": "85120" }, "geometry": { "type": "Point", "coordinates": [ -0.78397, 46.60658 ] } },
{ "type": "Feature", "properties": { "gml_id": "ETABLISSEMENTS_POLLUEURS.14187", "identifiant": "0006301554", "idetab": "14187", "nom": "BCV TECHNOLOGIES", "codeape": "2711Z", "cp": "85200" }, "geometry": { "type": "Point", "coordinates": [ -0.78392, 46.45508 ] } },
{ "type": "Feature", "properties": { "gml_id": "ETABLISSEMENTS_POLLUEURS.591501", "identifiant": "0006308034", "idetab": "591501", "nom": "ASSAINISSEMENT BODIN", "codeape": "3700Z", "cp": "85200" }, "geometry": { "type": "Point", "coordinates": [ -0.77991, 46.4598 ] } },
{ "type": "Feature", "properties": { "gml_id": "ETABLISSEMENTS_POLLUEURS.597984", "identifiant": "0006311908", "idetab": "597984", "nom": "SUD VENDEE RECYCLAGE", "codeape": "3832Z", "cp": "85200" }, "geometry": { "type": "Point", "coordinates": [ -0.77626, 46.45706 ] } },
{ "type": "Feature", "properties": { "gml_id": "ETABLISSEMENTS_POLLUEURS.4651", "identifiant": "0006301138", "idetab": "4651", "nom": "ORTEC SERVICES ENVIRONNEMENT", "codeape": "3822Z", "cp": "85200" }, "geometry": { "type": "Point", "coordinates": [ -0.76992, 46.45195 ] } },
{ "type": "Feature", "properties": { "gml_id": "ETABLISSEMENTS_POLLUEURS.1940", "identifiant": "0006300935", "idetab": "1940", "nom": "SOLEVAL", "codeape": "3832Z", "cp": "85120" }, "geometry": { "type": "Point", "coordinates": [ -0.73971, 46.649954 ] } },
{ "type": "Feature", "properties": { "gml_id": "ETABLISSEMENTS_POLLUEURS.2017", "identifiant": "0006301257", "idetab": "2017", "nom": "CHARAL LA CHATAÎGNERAIE (85)", "codeape": "1011Z", "cp": "85120" }, "geometry": { "type": "Point", "coordinates": [ -0.73971, 46.649954 ] } },
{ "type": "Feature", "properties": { "gml_id": "ETABLISSEMENTS_POLLUEURS.4726", "identifiant": "0006302376", "idetab": "4726", "nom": "COUTURE SAS", "codeape": "361G", "cp": "85120" }, "geometry": { "type": "Point", "coordinates": [ -0.73971, 46.649954 ] } },
{ "type": "Feature", "properties": { "gml_id": "ETABLISSEMENTS_POLLUEURS.11373", "identifiant": "0006303036", "idetab": "11373", "nom": "CARRIERES KLEBER MOREAU", "codeape": "0812Z", "cp": "85200" }, "geometry": { "type": "Point", "coordinates": [ -0.72647, 46.50307 ] } },
{ "type": "Feature", "properties": { "gml_id": "ETABLISSEMENTS_POLLUEURS.597675", "identifiant": "0006309503", "idetab": "597675", "nom": "LIMOGES", "codeape": "0147Z", "cp": "85240" }, "geometry": { "type": "Point", "coordinates": [ -0.68702, 46.43847 ] } },
{ "type": "Feature", "properties": { "gml_id": "ETABLISSEMENTS_POLLUEURS.8552", "identifiant": "0006302969", "idetab": "8552", "nom": "TRIVALIS - UTOM DE FOUSSAIS", "codeape": "3821Z", "cp": "85240" }, "geometry": { "type": "Point", "coordinates": [ -0.683391, 46.530408 ] } },
{ "type": "Feature", "properties": { "gml_id": "ETABLISSEMENTS_POLLUEURS.12118", "identifiant": "0006302605", "idetab": "12118", "nom": "VENDEE RECUPERATION", "codeape": "3831Z", "cp": "85420" }, "geometry": { "type": "Point", "coordinates": [ -0.677728, 46.408153 ] } },
{ "type": "Feature", "properties": { "gml_id": "ETABLISSEMENTS_POLLUEURS.588910", "identifiant": "0006308036", "idetab": "588910", "nom": "SARL CHARRIER", "codeape": "7732Z", "cp": "85240" }, "geometry": { "type": "Point", "coordinates": [ -0.66394, 46.56308 ] } },
{ "type": "Feature", "properties": { "gml_id": "ETABLISSEMENTS_POLLUEURS.588911", "identifiant": "0006308038", "idetab": "588911", "nom": "SARL CHARRIER", "codeape": "7732Z", "cp": "85240" }, "geometry": { "type": "Point", "coordinates": [ -0.65065, 46.55974 ] } },
{ "type": "Feature", "properties": { "gml_id": "ETABLISSEMENTS_POLLUEURS.590465", "identifiant": "0006306745", "idetab": "590465", "nom": "JC BOUY SAS", "codeape": "2562B", "cp": "85120" }, "geometry": { "type": "Point", "coordinates": [ -0.649815, 46.590121 ] } },
{ "type": "Feature", "properties": { "gml_id": "ETABLISSEMENTS_POLLUEURS.595874", "identifiant": "0003102010", "idetab": "595874", "nom": "GATARD", "codeape": "0147Z", "cp": "79380" }, "geometry": { "type": "Point", "coordinates": [ -0.63006, 46.74542 ] } },
{ "type": "Feature", "properties": { "gml_id": "ETABLISSEMENTS_POLLUEURS.595255", "identifiant": "0058500087", "idetab": "595255", "nom": "GAEC LA LIGONNIERE", "codeape": "0147Z", "cp": "85120" }, "geometry": { "type": "Point", "coordinates": [ -0.77166, 46.60078 ] } },
{ "type": "Feature", "properties": { "gml_id": "ETABLISSEMENTS_POLLUEURS.596006", "identifiant": "0058500603", "idetab": "596006", "nom": "LE SOMMET", "codeape": "0141Z", "cp": "85410" }, "geometry": { "type": "Point", "coordinates": [ -0.8188, 46.58908 ] } },
{ "type": "Feature", "properties": { "gml_id": "ETABLISSEMENTS_POLLUEURS.595865", "identifiant": "0058501335", "idetab": "595865", "nom": "EARL LA PLUME", "codeape": "0149Z", "cp": "85200" }, "geometry": { "type": "Point", "coordinates": [ -0.74808, 46.43246 ] } },
{ "type": "Feature", "properties": { "gml_id": "ETABLISSEMENTS_POLLUEURS.588314", "identifiant": "0058501660", "idetab": "588314", "nom": "INCINERIS", "codeape": "3832Z", "cp": "85570" }, "geometry": { "type": "Point", "coordinates": [ -0.89831, 46.51285 ] } },
{ "type": "Feature", "properties": { "gml_id": "ETABLISSEMENTS_POLLUEURS.595955", "identifiant": "0058501752", "idetab": "595955", "nom": "EARL LA GABAUGE", "codeape": "0147Z", "cp": "85370" }, "geometry": { "type": "Point", "coordinates": [ -0.944045, 46.428412 ] } },
{ "type": "Feature", "properties": { "gml_id": "ETABLISSEMENTS_POLLUEURS.593475", "identifiant": "0058501868", "idetab": "593475", "nom": "LE GRAND CHEMIN", "codeape": "0147Z", "cp": "85570" }, "geometry": { "type": "Point", "coordinates": [ -0.845, 46.5235 ] } },
{ "type": "Feature", "properties": { "gml_id": "ETABLISSEMENTS_POLLUEURS.599307", "identifiant": "0058502352", "idetab": "599307", "nom": "EARL LES VOLIERES", "codeape": "0147Z", "cp": "85240" }, "geometry": { "type": "Point", "coordinates": [ -0.69269, 46.5822 ] } },
{ "type": "Feature", "properties": { "gml_id": "ETABLISSEMENTS_POLLUEURS.597782", "identifiant": "0058502975", "idetab": "597782", "nom": "BONNEAU", "codeape": "0147Z", "cp": "85120" }, "geometry": { "type": "Point", "coordinates": [ -0.64768, 46.59484 ] } },
{ "type": "Feature", "properties": { "gml_id": "ETABLISSEMENTS_POLLUEURS.591929", "identifiant": "0058503201", "idetab": "591929", "nom": "GAEC LE MANOIR", "codeape": "0141Z", "cp": "85120" }, "geometry": { "type": "Point", "coordinates": [ -0.7105, 46.58224 ] } },
{ "type": "Feature", "properties": { "gml_id": "ETABLISSEMENTS_POLLUEURS.598386", "identifiant": "0058503828", "idetab": "598386", "nom": "LA CAMBUSE", "codeape": "0150Z", "cp": "85240" }, "geometry": { "type": "Point", "coordinates": [ -0.72275, 46.43908 ] } },
{ "type": "Feature", "properties": { "gml_id": "ETABLISSEMENTS_POLLUEURS.595779", "identifiant": "0058503829", "idetab": "595779", "nom": "LE SAINT VINCENT", "codeape": "0150Z", "cp": "85240" }, "geometry": { "type": "Point", "coordinates": [ -0.69891, 46.44971 ] } },
{ "type": "Feature", "properties": { "gml_id": "ETABLISSEMENTS_POLLUEURS.598101", "identifiant": "0100000464", "idetab": "598101", "nom": "PICOTY OUEST", "codeape": "4671Z", "cp": "85200" }, "geometry": { "type": "Point", "coordinates": [ -0.80152, 46.4517 ] } },
{ "type": "Feature", "properties": { "gml_id": "ETABLISSEMENTS_POLLUEURS.599279", "identifiant": "0100023351", "idetab": "599279", "nom": "LES PLUMES PEROTINES", "codeape": "0147Z", "cp": "85770" }, "geometry": { "type": "Point", "coordinates": [ -0.92748, 46.40783 ] } },
{ "type": "Feature", "properties": { "gml_id": "ETABLISSEMENTS_POLLUEURS.3693", "identifiant": "75200001", "idetab": "3693", "nom": "EARL LA DEVAUDIERE", "codeape": "012G", "cp": "85410" }, "geometry": { "type": "Point", "coordinates": [ -0.814022, 46.597958 ] } },
{ "type": "Feature", "properties": { "gml_id": "ETABLISSEMENTS_POLLUEURS.3694", "identifiant": "75200002", "idetab": "3694", "nom": "EARL ROY MICHEL", "codeape": "0147Z", "cp": "85570" }, "geometry": { "type": "Point", "coordinates": [ -0.877374, 46.546196 ] } },
{ "type": "Feature", "properties": { "gml_id": "ETABLISSEMENTS_POLLUEURS.7604", "identifiant": "75850205", "idetab": "7604", "nom": "EARL ROY", "codeape": "012G", "cp": "85570" }, "geometry": { "type": "Point", "coordinates": [ -0.877374, 46.546196 ] } },
{ "type": "Feature", "properties": { "gml_id": "ETABLISSEMENTS_POLLUEURS.13283", "identifiant": "0007201780", "idetab": "13283", "nom": "STOCKMEIER FRANCE", "codeape": "4675Z", "cp": "79000" }, "geometry": { "type": "Point", "coordinates": [ -0.50062, 46.31462 ] } },
{ "type": "Feature", "properties": { "gml_id": "ETABLISSEMENTS_POLLUEURS.7063", "identifiant": "0007202566", "idetab": "7063", "nom": "SOCIETE D'ELECTROLYSE DU CENTRE OUEST - S.E.C.O. -", "codeape": "2561Z", "cp": "79000" }, "geometry": { "type": "Point", "coordinates": [ -0.4951, 46.31561 ] } },
{ "type": "Feature", "properties": { "gml_id": "ETABLISSEMENTS_POLLUEURS.8131", "identifiant": "0007201447", "idetab": "8131", "nom": "POUJOULAT", "codeape": "2420Z", "cp": "79270" }, "geometry": { "type": "Point", "coordinates": [ -0.48166, 46.2623 ] } },
{ "type": "Feature", "properties": { "gml_id": "ETABLISSEMENTS_POLLUEURS.13281", "identifiant": "0007201199", "idetab": "13281", "nom": "ORTEC SERVICES ENVIRONNEMENT", "codeape": "3822Z", "cp": "79000" }, "geometry": { "type": "Point", "coordinates": [ -0.47002, 46.31373 ] } },
{ "type": "Feature", "properties": { "gml_id": "ETABLISSEMENTS_POLLUEURS.10226", "identifiant": "0007201407", "idetab": "10226", "nom": "SEVIA NIORT", "codeape": "3832Z", "cp": "79000" }, "geometry": { "type": "Point", "coordinates": [ -0.465642, 46.32085 ] } },
{ "type": "Feature", "properties": { "gml_id": "ETABLISSEMENTS_POLLUEURS.8141", "identifiant": "0007202015", "idetab": "8141", "nom": "ENO SAS", "codeape": "2752Z", "cp": "79000" }, "geometry": { "type": "Point", "coordinates": [ -0.465642, 46.32085 ] } },
{ "type": "Feature", "properties": { "gml_id": "ETABLISSEMENTS_POLLUEURS.591623", "identifiant": "0007202493", "idetab": "591623", "nom": "SUEZ RV SUD OUEST", "codeape": "3832Z", "cp": "79000" }, "geometry": { "type": "Point", "coordinates": [ -0.46202, 46.30571 ] } },
{ "type": "Feature", "properties": { "gml_id": "ETABLISSEMENTS_POLLUEURS.5326", "identifiant": "0007201097", "idetab": "5326", "nom": "KRATON CHEMICAL SAS", "codeape": "2016Z", "cp": "79000" }, "geometry": { "type": "Point", "coordinates": [ -0.46018, 46.30003 ] } },
{ "type": "Feature", "properties": { "gml_id": "ETABLISSEMENTS_POLLUEURS.8147", "identifiant": "0007202515", "idetab": "8147", "nom": "GENEVE OCCASION", "codeape": "4511Z", "cp": "79000" }, "geometry": { "type": "Point", "coordinates": [ -0.46004, 46.30442 ] } },
{ "type": "Feature", "properties": { "gml_id": "ETABLISSEMENTS_POLLUEURS.7045", "identifiant": "0007201484", "idetab": "7045", "nom": "ROUVREAU RECYCLAGE", "codeape": "3832Z", "cp": "79000" }, "geometry": { "type": "Point", "coordinates": [ -0.46, 46.3037 ] } },
{ "type": "Feature", "properties": { "gml_id": "ETABLISSEMENTS_POLLUEURS.5358", "identifiant": "0007201660", "idetab": "5358", "nom": "FDL", "codeape": "4634Z", "cp": "79230" }, "geometry": { "type": "Point", "coordinates": [ -0.37152, 46.2687 ] } },
{ "type": "Feature", "properties": { "gml_id": "ETABLISSEMENTS_POLLUEURS.9252", "identifiant": "0007205862", "idetab": "9252", "nom": "KUEHNE+NAGEL", "codeape": "5210B", "cp": "79230" }, "geometry": { "type": "Point", "coordinates": [ -0.37225, 46.26852 ] } },
{ "type": "Feature", "properties": { "gml_id": "ETABLISSEMENTS_POLLUEURS.11080", "identifiant": "0007206874", "idetab": "11080", "nom": "M. GOUIN LAURENT_CASS AUTO", "codeape": "3831Z", "cp": "79230" }, "geometry": { "type": "Point", "coordinates": [ -0.418578, 46.295067 ] } },
{ "type": "Feature", "properties": { "gml_id": "ETABLISSEMENTS_POLLUEURS.588161", "identifiant": "0007207653", "idetab": "588161", "nom": "ISDI LE BOIS FORT", "codeape": "8411Z", "cp": "79360" }, "geometry": { "type": "Point", "coordinates": [ -0.496481, 46.179011 ] } },
{ "type": "Feature", "properties": { "gml_id": "ETABLISSEMENTS_POLLUEURS.597119", "identifiant": "0051700076", "idetab": "597119", "nom": "EARL LES SERINS", "codeape": "0141Z", "cp": "17330" }, "geometry": { "type": "Point", "coordinates": [ -0.6471, 46.06509 ] } },
{ "type": "Feature", "properties": { "gml_id": "ETABLISSEMENTS_POLLUEURS.5618", "identifiant": "17358056", "idetab": "5618", "nom": "PESTOURIE", "codeape": "4633Z", "cp": "17470" }, "geometry": { "type": "Point", "coordinates": [ -0.29839, 46.032552 ] } },
{ "type": "Feature", "properties": { "gml_id": "ETABLISSEMENTS_POLLUEURS.5942", "identifiant": "79009960", "idetab": "5942", "nom": "EARL LES PLUMATS", "codeape": "0146Z", "cp": "79210" }, "geometry": { "type": "Point", "coordinates": [ -0.623491, 46.27288 ] } },
{ "type": "Feature", "properties": { "gml_id": "ETABLISSEMENTS_POLLUEURS.5943", "identifiant": "79046156", "idetab": "5943", "nom": "GAEC ELEVAGE AVICOLE DU MOULIN", "codeape": "0147Z", "cp": "79210" }, "geometry": { "type": "Point", "coordinates": [ -0.620747, 46.242907 ] } },
{ "type": "Feature", "properties": { "gml_id": "ETABLISSEMENTS_POLLUEURS.12083", "identifiant": "79500068", "idetab": "12083", "nom": "SOCIETE AVICOLE GUINIER", "codeape": "0147Z", "cp": "79270" }, "geometry": { "type": "Point", "coordinates": [ -0.537905, 46.261602 ] } },
{ "type": "Feature", "properties": { "gml_id": "ETABLISSEMENTS_POLLUEURS.591801", "identifiant": "0058502672", "idetab": "591801", "nom": "SARL DELBRI", "codeape": "0112Z", "cp": "85210" }, "geometry": { "type": "Point", "coordinates": [ -0.996652, 46.525769 ] } },
{ "type": "Feature", "properties": { "gml_id": "ETABLISSEMENTS_POLLUEURS.7598", "identifiant": "75850151", "idetab": "7598", "nom": "EARL LES PEUPLIERS", "codeape": "0147Z", "cp": "85210" }, "geometry": { "type": "Point", "coordinates": [ -0.991859, 46.534135 ] } },
{ "type": "Feature", "properties": { "gml_id": "ETABLISSEMENTS_POLLUEURS.7599", "identifiant": "75850152", "idetab": "7599", "nom": "SARL DELBRI", "codeape": "0112Z", "cp": "85210" }, "geometry": { "type": "Point", "coordinates": [ -0.991859, 46.534135 ] } },
{ "type": "Feature", "properties": { "gml_id": "ETABLISSEMENTS_POLLUEURS.5385", "identifiant": "0007204252", "idetab": "5385", "nom": "ANETT UN", "codeape": "7729Z", "cp": "17700" }, "geometry": { "type": "Point", "coordinates": [ -0.765709, 46.055557 ] } },
{ "type": "Feature", "properties": { "gml_id": "ETABLISSEMENTS_POLLUEURS.11074", "identifiant": "0007204242", "idetab": "11074", "nom": "ANETT UN", "codeape": "7729Z", "cp": "17700" }, "geometry": { "type": "Point", "coordinates": [ -0.7667, 46.05799 ] } },
{ "type": "Feature", "properties": { "gml_id": "ETABLISSEMENTS_POLLUEURS.8159", "identifiant": "0007204239", "idetab": "8159", "nom": "VEOLIA AGRICULTURE FRANCE", "codeape": "3700Z", "cp": "17290" }, "geometry": { "type": "Point", "coordinates": [ -0.83659, 46.07986 ] } },
{ "type": "Feature", "properties": { "gml_id": "ETABLISSEMENTS_POLLUEURS.596923", "identifiant": "0003102774", "idetab": "596923", "nom": "AUNIS BIOGAZ", "codeape": "3521Z", "cp": "17700" }, "geometry": { "type": "Point", "coordinates": [ -0.7562, 46.10248 ] } },
{ "type": "Feature", "properties": { "gml_id": "ETABLISSEMENTS_POLLUEURS.10232", "identifiant": "0007202507", "idetab": "10232", "nom": "V.O 17", "codeape": "4511Z", "cp": "17290" }, "geometry": { "type": "Point", "coordinates": [ -0.83838, 46.10381 ] } },
{ "type": "Feature", "properties": { "gml_id": "ETABLISSEMENTS_POLLUEURS.5389", "identifiant": "0007205804", "idetab": "5389", "nom": "SMICTOM D'AUNIS ET DES VAL DES SAINTONGE - UIOM DE SURGERES", "codeape": "3821Z", "cp": "17700" }, "geometry": { "type": "Point", "coordinates": [ -0.75216, 46.107395 ] } },
{ "type": "Feature", "properties": { "gml_id": "ETABLISSEMENTS_POLLUEURS.5353", "identifiant": "0007201604", "idetab": "5353", "nom": "ARMOR PROTÉINES SITE DE SURGÈRES", "codeape": "1051D", "cp": "17700" }, "geometry": { "type": "Point", "coordinates": [ -0.75216, 46.107395 ] } },
{ "type": "Feature", "properties": { "gml_id": "ETABLISSEMENTS_POLLUEURS.8158", "identifiant": "0007204189", "idetab": "8158", "nom": "UPM KYMMENE  WOOD SA", "codeape": "4673A", "cp": "17290" }, "geometry": { "type": "Point", "coordinates": [ -0.94452, 46.10865 ] } },
{ "type": "Feature", "properties": { "gml_id": "ETABLISSEMENTS_POLLUEURS.8161", "identifiant": "0007204407", "idetab": "8161", "nom": "WARTSILA FRANCE SAS", "codeape": "3312Z", "cp": "17700" }, "geometry": { "type": "Point", "coordinates": [ -0.78066, 46.11492 ] } },
{ "type": "Feature", "properties": { "gml_id": "ETABLISSEMENTS_POLLUEURS.598508", "identifiant": "0007211876", "idetab": "598508", "nom": "NOVAEM BBTRADE", "codeape": "4675Z", "cp": "17290" }, "geometry": { "type": "Point", "coordinates": [ -0.94133, 46.12028 ] } },
{ "type": "Feature", "properties": { "gml_id": "ETABLISSEMENTS_POLLUEURS.11075", "identifiant": "0007204315", "idetab": "11075", "nom": "SARL AUTO PIECES SAINT GEORGES", "codeape": "4520A", "cp": "17700" }, "geometry": { "type": "Point", "coordinates": [ -0.735247, 46.139262 ] } },
{ "type": "Feature", "properties": { "gml_id": "ETABLISSEMENTS_POLLUEURS.8163", "identifiant": "0007206220", "idetab": "8163", "nom": "SUEZ ORGANIQUE", "codeape": "3821Z", "cp": "17700" }, "geometry": { "type": "Point", "coordinates": [ -0.79837, 46.14291 ] } },
{ "type": "Feature", "properties": { "gml_id": "ETABLISSEMENTS_POLLUEURS.11078", "identifiant": "0007206447", "idetab": "11078", "nom": "VM AUTOMATERIELS", "codeape": "4520A", "cp": "17540" }, "geometry": { "type": "Point", "coordinates": [ -0.967409, 46.193242 ] } },
{ "type": "Feature", "properties": { "gml_id": "ETABLISSEMENTS_POLLUEURS.8160", "identifiant": "0007204397", "idetab": "8160", "nom": "KNAUF INDUSTRIES OUEST", "codeape": "2222Z", "cp": "17540" }, "geometry": { "type": "Point", "coordinates": [ -0.880214, 46.227758 ] } },
{ "type": "Feature", "properties": { "gml_id": "ETABLISSEMENTS_POLLUEURS.599232", "identifiant": "0007208118", "idetab": "599232", "nom": "QUALITY ENVIRONNEMENT", "codeape": "3832Z", "cp": "17540" }, "geometry": { "type": "Point", "coordinates": [ -0.88456, 46.23062 ] } },
{ "type": "Feature", "properties": { "gml_id": "ETABLISSEMENTS_POLLUEURS.591622", "identifiant": "0007202003", "idetab": "591622", "nom": "EIFFAGE ROUTE SUD OUEST", "codeape": "4211Z", "cp": "17170" }, "geometry": { "type": "Point", "coordinates": [ -0.82974, 46.23749 ] } },
{ "type": "Feature", "properties": { "gml_id": "ETABLISSEMENTS_POLLUEURS.589884", "identifiant": "0007200512", "idetab": "589884", "nom": "CARRIERES ET MATERIAUX DU GRAND OUEST", "codeape": "0812Z", "cp": "17540" }, "geometry": { "type": "Point", "coordinates": [ -0.88496, 46.23751 ] } },
{ "type": "Feature", "properties": { "gml_id": "ETABLISSEMENTS_POLLUEURS.8123", "identifiant": "0007201312", "idetab": "8123", "nom": "SIMAFEX", "codeape": "2014Z", "cp": "17230" }, "geometry": { "type": "Point", "coordinates": [ -0.99743, 46.30411 ] } },
{ "type": "Feature", "properties": { "gml_id": "ETABLISSEMENTS_POLLUEURS.7049", "identifiant": "0007201505", "idetab": "7049", "nom": "SOCIETE DECORATION INOX", "codeape": "2599B", "cp": "17230" }, "geometry": { "type": "Point", "coordinates": [ -0.992214, 46.309247 ] } },
{ "type": "Feature", "properties": { "gml_id": "ETABLISSEMENTS_POLLUEURS.4627", "identifiant": "0006300911", "idetab": "4627", "nom": "HUHTAMAKI LA ROCHELLE", "codeape": "1729Z", "cp": "85770" }, "geometry": { "type": "Point", "coordinates": [ -0.950278, 46.32344 ] } },
{ "type": "Feature", "properties": { "gml_id": "ETABLISSEMENTS_POLLUEURS.597660", "identifiant": "0051700427", "idetab": "597660", "nom": "EARL LA VALLEE", "codeape": "0150Z", "cp": "17170" }, "geometry": { "type": "Point", "coordinates": [ -0.8967, 46.30167 ] } },
{ "type": "Feature", "properties": { "gml_id": "ETABLISSEMENTS_POLLUEURS.594947", "identifiant": "0051700542", "idetab": "594947", "nom": "ARMOR PROTEINES", "codeape": "1051D", "cp": "17700" }, "geometry": { "type": "Point", "coordinates": [ -0.76793, 46.10878 ] } },
{ "type": "Feature", "properties": { "gml_id": "ETABLISSEMENTS_POLLUEURS.591191", "identifiant": "0057900636", "idetab": "591191", "nom": "SCEA LE MIGNON", "codeape": "0146Z", "cp": "79210" }, "geometry": { "type": "Point", "coordinates": [ -0.71825, 46.26254 ] } },
{ "type": "Feature", "properties": { "gml_id": "ETABLISSEMENTS_POLLUEURS.597668", "identifiant": "0058501843", "idetab": "597668", "nom": "BRISSON KEVIN", "codeape": "0147Z", "cp": "85420" }, "geometry": { "type": "Point", "coordinates": [ -0.775526, 46.344161 ] } },
{ "type": "Feature", "properties": { "gml_id": "ETABLISSEMENTS_POLLUEURS.595790", "identifiant": "0058503813", "idetab": "595790", "nom": "EARL LES TERRIERES", "codeape": "0147Z", "cp": "85770" }, "geometry": { "type": "Point", "coordinates": [ -0.865616, 46.358449 ] } },
{ "type": "Feature", "properties": { "gml_id": "ETABLISSEMENTS_POLLUEURS.5954", "identifiant": "79257280", "idetab": "5954", "nom": "SCEA LA MAZINOISE", "codeape": "0146Z", "cp": "79210" }, "geometry": { "type": "Point", "coordinates": [ -0.706883, 46.272137 ] } },
{ "type": "Feature", "properties": { "gml_id": "ETABLISSEMENTS_POLLUEURS.1990", "identifiant": "0006301114", "idetab": "1990", "nom": "SECANIM CENTRE", "codeape": "3832Z", "cp": "85490" }, "geometry": { "type": "Point", "coordinates": [ -0.597753, 46.367557 ] } },
{ "type": "Feature", "properties": { "gml_id": "ETABLISSEMENTS_POLLUEURS.598517", "identifiant": "0003103091", "idetab": "598517", "nom": "PIPET ARNAUD", "codeape": "0147Z", "cp": "79240" }, "geometry": { "type": "Point", "coordinates": [ -0.56439, 46.64225 ] } },
{ "type": "Feature", "properties": { "gml_id": "ETABLISSEMENTS_POLLUEURS.592824", "identifiant": "0057900076", "idetab": "592824", "nom": "EXPLOITATION AGRICOLE A RESPONSABILITE LIMITEE  EARL LE CHAMP BLANC", "codeape": "0147Z", "cp": "79130" }, "geometry": { "type": "Point", "coordinates": [ -0.50081, 46.58035 ] } },
{ "type": "Feature", "properties": { "gml_id": "ETABLISSEMENTS_POLLUEURS.9246", "identifiant": "0007202584", "idetab": "9246", "nom": "ISDI DU VALLON D'ARTY", "codeape": "8411Z", "cp": "79000" }, "geometry": { "type": "Point", "coordinates": [ -0.492873, 46.354207 ] } },
{ "type": "Feature", "properties": { "gml_id": "ETABLISSEMENTS_POLLUEURS.588146", "identifiant": "0007202465", "idetab": "588146", "nom": "CARRIERES KLEBER MOREAU", "codeape": "0812Z", "cp": "79000" }, "geometry": { "type": "Point", "coordinates": [ -0.48657, 46.33906 ] } },
{ "type": "Feature", "properties": { "gml_id": "ETABLISSEMENTS_POLLUEURS.597406", "identifiant": "0003103416", "idetab": "597406", "nom": "SYNDICAT DES EAUX DU CENTRE OUEST DES DEUX SEVRES", "codeape": "3600Z", "cp": "79220" }, "geometry": { "type": "Point", "coordinates": [ -0.46734, 46.43507 ] } },
{ "type": "Feature", "properties": { "gml_id": "ETABLISSEMENTS_POLLUEURS.597391", "identifiant": "0003106480", "idetab": "597391", "nom": "EUROVIA GRANDS PROJETS FRANCE", "codeape": "4211Z", "cp": "79410" }, "geometry": { "type": "Point", "coordinates": [ -0.431115, 46.392736 ] } },
{ "type": "Feature", "properties": { "gml_id": "ETABLISSEMENTS_POLLUEURS.11059", "identifiant": "0007202872", "idetab": "11059", "nom": "RTG", "codeape": "4511Z", "cp": "79130" }, "geometry": { "type": "Point", "coordinates": [ -0.430688, 46.592017 ] } },
{ "type": "Feature", "properties": { "gml_id": "ETABLISSEMENTS_POLLUEURS.588158", "identifiant": "0007207598", "idetab": "588158", "nom": "SYND MIXTE HT VAL SEVRE ET SUD GATINE", "codeape": "3811Z", "cp": "79800" }, "geometry": { "type": "Point", "coordinates": [ -0.429756, 46.591342 ] } },
{ "type": "Feature", "properties": { "gml_id": "ETABLISSEMENTS_POLLUEURS.588143", "identifiant": "0007201849", "idetab": "588143", "nom": "BONNEAU ET FILS", "codeape": "4221Z", "cp": "79220" }, "geometry": { "type": "Point", "coordinates": [ -0.41809, 46.47681 ] } },
{ "type": "Feature", "properties": { "gml_id": "ETABLISSEMENTS_POLLUEURS.11057", "identifiant": "0007202531", "idetab": "11057", "nom": "DECONS ATLANTIQUE", "codeape": "3832Z", "cp": "79000" }, "geometry": { "type": "Point", "coordinates": [ -0.41797, 46.3343 ] } },
{ "type": "Feature", "properties": { "gml_id": "ETABLISSEMENTS_POLLUEURS.8133", "identifiant": "0007201462", "idetab": "8133", "nom": "SAFRAN ELECTRICAL & POWER", "codeape": "2712Z", "cp": "79180" }, "geometry": { "type": "Point", "coordinates": [ -0.41638, 46.34144 ] } },
{ "type": "Feature", "properties": { "gml_id": "ETABLISSEMENTS_POLLUEURS.588168", "identifiant": "0007211724", "idetab": "588168", "nom": "ENTREPRISE THUILLAS", "codeape": "4399C", "cp": "79220" }, "geometry": { "type": "Point", "coordinates": [ -0.40664, 46.486 ] } },
{ "type": "Feature", "properties": { "gml_id": "ETABLISSEMENTS_POLLUEURS.5356", "identifiant": "0007201652", "idetab": "5356", "nom": "SOFIVO SAS", "codeape": "1051D", "cp": "79220" }, "geometry": { "type": "Point", "coordinates": [ -0.405056, 46.485473 ] } },
{ "type": "Feature", "properties": { "gml_id": "ETABLISSEMENTS_POLLUEURS.5392", "identifiant": "0007206332", "idetab": "5392", "nom": "SMITED - CET DE COULONGES-THOUARSAIS", "codeape": "751A", "cp": "79220" }, "geometry": { "type": "Point", "coordinates": [ -0.405056, 46.485473 ] } },
{ "type": "Feature", "properties": { "gml_id": "ETABLISSEMENTS_POLLUEURS.592797", "identifiant": "0007209988", "idetab": "592797", "nom": "BOYE ACCOUVAGE", "codeape": "0147Z", "cp": "79130" }, "geometry": { "type": "Point", "coordinates": [ -0.34545, 46.60339 ] } },
{ "type": "Feature", "properties": { "gml_id": "ETABLISSEMENTS_POLLUEURS.8129", "identifiant": "0007201401", "idetab": "8129", "nom": "CARRIERES KLEBER MOREAU", "codeape": "0812Z", "cp": "79310" }, "geometry": { "type": "Point", "coordinates": [ -0.33631, 46.52658 ] } },
{ "type": "Feature", "properties": { "gml_id": "ETABLISSEMENTS_POLLUEURS.12447", "identifiant": "0007201461", "idetab": "12447", "nom": "EDAC", "codeape": "2512Z", "cp": "79260" }, "geometry": { "type": "Point", "coordinates": [ -0.32296, 46.34107 ] } },
{ "type": "Feature", "properties": { "gml_id": "ETABLISSEMENTS_POLLUEURS.588167", "identifiant": "0007210719", "idetab": "588167", "nom": "KLÉBER MOREAU ISDI CHAVAGNÉ", "codeape": "0812Z", "cp": "79260" }, "geometry": { "type": "Point", "coordinates": [ -0.30731, 46.366431 ] } },
{ "type": "Feature", "properties": { "gml_id": "ETABLISSEMENTS_POLLUEURS.8149", "identifiant": "0007202809", "idetab": "8149", "nom": "ATILAC", "codeape": "2599B", "cp": "79260" }, "geometry": { "type": "Point", "coordinates": [ -0.29929, 46.34834 ] } },
{ "type": "Feature", "properties": { "gml_id": "ETABLISSEMENTS_POLLUEURS.589200", "identifiant": "0007211725", "idetab": "589200", "nom": "MAIRIE DE FRESSINES", "codeape": "8411Z", "cp": "79370" }, "geometry": { "type": "Point", "coordinates": [ -0.297509, 46.322216 ] } },
{ "type": "Feature", "properties": { "gml_id": "ETABLISSEMENTS_POLLUEURS.588169", "identifiant": "0007211726", "idetab": "588169", "nom": "COLAS TERRITOIRE OUEST (ISDI)", "codeape": "4211Z", "cp": "79370" }, "geometry": { "type": "Point", "coordinates": [ -0.292002, 46.291011 ] } },
{ "type": "Feature", "properties": { "gml_id": "ETABLISSEMENTS_POLLUEURS.597158", "identifiant": "0057900197", "idetab": "597158", "nom": "EARL PISSE PIRON", "codeape": "0147Z", "cp": "79220" }, "geometry": { "type": "Point", "coordinates": [ -0.397813, 46.492686 ] } },
{ "type": "Feature", "properties": { "gml_id": "ETABLISSEMENTS_POLLUEURS.596077", "identifiant": "0057900204", "idetab": "596077", "nom": "SCEA LA CHEVAUCHERIE", "codeape": "0150Z", "cp": "79220" }, "geometry": { "type": "Point", "coordinates": [ -0.32005, 46.45942 ] } },
{ "type": "Feature", "properties": { "gml_id": "ETABLISSEMENTS_POLLUEURS.591794", "identifiant": "0057900306", "idetab": "591794", "nom": "EARL LE CHAMP MACON", "codeape": "0147Z", "cp": "79160" }, "geometry": { "type": "Point", "coordinates": [ -0.60062, 46.46049 ] } },
{ "type": "Feature", "properties": { "gml_id": "ETABLISSEMENTS_POLLUEURS.597753", "identifiant": "0057900341", "idetab": "597753", "nom": "SCEA RENE", "codeape": "0150Z", "cp": "79160" }, "geometry": { "type": "Point", "coordinates": [ -0.516807, 46.452445 ] } },
{ "type": "Feature", "properties": { "gml_id": "ETABLISSEMENTS_POLLUEURS.591186", "identifiant": "0057900544", "idetab": "591186", "nom": "COSMOPORC", "codeape": "0146Z", "cp": "79220" }, "geometry": { "type": "Point", "coordinates": [ -0.4335, 46.53121 ] } },
{ "type": "Feature", "properties": { "gml_id": "ETABLISSEMENTS_POLLUEURS.591190", "identifiant": "0057900615", "idetab": "591190", "nom": "EARL DELIGNE C", "codeape": "0147Z", "cp": "79220" }, "geometry": { "type": "Point", "coordinates": [ -0.35428, 46.45426 ] } },
{ "type": "Feature", "properties": { "gml_id": "ETABLISSEMENTS_POLLUEURS.597737", "identifiant": "0057900679", "idetab": "597737", "nom": "SCEA DU FOUETTANT", "codeape": "0147Z", "cp": "79220" }, "geometry": { "type": "Point", "coordinates": [ -0.45276, 46.43606 ] } },
{ "type": "Feature", "properties": { "gml_id": "ETABLISSEMENTS_POLLUEURS.595634", "identifiant": "0057900741", "idetab": "595634", "nom": "GAEC LA POUPLIERE", "codeape": "0147Z", "cp": "79220" }, "geometry": { "type": "Point", "coordinates": [ -0.45518, 46.47173 ] } },
{ "type": "Feature", "properties": { "gml_id": "ETABLISSEMENTS_POLLUEURS.599301", "identifiant": "0057902357", "idetab": "599301", "nom": "LES VALLÉES", "codeape": "0150Z", "cp": "79220" }, "geometry": { "type": "Point", "coordinates": [ -0.32581, 46.46572 ] } },
{ "type": "Feature", "properties": { "gml_id": "ETABLISSEMENTS_POLLUEURS.591193", "identifiant": "0057902533", "idetab": "591193", "nom": "EARL NOVIPOR", "codeape": "0146Z", "cp": "79220" }, "geometry": { "type": "Point", "coordinates": [ -0.41711, 46.48926 ] } },
{ "type": "Feature", "properties": { "gml_id": "ETABLISSEMENTS_POLLUEURS.595958", "identifiant": "0057902645", "idetab": "595958", "nom": "SCEA GUILBOT AVI-TA", "codeape": "0147Z", "cp": "79220" }, "geometry": { "type": "Point", "coordinates": [ -0.40412, 46.53877 ] } },
{ "type": "Feature", "properties": { "gml_id": "ETABLISSEMENTS_POLLUEURS.596964", "identifiant": "0057903062", "idetab": "596964", "nom": "EARL LA BASSE COUR", "codeape": "0147Z", "cp": "79160" }, "geometry": { "type": "Point", "coordinates": [ -0.59242, 46.40902 ] } },
{ "type": "Feature", "properties": { "gml_id": "ETABLISSEMENTS_POLLUEURS.592949", "identifiant": "0057903188", "idetab": "592949", "nom": "BEAU SOLEIL", "codeape": "0147Z", "cp": "79160" }, "geometry": { "type": "Point", "coordinates": [ -0.54266, 46.408 ] } },
{ "type": "Feature", "properties": { "gml_id": "ETABLISSEMENTS_POLLUEURS.589437", "identifiant": "0057908818", "idetab": "589437", "nom": "SOFIVO", "codeape": "1051D", "cp": "79220" }, "geometry": { "type": "Point", "coordinates": [ -0.39525, 46.48068 ] } },
{ "type": "Feature", "properties": { "gml_id": "ETABLISSEMENTS_POLLUEURS.597707", "identifiant": "0057908932", "idetab": "597707", "nom": "BOUTIER MARTINE", "codeape": "0147Z", "cp": "79220" }, "geometry": { "type": "Point", "coordinates": [ -0.448858, 46.452355 ] } },
{ "type": "Feature", "properties": { "gml_id": "ETABLISSEMENTS_POLLUEURS.595386", "identifiant": "0057908933", "idetab": "595386", "nom": "AUDEBERT ROMAIN", "codeape": "0111Z", "cp": "79160" }, "geometry": { "type": "Point", "coordinates": [ -0.452756, 46.436058 ] } },
{ "type": "Feature", "properties": { "gml_id": "ETABLISSEMENTS_POLLUEURS.591827", "identifiant": "0058500277", "idetab": "591827", "nom": "SECANIM CENTRE", "codeape": "3832Z", "cp": "85490" }, "geometry": { "type": "Point", "coordinates": [ -0.5796, 46.37156 ] } },
{ "type": "Feature", "properties": { "gml_id": "ETABLISSEMENTS_POLLUEURS.595704", "identifiant": "0058500278", "idetab": "595704", "nom": "EARL TESSIER", "codeape": "0147Z", "cp": "85490" }, "geometry": { "type": "Point", "coordinates": [ -0.6231, 46.38581 ] } },
{ "type": "Feature", "properties": { "gml_id": "ETABLISSEMENTS_POLLUEURS.598555", "identifiant": "0100037389", "idetab": "598555", "nom": "EARL THOMAS NAUDON", "codeape": "0150Z", "cp": "79220" }, "geometry": { "type": "Point", "coordinates": [ -0.39693, 46.49254 ] } },
{ "type": "Feature", "properties": { "gml_id": "ETABLISSEMENTS_POLLUEURS.8462", "identifiant": "79077001", "idetab": "8462", "nom": "LAITERIE COOPÉRATIVE DU PAYS DE GÂTINE", "codeape": "155C", "cp": "79160" }, "geometry": { "type": "Point", "coordinates": [ -0.55539, 46.565314 ] } },
{ "type": "Feature", "properties": { "gml_id": "ETABLISSEMENTS_POLLUEURS.12082", "identifiant": "79200906", "idetab": "12082", "nom": "EARL COSMOPORC", "codeape": "0146Z", "cp": "79220" }, "geometry": { "type": "Point", "coordinates": [ -0.440844, 46.546056 ] } },
{ "type": "Feature", "properties": { "gml_id": "ETABLISSEMENTS_POLLUEURS.5953", "identifiant": "79241901", "idetab": "5953", "nom": "EARL DELIGNE C", "codeape": "0147Z", "cp": "79220" }, "geometry": { "type": "Point", "coordinates": [ -0.34426, 46.455375 ] } },
{ "type": "Feature", "properties": { "gml_id": "ETABLISSEMENTS_POLLUEURS.9558", "identifiant": "79285919", "idetab": "9558", "nom": "SCEA PERRON", "codeape": "0147Z", "cp": "79310" }, "geometry": { "type": "Point", "coordinates": [ -0.308261, 46.580089 ] } },
{ "type": "Feature", "properties": { "gml_id": "ETABLISSEMENTS_POLLUEURS.5956", "identifiant": "79500001", "idetab": "5956", "nom": "SAS BOYE ACCOUVAGE", "codeape": "0147Z", "cp": "79310" }, "geometry": { "type": "Point", "coordinates": [ -0.365683, 46.564928 ] } },
{ "type": "Feature", "properties": { "gml_id": "ETABLISSEMENTS_POLLUEURS.5962", "identifiant": "79500008", "idetab": "5962", "nom": "EARL LE CHAMP MACON", "codeape": "0147Z", "cp": "79160" }, "geometry": { "type": "Point", "coordinates": [ -0.592138, 46.491905 ] } },
{ "type": "Feature", "properties": { "gml_id": "ETABLISSEMENTS_POLLUEURS.13535", "identifiant": "79500042", "idetab": "13535", "nom": "EARL LA CHEVAUCHERIE", "codeape": "0147Z", "cp": "79220" }, "geometry": { "type": "Point", "coordinates": [ -0.323306, 46.479642 ] } },
{ "type": "Feature", "properties": { "gml_id": "ETABLISSEMENTS_POLLUEURS.7610", "identifiant": "79500045", "idetab": "7610", "nom": "GAEC LA POUPLIERE", "codeape": "0111Z", "cp": "79220" }, "geometry": { "type": "Point", "coordinates": [ -0.459384, 46.467806 ] } },
{ "type": "Feature", "properties": { "gml_id": "ETABLISSEMENTS_POLLUEURS.596363", "identifiant": "0058501562", "idetab": "596363", "nom": "GAEC LAGON BLEU", "codeape": "0147Z", "cp": "85500" }, "geometry": { "type": "Point", "coordinates": [ -0.994893, 46.854081 ] } },
{ "type": "Feature", "properties": { "gml_id": "ETABLISSEMENTS_POLLUEURS.599038", "identifiant": "0058501629", "idetab": "599038", "nom": "SCEA AVIPRO", "codeape": "0147Z", "cp": "85590" }, "geometry": { "type": "Point", "coordinates": [ -0.9899, 46.84733 ] } },
{ "type": "Feature", "properties": { "gml_id": "ETABLISSEMENTS_POLLUEURS.587957", "identifiant": "0006302665", "idetab": "587957", "nom": "MASSE CHARPENTE SERRURERIE", "codeape": "2511Z", "cp": "85510" }, "geometry": { "type": "Point", "coordinates": [ -0.989712, 46.789864 ] } },
{ "type": "Feature", "properties": { "gml_id": "ETABLISSEMENTS_POLLUEURS.597681", "identifiant": "0058501617", "idetab": "597681", "nom": "SAPINIERE", "codeape": "0147Z", "cp": "85500" }, "geometry": { "type": "Point", "coordinates": [ -0.96194, 46.85419 ] } },
{ "type": "Feature", "properties": { "gml_id": "ETABLISSEMENTS_POLLUEURS.8669", "identifiant": "0006305035", "idetab": "8669", "nom": "VEOLIA AGRICULTURE FRANCE", "codeape": "3821Z", "cp": "85500" }, "geometry": { "type": "Point", "coordinates": [ -0.95739, 46.85963 ] } },
{ "type": "Feature", "properties": { "gml_id": "ETABLISSEMENTS_POLLUEURS.8554", "identifiant": "0006303017", "idetab": "8554", "nom": "TRIVALIS - UTOM DE ST PROUANT", "codeape": "3821Z", "cp": "85110" }, "geometry": { "type": "Point", "coordinates": [ -0.956877, 46.757076 ] } },
{ "type": "Feature", "properties": { "gml_id": "ETABLISSEMENTS_POLLUEURS.596331", "identifiant": "0058500412", "idetab": "596331", "nom": "LA DAVIERE", "codeape": "0147Z", "cp": "85510" }, "geometry": { "type": "Point", "coordinates": [ -0.94012, 46.79766 ] } },
{ "type": "Feature", "properties": { "gml_id": "ETABLISSEMENTS_POLLUEURS.7918", "identifiant": "0006300976", "idetab": "7918", "nom": "GAUTIER FRANCE", "codeape": "3109B", "cp": "85510" }, "geometry": { "type": "Point", "coordinates": [ -0.93351, 46.79431 ] } },
{ "type": "Feature", "properties": { "gml_id": "ETABLISSEMENTS_POLLUEURS.590164", "identifiant": "0058500411", "idetab": "590164", "nom": "EARL ESPACE VERT", "codeape": "0147Z", "cp": "85510" }, "geometry": { "type": "Point", "coordinates": [ -0.925883, 46.794019 ] } },
{ "type": "Feature", "properties": { "gml_id": "ETABLISSEMENTS_POLLUEURS.596407", "identifiant": "0058501960", "idetab": "596407", "nom": "CHARDONNET", "codeape": "0150Z", "cp": "85110" }, "geometry": { "type": "Point", "coordinates": [ -0.92452, 46.73334 ] } },
{ "type": "Feature", "properties": { "gml_id": "ETABLISSEMENTS_POLLUEURS.597219", "identifiant": "0058501169", "idetab": "597219", "nom": "EARL LES MEUNIERS", "codeape": "0147Z", "cp": "85590" }, "geometry": { "type": "Point", "coordinates": [ -0.92332, 46.88088 ] } },
{ "type": "Feature", "properties": { "gml_id": "ETABLISSEMENTS_POLLUEURS.598504", "identifiant": "0006302389", "idetab": "598504", "nom": "GROUPE PILARDIERE", "codeape": "1091Z", "cp": "85590" }, "geometry": { "type": "Point", "coordinates": [ -0.90783, 46.85225 ] } },
{ "type": "Feature", "properties": { "gml_id": "ETABLISSEMENTS_POLLUEURS.596396", "identifiant": "0058503106", "idetab": "596396", "nom": "PUAUD", "codeape": "0147Z", "cp": "85590" }, "geometry": { "type": "Point", "coordinates": [ -0.93731, 46.85796 ] } },
{ "type": "Feature", "properties": { "gml_id": "ETABLISSEMENTS_POLLUEURS.595749", "identifiant": "0058503878", "idetab": "595749", "nom": "LES QUATRE CHEMINS", "codeape": "0147Z", "cp": "85510" }, "geometry": { "type": "Point", "coordinates": [ -0.92698, 46.79881 ] } },
{ "type": "Feature", "properties": { "gml_id": "ETABLISSEMENTS_POLLUEURS.597686", "identifiant": "0058504031", "idetab": "597686", "nom": "EARL LE PIGAUTIER", "codeape": "0147Z", "cp": "85390" }, "geometry": { "type": "Point", "coordinates": [ -0.96939, 46.68085 ] } },
{ "type": "Feature", "properties": { "gml_id": "ETABLISSEMENTS_POLLUEURS.11151", "identifiant": "10854129", "idetab": "11151", "nom": "GAEC GUILLOTEAU", "codeape": "0147Z", "cp": "85510" }, "geometry": { "type": "Point", "coordinates": [ -0.921056, 46.802382 ] } },
{ "type": "Feature", "properties": { "gml_id": "ETABLISSEMENTS_POLLUEURS.7268", "identifiant": "10854154", "idetab": "7268", "nom": "EARL LE MANOIR", "codeape": "0147Z", "cp": "85510" }, "geometry": { "type": "Point", "coordinates": [ -0.921056, 46.802382 ] } },
{ "type": "Feature", "properties": { "gml_id": "ETABLISSEMENTS_POLLUEURS.590166", "identifiant": "58500423", "idetab": "590166", "nom": "SCEA AGRI", "codeape": "0115Z", "cp": "85510" }, "geometry": { "type": "Point", "coordinates": [ -0.926427, 46.803007 ] } },
{ "type": "Feature", "properties": { "gml_id": "ETABLISSEMENTS_POLLUEURS.7601", "identifiant": "75850156", "idetab": "7601", "nom": "EARL LA RENAUDIERE", "codeape": "012G", "cp": "85590" }, "geometry": { "type": "Point", "coordinates": [ -0.919574, 46.870361 ] } },
{ "type": "Feature", "properties": { "gml_id": "ETABLISSEMENTS_POLLUEURS.6742", "identifiant": "0006304851", "idetab": "6742", "nom": "FERTIVENDEE", "codeape": "3821Z", "cp": "85390" }, "geometry": { "type": "Point", "coordinates": [ -0.884826, 46.687864 ] } },
{ "type": "Feature", "properties": { "gml_id": "ETABLISSEMENTS_POLLUEURS.4639", "identifiant": "0006301036", "idetab": "4639", "nom": "AUGER", "codeape": "361G", "cp": "85700" }, "geometry": { "type": "Point", "coordinates": [ -0.88259, 46.829362 ] } },
{ "type": "Feature", "properties": { "gml_id": "ETABLISSEMENTS_POLLUEURS.6727", "identifiant": "0006302917", "idetab": "6727", "nom": "MEUBLES GIRARDEAU", "codeape": "3109B", "cp": "85700" }, "geometry": { "type": "Point", "coordinates": [ -0.880859, 46.830508 ] } },
{ "type": "Feature", "properties": { "gml_id": "ETABLISSEMENTS_POLLUEURS.7936", "identifiant": "0006303035", "idetab": "7936", "nom": "CARRIERES KLEBER MOREAU", "codeape": "0812Z", "cp": "85700" }, "geometry": { "type": "Point", "coordinates": [ -0.87236, 46.74268 ] } },
{ "type": "Feature", "properties": { "gml_id": "ETABLISSEMENTS_POLLUEURS.594170", "identifiant": "0006304295", "idetab": "594170", "nom": "MEILLERAIE ENROBES", "codeape": "2399Z", "cp": "85700" }, "geometry": { "type": "Point", "coordinates": [ -0.86911, 46.74143 ] } },
{ "type": "Feature", "properties": { "gml_id": "ETABLISSEMENTS_POLLUEURS.8666", "identifiant": "0006304271", "idetab": "8666", "nom": "SYNDICAT MIXTE ETUDES POUR COORDINATION DEPARTEMENTALE DE TRAITEMENT DECHETS MENAGERS DE VENDEE", "codeape": "3821Z", "cp": "85390" }, "geometry": { "type": "Point", "coordinates": [ -0.86107, 46.71426 ] } },
{ "type": "Feature", "properties": { "gml_id": "ETABLISSEMENTS_POLLUEURS.598772", "identifiant": "0009069945", "idetab": "598772", "nom": "IONISOS", "codeape": "2120Z", "cp": "85700" }, "geometry": { "type": "Point", "coordinates": [ -0.84094, 46.77161 ] } },
{ "type": "Feature", "properties": { "gml_id": "ETABLISSEMENTS_POLLUEURS.1960", "identifiant": "0006300988", "idetab": "1960", "nom": "FLEURY MICHON LS", "codeape": "1085Z", "cp": "85700" }, "geometry": { "type": "Point", "coordinates": [ -0.83942, 46.76963 ] } },
{ "type": "Feature", "properties": { "gml_id": "ETABLISSEMENTS_POLLUEURS.4696", "identifiant": "0006301551", "idetab": "4696", "nom": "MECABOR NC", "codeape": "2562B", "cp": "85700" }, "geometry": { "type": "Point", "coordinates": [ -0.839208, 46.780846 ] } },
{ "type": "Feature", "properties": { "gml_id": "ETABLISSEMENTS_POLLUEURS.588900", "identifiant": "0006307588", "idetab": "588900", "nom": "CFTFI", "codeape": "2599B", "cp": "85700" }, "geometry": { "type": "Point", "coordinates": [ -0.839208, 46.780846 ] } },
{ "type": "Feature", "properties": { "gml_id": "ETABLISSEMENTS_POLLUEURS.2148", "identifiant": "0006302949", "idetab": "2148", "nom": "KALHYGE 4", "codeape": "9601A", "cp": "85700" }, "geometry": { "type": "Point", "coordinates": [ -0.835457, 46.780883 ] } },
{ "type": "Feature", "properties": { "gml_id": "ETABLISSEMENTS_POLLUEURS.2018", "identifiant": "0006301264", "idetab": "2018", "nom": "FLEURY MICHON LS", "codeape": "1085Z", "cp": "85700" }, "geometry": { "type": "Point", "coordinates": [ -0.83448, 46.77025 ] } },
{ "type": "Feature", "properties": { "gml_id": "ETABLISSEMENTS_POLLUEURS.12961", "identifiant": "0006303112", "idetab": "12961", "nom": "COUTAND RECYCLAGE", "codeape": "3832Z", "cp": "85700" }, "geometry": { "type": "Point", "coordinates": [ -0.81935, 46.751 ] } },
{ "type": "Feature", "properties": { "gml_id": "ETABLISSEMENTS_POLLUEURS.4633", "identifiant": "0006300989", "idetab": "4633", "nom": "FLEURY MICHON CHARCUTERIE", "codeape": "1013A", "cp": "85700" }, "geometry": { "type": "Point", "coordinates": [ -0.81935, 46.751 ] } },
{ "type": "Feature", "properties": { "gml_id": "ETABLISSEMENTS_POLLUEURS.598288", "identifiant": "0006310975", "idetab": "598288", "nom": "BRIFFAUD ELEVAGE", "codeape": "0147Z", "cp": "85390" }, "geometry": { "type": "Point", "coordinates": [ -0.81188, 46.64035 ] } },
{ "type": "Feature", "properties": { "gml_id": "ETABLISSEMENTS_POLLUEURS.6687", "identifiant": "0006301272", "idetab": "6687", "nom": "DELPEYRAT SITE DE LA POMMERAIE SUR SÈVRE", "codeape": "1013A", "cp": "85700" }, "geometry": { "type": "Point", "coordinates": [ -0.775127, 46.837169 ] } },
{ "type": "Feature", "properties": { "gml_id": "ETABLISSEMENTS_POLLUEURS.11715", "identifiant": "0006303380", "idetab": "11715", "nom": "ANTIGNY NUTRITION", "codeape": "1091Z", "cp": "85120" }, "geometry": { "type": "Point", "coordinates": [ -0.768393, 46.626352 ] } },
{ "type": "Feature", "properties": { "gml_id": "ETABLISSEMENTS_POLLUEURS.597155", "identifiant": "0006309738", "idetab": "597155", "nom": "BIOPOMMERIA", "codeape": "3521Z", "cp": "85700" }, "geometry": { "type": "Point", "coordinates": [ -0.76756, 46.83145 ] } },
{ "type": "Feature", "properties": { "gml_id": "ETABLISSEMENTS_POLLUEURS.595964", "identifiant": "0006307171", "idetab": "595964", "nom": "GIAMPICCOLO", "codeape": "0147Z", "cp": "85390" }, "geometry": { "type": "Point", "coordinates": [ -0.75733, 46.6949 ] } },
{ "type": "Feature", "properties": { "gml_id": "ETABLISSEMENTS_POLLUEURS.595360", "identifiant": "0057900478", "idetab": "595360", "nom": "EARL LA PRAIRIE", "codeape": "0150Z", "cp": "79140" }, "geometry": { "type": "Point", "coordinates": [ -0.76456, 46.83841 ] } },
{ "type": "Feature", "properties": { "gml_id": "ETABLISSEMENTS_POLLUEURS.595403", "identifiant": "0058500094", "idetab": "595403", "nom": "EARL AVIPO", "codeape": "0147Z", "cp": "85120" }, "geometry": { "type": "Point", "coordinates": [ -0.76202, 46.61188 ] } },
{ "type": "Feature", "properties": { "gml_id": "ETABLISSEMENTS_POLLUEURS.598917", "identifiant": "0058500098", "idetab": "598917", "nom": "OUVRARD DAMIEN", "codeape": "0147Z", "cp": "85120" }, "geometry": { "type": "Point", "coordinates": [ -0.75517, 46.6188 ] } },
{ "type": "Feature", "properties": { "gml_id": "ETABLISSEMENTS_POLLUEURS.595860", "identifiant": "0058501011", "idetab": "595860", "nom": "EXPLOITATION AGRICOLE A RESPONSABILITE LIMITEE LES 3 SITES", "codeape": "0149Z", "cp": "85390" }, "geometry": { "type": "Point", "coordinates": [ -0.80102, 46.67996 ] } },
{ "type": "Feature", "properties": { "gml_id": "ETABLISSEMENTS_POLLUEURS.597152", "identifiant": "0058501029", "idetab": "597152", "nom": "LA BOISSELIERE", "codeape": "0149Z", "cp": "85390" }, "geometry": { "type": "Point", "coordinates": [ -0.81349, 46.67382 ] } },
{ "type": "Feature", "properties": { "gml_id": "ETABLISSEMENTS_POLLUEURS.595449", "identifiant": "0058501313", "idetab": "595449", "nom": "GAEC LA RENAISSANCE", "codeape": "0147Z", "cp": "85700" }, "geometry": { "type": "Point", "coordinates": [ -0.84109, 46.82743 ] } },
{ "type": "Feature", "properties": { "gml_id": "ETABLISSEMENTS_POLLUEURS.593465", "identifiant": "0058501322", "idetab": "593465", "nom": "LUMINEAU CHARRIER", "codeape": "0142Z", "cp": "85700" }, "geometry": { "type": "Point", "coordinates": [ -0.82445, 46.83211 ] } },
{ "type": "Feature", "properties": { "gml_id": "ETABLISSEMENTS_POLLUEURS.595323", "identifiant": "0058501921", "idetab": "595323", "nom": "RAGER BRUNO", "codeape": "0147Z", "cp": "85700" }, "geometry": { "type": "Point", "coordinates": [ -0.76365, 46.72437 ] } },
{ "type": "Feature", "properties": { "gml_id": "ETABLISSEMENTS_POLLUEURS.597822", "identifiant": "0058501983", "idetab": "597822", "nom": "EXPLOITATION AGRICOLE A RESPONSABILITE LIMITEE JADAULT", "codeape": "0142Z", "cp": "85700" }, "geometry": { "type": "Point", "coordinates": [ -0.79817, 46.74016 ] } },
{ "type": "Feature", "properties": { "gml_id": "ETABLISSEMENTS_POLLUEURS.598021", "identifiant": "0058502080", "idetab": "598021", "nom": "MONSEJOUR", "codeape": "0142Z", "cp": "85390" }, "geometry": { "type": "Point", "coordinates": [ -0.85064, 46.65438 ] } },
{ "type": "Feature", "properties": { "gml_id": "ETABLISSEMENTS_POLLUEURS.592986", "identifiant": "0058502085", "idetab": "592986", "nom": "GAEC LE CHEF DE BOIS", "codeape": "0147Z", "cp": "85390" }, "geometry": { "type": "Point", "coordinates": [ -0.82214, 46.64685 ] } },
{ "type": "Feature", "properties": { "gml_id": "ETABLISSEMENTS_POLLUEURS.595217", "identifiant": "0058502086", "idetab": "595217", "nom": "GAEC H2O", "codeape": "0142Z", "cp": "85390" }, "geometry": { "type": "Point", "coordinates": [ -0.84614, 46.65862 ] } },
{ "type": "Feature", "properties": { "gml_id": "ETABLISSEMENTS_POLLUEURS.592564", "identifiant": "0058502303", "idetab": "592564", "nom": "DELPEYRAT", "codeape": "1013A", "cp": "85700" }, "geometry": { "type": "Point", "coordinates": [ -0.86663, 46.82072 ] } },
{ "type": "Feature", "properties": { "gml_id": "ETABLISSEMENTS_POLLUEURS.588316", "identifiant": "0058502322", "idetab": "588316", "nom": "ACLV", "codeape": "1011Z", "cp": "85700" }, "geometry": { "type": "Point", "coordinates": [ -0.839208, 46.780846 ] } },
{ "type": "Feature", "properties": { "gml_id": "ETABLISSEMENTS_POLLUEURS.598225", "identifiant": "0058502332", "idetab": "598225", "nom": "EARL LE LAVOIR", "codeape": "0147Z", "cp": "85700" }, "geometry": { "type": "Point", "coordinates": [ -0.86718, 46.76967 ] } },
{ "type": "Feature", "properties": { "gml_id": "ETABLISSEMENTS_POLLUEURS.596990", "identifiant": "0058502340", "idetab": "596990", "nom": "LE BOIS DES ROCHES", "codeape": "0147Z", "cp": "85700" }, "geometry": { "type": "Point", "coordinates": [ -0.81417, 46.78281 ] } },
{ "type": "Feature", "properties": { "gml_id": "ETABLISSEMENTS_POLLUEURS.596997", "identifiant": "0058502347", "idetab": "596997", "nom": "LE BOIS DES ROCHES", "codeape": "0147Z", "cp": "85700" }, "geometry": { "type": "Point", "coordinates": [ -0.81977, 46.7801 ] } },
{ "type": "Feature", "properties": { "gml_id": "ETABLISSEMENTS_POLLUEURS.595754", "identifiant": "0058502372", "idetab": "595754", "nom": "GAEC LA CHABOSSE", "codeape": "0146Z", "cp": "85700" }, "geometry": { "type": "Point", "coordinates": [ -0.82064, 46.71023 ] } },
{ "type": "Feature", "properties": { "gml_id": "ETABLISSEMENTS_POLLUEURS.598206", "identifiant": "0058502383", "idetab": "598206", "nom": "GAEC LES DEUX SITES - SITE DE LA GUINDREMIERE", "codeape": "0147Z", "cp": "85700" }, "geometry": { "type": "Point", "coordinates": [ -0.818801, 46.711729 ] } },
{ "type": "Feature", "properties": { "gml_id": "ETABLISSEMENTS_POLLUEURS.596161", "identifiant": "0058503232", "idetab": "596161", "nom": "EARL MILLET", "codeape": "0147Z", "cp": "85390" }, "geometry": { "type": "Point", "coordinates": [ -0.80824, 46.64575 ] } },
{ "type": "Feature", "properties": { "gml_id": "ETABLISSEMENTS_POLLUEURS.591230", "identifiant": "0058503916", "idetab": "591230", "nom": "EARL LA BAUDRIERE", "codeape": "0147Z", "cp": "85700" }, "geometry": { "type": "Point", "coordinates": [ -0.82812, 46.81732 ] } },
{ "type": "Feature", "properties": { "gml_id": "ETABLISSEMENTS_POLLUEURS.596015", "identifiant": "0058503957", "idetab": "596015", "nom": "EARL LA BABINIERE", "codeape": "0147Z", "cp": "85390" }, "geometry": { "type": "Point", "coordinates": [ -0.83327, 46.64806 ] } },
{ "type": "Feature", "properties": { "gml_id": "ETABLISSEMENTS_POLLUEURS.598031", "identifiant": "0058503968", "idetab": "598031", "nom": "EARL LE PASSEREAU", "codeape": "0147Z", "cp": "85700" }, "geometry": { "type": "Point", "coordinates": [ -0.80535, 46.78591 ] } },
{ "type": "Feature", "properties": { "gml_id": "ETABLISSEMENTS_POLLUEURS.7264", "identifiant": "10851322", "idetab": "7264", "nom": "EARL LUMINEAU", "codeape": "0147Z", "cp": "85700" }, "geometry": { "type": "Point", "coordinates": [ -0.854956, 46.842062 ] } },
{ "type": "Feature", "properties": { "gml_id": "ETABLISSEMENTS_POLLUEURS.7271", "identifiant": "10855203", "idetab": "7271", "nom": "AUGUIN DOMINIQUE", "codeape": "012G", "cp": "85390" }, "geometry": { "type": "Point", "coordinates": [ -0.788174, 46.674032 ] } },
{ "type": "Feature", "properties": { "gml_id": "ETABLISSEMENTS_POLLUEURS.9333", "identifiant": "10855747", "idetab": "9333", "nom": "EARL LA BAUDRIERE", "codeape": "0147Z", "cp": "85700" }, "geometry": { "type": "Point", "coordinates": [ -0.854956, 46.842062 ] } },
{ "type": "Feature", "properties": { "gml_id": "ETABLISSEMENTS_POLLUEURS.7282", "identifiant": "10859666", "idetab": "7282", "nom": "GAEC LA CESSIÈRE", "codeape": "0147Z", "cp": "85700" }, "geometry": { "type": "Point", "coordinates": [ -0.877753, 46.837723 ] } },
{ "type": "Feature", "properties": { "gml_id": "ETABLISSEMENTS_POLLUEURS.3709", "identifiant": "75200018", "idetab": "3709", "nom": "EARL LA LONDETTE", "codeape": "0147Z", "cp": "85700" }, "geometry": { "type": "Point", "coordinates": [ -0.877753, 46.837723 ] } },
{ "type": "Feature", "properties": { "gml_id": "ETABLISSEMENTS_POLLUEURS.8460", "identifiant": "75850142", "idetab": "8460", "nom": "GAEC CHEF DU BOIS", "codeape": "012G", "cp": "85390" }, "geometry": { "type": "Point", "coordinates": [ -0.846438, 46.686063 ] } },
{ "type": "Feature", "properties": { "gml_id": "ETABLISSEMENTS_POLLUEURS.7602", "identifiant": "75850158", "idetab": "7602", "nom": "EARL MILLET", "codeape": "012G", "cp": "85390" }, "geometry": { "type": "Point", "coordinates": [ -0.801016, 46.65234 ] } },
{ "type": "Feature", "properties": { "gml_id": "ETABLISSEMENTS_POLLUEURS.596089", "identifiant": "0057902445", "idetab": "596089", "nom": "LES COEURS VAILLANTS", "codeape": "0147Z", "cp": "79700" }, "geometry": { "type": "Point", "coordinates": [ -0.848711, 46.955888 ] } },
{ "type": "Feature", "properties": { "gml_id": "ETABLISSEMENTS_POLLUEURS.598771", "identifiant": "0057902927", "idetab": "598771", "nom": "VINORION", "codeape": "0147Z", "cp": "79700" }, "geometry": { "type": "Point", "coordinates": [ -0.80273, 46.9052 ] } },
{ "type": "Feature", "properties": { "gml_id": "ETABLISSEMENTS_POLLUEURS.596064", "identifiant": "0058503688", "idetab": "596064", "nom": "EARL ALBERT", "codeape": "0147Z", "cp": "85590" }, "geometry": { "type": "Point", "coordinates": [ -0.85016, 46.90331 ] } },
{ "type": "Feature", "properties": { "gml_id": "ETABLISSEMENTS_POLLUEURS.5963", "identifiant": "79500009", "idetab": "5963", "nom": "SCEA VOL AU VENT", "codeape": "012G", "cp": "79700" }, "geometry": { "type": "Point", "coordinates": [ -0.748222, 46.934157 ] } },
{ "type": "Feature", "properties": { "gml_id": "ETABLISSEMENTS_POLLUEURS.598292", "identifiant": "0057900697", "idetab": "598292", "nom": "EARL MAISON", "codeape": "0146Z", "cp": "79700" }, "geometry": { "type": "Point", "coordinates": [ -0.771172, 46.963454 ] } },
{ "type": "Feature", "properties": { "gml_id": "ETABLISSEMENTS_POLLUEURS.596199", "identifiant": "0057900594", "idetab": "596199", "nom": "MERCERON FABRICE", "codeape": "0147Z", "cp": "79700" }, "geometry": { "type": "Point", "coordinates": [ -0.75647, 46.86338 ] } },
{ "type": "Feature", "properties": { "gml_id": "ETABLISSEMENTS_POLLUEURS.596420", "identifiant": "0057902935", "idetab": "596420", "nom": "MERCERON ANNE MARIE", "codeape": "0147Z", "cp": "79700" }, "geometry": { "type": "Point", "coordinates": [ -0.75647, 46.86338 ] } },
{ "type": "Feature", "properties": { "gml_id": "ETABLISSEMENTS_POLLUEURS.595438", "identifiant": "0057900551", "idetab": "595438", "nom": "DU PETIT MOULIN", "codeape": "0141Z", "cp": "79700" }, "geometry": { "type": "Point", "coordinates": [ -0.75544, 46.89274 ] } },
{ "type": "Feature", "properties": { "gml_id": "ETABLISSEMENTS_POLLUEURS.595575", "identifiant": "0057902737", "idetab": "595575", "nom": "ARNOU", "codeape": "0150Z", "cp": "79140" }, "geometry": { "type": "Point", "coordinates": [ -0.745338, 46.852156 ] } },
{ "type": "Feature", "properties": { "gml_id": "ETABLISSEMENTS_POLLUEURS.8139", "identifiant": "0007201973", "idetab": "8139", "nom": "CARROSSERIE AUBINEAU (ATELIER DE CONSTRUCTION)", "codeape": "2920Z", "cp": "79700" }, "geometry": { "type": "Point", "coordinates": [ -0.740233, 46.880698 ] } },
{ "type": "Feature", "properties": { "gml_id": "ETABLISSEMENTS_POLLUEURS.596319", "identifiant": "0007210691", "idetab": "596319", "nom": "HAY BENOIT", "codeape": "0145Z", "cp": "79700" }, "geometry": { "type": "Point", "coordinates": [ -0.70867, 46.91899 ] } },
{ "type": "Feature", "properties": { "gml_id": "ETABLISSEMENTS_POLLUEURS.595965", "identifiant": "0057900267", "idetab": "595965", "nom": "CAILLAUD VALERIE", "codeape": "0147Z", "cp": "79700" }, "geometry": { "type": "Point", "coordinates": [ -0.69183, 46.89613 ] } },
{ "type": "Feature", "properties": { "gml_id": "ETABLISSEMENTS_POLLUEURS.13721", "identifiant": "0007202116", "idetab": "13721", "nom": "REVEAU MENUISERIE", "codeape": "1623Z", "cp": "79140" }, "geometry": { "type": "Point", "coordinates": [ -0.690154, 46.863423 ] } },
{ "type": "Feature", "properties": { "gml_id": "ETABLISSEMENTS_POLLUEURS.7043", "identifiant": "0007201411", "idetab": "7043", "nom": "HEULIEZ BUS", "codeape": "2910Z", "cp": "79700" }, "geometry": { "type": "Point", "coordinates": [ -0.68509, 46.90418 ] } },
{ "type": "Feature", "properties": { "gml_id": "ETABLISSEMENTS_POLLUEURS.597772", "identifiant": "0057902425", "idetab": "597772", "nom": "GAEC LE CHEMIN VERT", "codeape": "0142Z", "cp": "79700" }, "geometry": { "type": "Point", "coordinates": [ -0.68478, 46.93201 ] } },
{ "type": "Feature", "properties": { "gml_id": "ETABLISSEMENTS_POLLUEURS.597688", "identifiant": "0007210649", "idetab": "597688", "nom": "LMA PASQUIER", "codeape": "0147Z", "cp": "79140" }, "geometry": { "type": "Point", "coordinates": [ -0.64241, 46.85511 ] } },
{ "type": "Feature", "properties": { "gml_id": "ETABLISSEMENTS_POLLUEURS.2139", "identifiant": "0006302488", "idetab": "2139", "nom": "PATISSERIE PASQUIER CERQUEUX", "codeape": "1071A", "cp": "49360" }, "geometry": { "type": "Point", "coordinates": [ -0.6419, 46.99991 ] } },
{ "type": "Feature", "properties": { "gml_id": "ETABLISSEMENTS_POLLUEURS.589897", "identifiant": "0007211721", "idetab": "589897", "nom": "CHARIER TP SUD", "codeape": "4211Z", "cp": "79140" }, "geometry": { "type": "Point", "coordinates": [ -0.64155, 46.88381 ] } },
{ "type": "Feature", "properties": { "gml_id": "ETABLISSEMENTS_POLLUEURS.7077", "identifiant": "0007206444", "idetab": "7077", "nom": "BRANGEON RECYCLAGE ATLANTIQUE", "codeape": "3821Z", "cp": "79140" }, "geometry": { "type": "Point", "coordinates": [ -0.63692, 46.8839 ] } },
{ "type": "Feature", "properties": { "gml_id": "ETABLISSEMENTS_POLLUEURS.591185", "identifiant": "0057900286", "idetab": "591185", "nom": "LMA PASQUIER", "codeape": "0147Z", "cp": "79140" }, "geometry": { "type": "Point", "coordinates": [ -0.62494, 46.8534 ] } },
{ "type": "Feature", "properties": { "gml_id": "ETABLISSEMENTS_POLLUEURS.13284", "identifiant": "0007202184", "idetab": "13284", "nom": "LES ATELIERS DU BOCAGE", "codeape": "8810C", "cp": "79140" }, "geometry": { "type": "Point", "coordinates": [ -0.6065, 46.86435 ] } },
{ "type": "Feature", "properties": { "gml_id": "ETABLISSEMENTS_POLLUEURS.596312", "identifiant": "0057900155", "idetab": "596312", "nom": "GAEC DE NAZARETH", "codeape": "0150Z", "cp": "79140" }, "geometry": { "type": "Point", "coordinates": [ -0.60554, 46.86267 ] } },
{ "type": "Feature", "properties": { "gml_id": "ETABLISSEMENTS_POLLUEURS.597833", "identifiant": "0007210682", "idetab": "597833", "nom": "SCEA GODET NATHALIE", "codeape": "0147Z", "cp": "79250" }, "geometry": { "type": "Point", "coordinates": [ -0.6003, 46.97341 ] } },
{ "type": "Feature", "properties": { "gml_id": "ETABLISSEMENTS_POLLUEURS.12451", "identifiant": "0007202052", "idetab": "12451", "nom": "ARRIVE-BELLANNE", "codeape": "1091Z", "cp": "79250" }, "geometry": { "type": "Point", "coordinates": [ -0.59633, 46.94053 ] } },
{ "type": "Feature", "properties": { "gml_id": "ETABLISSEMENTS_POLLUEURS.12646", "identifiant": "0057900511", "idetab": "12646", "nom": "GALLIANCE INDUSTRIE SEVRIENNE", "codeape": "1012Z", "cp": "79250" }, "geometry": { "type": "Point", "coordinates": [ -0.5799, 46.92731 ] } },
{ "type": "Feature", "properties": { "gml_id": "ETABLISSEMENTS_POLLUEURS.5355", "identifiant": "0007201641", "idetab": "5355", "nom": "GASTRONOME NUEIL", "codeape": "1012Z", "cp": "79250" }, "geometry": { "type": "Point", "coordinates": [ -0.578749, 46.927081 ] } },
{ "type": "Feature", "properties": { "gml_id": "ETABLISSEMENTS_POLLUEURS.13918", "identifiant": "0057900513", "idetab": "13918", "nom": "GALLIANCE NUEIL", "codeape": "1012Z", "cp": "79250" }, "geometry": { "type": "Point", "coordinates": [ -0.57827, 46.92951 ] } },
{ "type": "Feature", "properties": { "gml_id": "ETABLISSEMENTS_POLLUEURS.7040", "identifiant": "0007201190", "idetab": "7040", "nom": "GASTRONOME INDUSTRIE SEVRIENNE", "codeape": "1012Z", "cp": "79250" }, "geometry": { "type": "Point", "coordinates": [ -0.577495, 46.925762 ] } },
{ "type": "Feature", "properties": { "gml_id": "ETABLISSEMENTS_POLLUEURS.595724", "identifiant": "0057900046", "idetab": "595724", "nom": "EARL LA TREMBLAIE", "codeape": "0147Z", "cp": "79250" }, "geometry": { "type": "Point", "coordinates": [ -0.56797, 46.95725 ] } },
{ "type": "Feature", "properties": { "gml_id": "ETABLISSEMENTS_POLLUEURS.7611", "identifiant": "79500063", "idetab": "7611", "nom": "EARL PETITES GIRARDIERES", "codeape": "", "cp": "79250" }, "geometry": { "type": "Point", "coordinates": [ -0.586679, 46.944556 ] } },
{ "type": "Feature", "properties": { "gml_id": "ETABLISSEMENTS_POLLUEURS.588332", "identifiant": "79500110", "idetab": "588332", "nom": "EARL DU PETIT MOULIN", "codeape": "0147Z", "cp": "79700" }, "geometry": { "type": "Point", "coordinates": [ -0.735368, 46.889054 ] } },
{ "type": "Feature", "properties": { "gml_id": "ETABLISSEMENTS_POLLUEURS.596403", "identifiant": "0006307199", "idetab": "596403", "nom": "EARL AVIPO", "codeape": "0147Z", "cp": "85120" }, "geometry": { "type": "Point", "coordinates": [ -0.71648, 46.61598 ] } },
{ "type": "Feature", "properties": { "gml_id": "ETABLISSEMENTS_POLLUEURS.597071", "identifiant": "0007210505", "idetab": "597071", "nom": "EARL LES GALLINACES", "codeape": "0147Z", "cp": "79240" }, "geometry": { "type": "Point", "coordinates": [ -0.59949, 46.61979 ] } },
{ "type": "Feature", "properties": { "gml_id": "ETABLISSEMENTS_POLLUEURS.597125", "identifiant": "0057900694", "idetab": "597125", "nom": "BLUTEAU LAURENT", "codeape": "0142Z", "cp": "79240" }, "geometry": { "type": "Point", "coordinates": [ -0.58758, 46.62621 ] } },
{ "type": "Feature", "properties": { "gml_id": "ETABLISSEMENTS_POLLUEURS.591192", "identifiant": "0057900689", "idetab": "591192", "nom": "EARL LES GALLINACES", "codeape": "0147Z", "cp": "79240" }, "geometry": { "type": "Point", "coordinates": [ -0.6148, 46.63242 ] } },
{ "type": "Feature", "properties": { "gml_id": "ETABLISSEMENTS_POLLUEURS.595835", "identifiant": "0057900769", "idetab": "595835", "nom": "DAVID DOMINIQUE", "codeape": "0147Z", "cp": "79240" }, "geometry": { "type": "Point", "coordinates": [ -0.55562, 46.6331 ] } },
{ "type": "Feature", "properties": { "gml_id": "ETABLISSEMENTS_POLLUEURS.592816", "identifiant": "0057900418", "idetab": "592816", "nom": "EARL MICHONNEAU THOMAS", "codeape": "0145Z", "cp": "79240" }, "geometry": { "type": "Point", "coordinates": [ -0.5105, 46.64666 ] } },
{ "type": "Feature", "properties": { "gml_id": "ETABLISSEMENTS_POLLUEURS.596337", "identifiant": "0057900001", "idetab": "596337", "nom": "EARL AGVOL", "codeape": "0147Z", "cp": "79240" }, "geometry": { "type": "Point", "coordinates": [ -0.54033, 46.6475 ] } },
{ "type": "Feature", "properties": { "gml_id": "ETABLISSEMENTS_POLLUEURS.595805", "identifiant": "0057900508", "idetab": "595805", "nom": "EARL L'ETANG", "codeape": "0147Z", "cp": "79130" }, "geometry": { "type": "Point", "coordinates": [ -0.46141, 46.65505 ] } },
{ "type": "Feature", "properties": { "gml_id": "ETABLISSEMENTS_POLLUEURS.592821", "identifiant": "0057900002", "idetab": "592821", "nom": "GAEC DU MOULIN NEUF", "codeape": "0146Z", "cp": "79240" }, "geometry": { "type": "Point", "coordinates": [ -0.55273, 46.67142 ] } },
{ "type": "Feature", "properties": { "gml_id": "ETABLISSEMENTS_POLLUEURS.595816", "identifiant": "0057900422", "idetab": "595816", "nom": "GAEC BIROT", "codeape": "0150Z", "cp": "79240" }, "geometry": { "type": "Point", "coordinates": [ -0.54111, 46.68391 ] } },
{ "type": "Feature", "properties": { "gml_id": "ETABLISSEMENTS_POLLUEURS.589204", "identifiant": "0007211897", "idetab": "589204", "nom": "SARL JOURDAIN MICHEL", "codeape": "4312A", "cp": "79240" }, "geometry": { "type": "Point", "coordinates": [ -0.57464, 46.68418 ] } },
{ "type": "Feature", "properties": { "gml_id": "ETABLISSEMENTS_POLLUEURS.13719", "identifiant": "0007201327", "idetab": "13719", "nom": "RIBOULEAU MONOSEM", "codeape": "2830Z", "cp": "79240" }, "geometry": { "type": "Point", "coordinates": [ -0.49833, 46.69549 ] } },
{ "type": "Feature", "properties": { "gml_id": "ETABLISSEMENTS_POLLUEURS.595691", "identifiant": "0057900491", "idetab": "595691", "nom": "GILLES CLAUDE", "codeape": "0146Z", "cp": "79320" }, "geometry": { "type": "Point", "coordinates": [ -0.63601, 46.69771 ] } },
{ "type": "Feature", "properties": { "gml_id": "ETABLISSEMENTS_POLLUEURS.592784", "identifiant": "0057900162", "idetab": "592784", "nom": "SCEA DEBORDE AVICULTURE", "codeape": "0147Z", "cp": "79320" }, "geometry": { "type": "Point", "coordinates": [ -0.55367, 46.70786 ] } },
{ "type": "Feature", "properties": { "gml_id": "ETABLISSEMENTS_POLLUEURS.598306", "identifiant": "0057900370", "idetab": "598306", "nom": "VRIGNEAU RÉGIS", "codeape": "0147Z", "cp": "79380" }, "geometry": { "type": "Point", "coordinates": [ -0.66237, 46.71243 ] } },
{ "type": "Feature", "properties": { "gml_id": "ETABLISSEMENTS_POLLUEURS.10786", "identifiant": "0006303961", "idetab": "10786", "nom": "FERTIL'EVEIL", "codeape": "3821Z", "cp": "85120" }, "geometry": { "type": "Point", "coordinates": [ -0.673685, 46.720395 ] } },
{ "type": "Feature", "properties": { "gml_id": "ETABLISSEMENTS_POLLUEURS.588145", "identifiant": "0007202437", "idetab": "588145", "nom": "BELLAVOL", "codeape": "1091Z", "cp": "79320" }, "geometry": { "type": "Point", "coordinates": [ -0.59269, 46.72113 ] } },
{ "type": "Feature", "properties": { "gml_id": "ETABLISSEMENTS_POLLUEURS.595746", "identifiant": "0057900382", "idetab": "595746", "nom": "SAS VIOLLEAU", "codeape": "2015Z", "cp": "79380" }, "geometry": { "type": "Point", "coordinates": [ -0.663922, 46.721584 ] } },
{ "type": "Feature", "properties": { "gml_id": "ETABLISSEMENTS_POLLUEURS.592995", "identifiant": "0057900378", "idetab": "592995", "nom": "EXPLOITATION AGRICOLE A RESPONSABILITE LIMITEE  LE BUISSON", "codeape": "0147Z", "cp": "79380" }, "geometry": { "type": "Point", "coordinates": [ -0.63785, 46.72419 ] } },
{ "type": "Feature", "properties": { "gml_id": "ETABLISSEMENTS_POLLUEURS.5335", "identifiant": "0007201299", "idetab": "5335", "nom": "GASTRONOME INDUSTRIE SEVRIENNE", "codeape": "1012Z", "cp": "79320" }, "geometry": { "type": "Point", "coordinates": [ -0.587502, 46.724945 ] } },
{ "type": "Feature", "properties": { "gml_id": "ETABLISSEMENTS_POLLUEURS.589435", "identifiant": "0057900466", "idetab": "589435", "nom": "GALLIANCE DINDE", "codeape": "1012Z", "cp": "79320" }, "geometry": { "type": "Point", "coordinates": [ -0.587502, 46.724945 ] } },
{ "type": "Feature", "properties": { "gml_id": "ETABLISSEMENTS_POLLUEURS.592994", "identifiant": "0057900379", "idetab": "592994", "nom": "EXPLOITATION AGRICOLE A RESPONSABILITE LIMITEE  LE BUISSON", "codeape": "0147Z", "cp": "79380" }, "geometry": { "type": "Point", "coordinates": [ -0.63998, 46.72523 ] } },
{ "type": "Feature", "properties": { "gml_id": "ETABLISSEMENTS_POLLUEURS.595430", "identifiant": "0057900381", "idetab": "595430", "nom": "EXPLOITATION AGRICOLE A RESPONSABILITE LIMITEE BOCAVOL", "codeape": "0147Z", "cp": "79380" }, "geometry": { "type": "Point", "coordinates": [ -0.66645, 46.73169 ] } },
{ "type": "Feature", "properties": { "gml_id": "ETABLISSEMENTS_POLLUEURS.7060", "identifiant": "0007202250", "idetab": "7060", "nom": "MEUBLES CELIO", "codeape": "3109B", "cp": "79430" }, "geometry": { "type": "Point", "coordinates": [ -0.47502, 46.73851 ] } },
{ "type": "Feature", "properties": { "gml_id": "ETABLISSEMENTS_POLLUEURS.592724", "identifiant": "0057900474", "idetab": "592724", "nom": "LEMAY JARROLD", "codeape": "0147Z", "cp": "79320" }, "geometry": { "type": "Point", "coordinates": [ -0.57701, 46.74928 ] } },
{ "type": "Feature", "properties": { "gml_id": "ETABLISSEMENTS_POLLUEURS.595589", "identifiant": "0057900639", "idetab": "595589", "nom": "VINCENT MARSAULT", "codeape": "0150Z", "cp": "79380" }, "geometry": { "type": "Point", "coordinates": [ -0.619, 46.75507 ] } },
{ "type": "Feature", "properties": { "gml_id": "ETABLISSEMENTS_POLLUEURS.597738", "identifiant": "0057900201", "idetab": "597738", "nom": "BIRONNEAU RÉMI", "codeape": "0147Z", "cp": "79320" }, "geometry": { "type": "Point", "coordinates": [ -0.49635, 46.75741 ] } },
{ "type": "Feature", "properties": { "gml_id": "ETABLISSEMENTS_POLLUEURS.592798", "identifiant": "0057900477", "idetab": "592798", "nom": "NEAU", "codeape": "0147Z", "cp": "79320" }, "geometry": { "type": "Point", "coordinates": [ -0.559, 46.75878 ] } },
{ "type": "Feature", "properties": { "gml_id": "ETABLISSEMENTS_POLLUEURS.589199", "identifiant": "0007211620", "idetab": "589199", "nom": "SO.VA.MAT", "codeape": "3832Z", "cp": "79430" }, "geometry": { "type": "Point", "coordinates": [ -0.504409, 46.760522 ] } },
{ "type": "Feature", "properties": { "gml_id": "ETABLISSEMENTS_POLLUEURS.595892", "identifiant": "0057900312", "idetab": "595892", "nom": "BOISSINOT NICOLAS", "codeape": "0147Z", "cp": "79440" }, "geometry": { "type": "Point", "coordinates": [ -0.55738, 46.76488 ] } },
{ "type": "Feature", "properties": { "gml_id": "ETABLISSEMENTS_POLLUEURS.595285", "identifiant": "0057900202", "idetab": "595285", "nom": "SCEA TOUT EN PLUME", "codeape": "0147Z", "cp": "79320" }, "geometry": { "type": "Point", "coordinates": [ -0.50353, 46.76629 ] } },
{ "type": "Feature", "properties": { "gml_id": "ETABLISSEMENTS_POLLUEURS.8601", "identifiant": "0007204567", "idetab": "8601", "nom": "VIOLLEAU SAS", "codeape": "2015Z", "cp": "79380" }, "geometry": { "type": "Point", "coordinates": [ -0.64908, 46.770537 ] } },
{ "type": "Feature", "properties": { "gml_id": "ETABLISSEMENTS_POLLUEURS.597132", "identifiant": "0057903166", "idetab": "597132", "nom": "EARL AGVOL", "codeape": "0147Z", "cp": "79240" }, "geometry": { "type": "Point", "coordinates": [ -0.52141, 46.63445 ] } },
{ "type": "Feature", "properties": { "gml_id": "ETABLISSEMENTS_POLLUEURS.595780", "identifiant": "0058500798", "idetab": "595780", "nom": "GAEC LES LYS", "codeape": "0146Z", "cp": "85120" }, "geometry": { "type": "Point", "coordinates": [ -0.64503, 46.62808 ] } },
{ "type": "Feature", "properties": { "gml_id": "ETABLISSEMENTS_POLLUEURS.596436", "identifiant": "0058500832", "idetab": "596436", "nom": "CHARAL", "codeape": "1011Z", "cp": "85120" }, "geometry": { "type": "Point", "coordinates": [ -0.73512, 46.64199 ] } },
{ "type": "Feature", "properties": { "gml_id": "ETABLISSEMENTS_POLLUEURS.597767", "identifiant": "0058501757", "idetab": "597767", "nom": "TREILLE-BOIS", "codeape": "0142Z", "cp": "85120" }, "geometry": { "type": "Point", "coordinates": [ -0.68604, 46.61665 ] } },
{ "type": "Feature", "properties": { "gml_id": "ETABLISSEMENTS_POLLUEURS.595628", "identifiant": "0058501925", "idetab": "595628", "nom": "EARL L'OPALE", "codeape": "0147Z", "cp": "85700" }, "geometry": { "type": "Point", "coordinates": [ -0.70684, 46.7219 ] } },
{ "type": "Feature", "properties": { "gml_id": "ETABLISSEMENTS_POLLUEURS.13919", "identifiant": "0058503373", "idetab": "13919", "nom": "EARL MARUVOL", "codeape": "0147Z", "cp": "85120" }, "geometry": { "type": "Point", "coordinates": [ -0.699202, 46.696956 ] } },
{ "type": "Feature", "properties": { "gml_id": "ETABLISSEMENTS_POLLUEURS.598429", "identifiant": "0058503605", "idetab": "598429", "nom": "BOISSINOT SEBASTIEN", "codeape": "0150Z", "cp": "85120" }, "geometry": { "type": "Point", "coordinates": [ -0.71833, 46.67359 ] } },
{ "type": "Feature", "properties": { "gml_id": "ETABLISSEMENTS_POLLUEURS.595567", "identifiant": "0058503946", "idetab": "595567", "nom": "EARL ECLIPSE", "codeape": "0147Z", "cp": "85700" }, "geometry": { "type": "Point", "coordinates": [ -0.70616, 46.71929 ] } },
{ "type": "Feature", "properties": { "gml_id": "ETABLISSEMENTS_POLLUEURS.7281", "identifiant": "10859470", "idetab": "7281", "nom": "GAEC LE MANOIR", "codeape": "0147Z", "cp": "85120" }, "geometry": { "type": "Point", "coordinates": [ -0.719068, 46.609448 ] } },
{ "type": "Feature", "properties": { "gml_id": "ETABLISSEMENTS_POLLUEURS.7283", "identifiant": "10859840", "idetab": "7283", "nom": "EARL L ENERGIE", "codeape": "012G", "cp": "85120" }, "geometry": { "type": "Point", "coordinates": [ -0.694348, 46.70531 ] } },
{ "type": "Feature", "properties": { "gml_id": "ETABLISSEMENTS_POLLUEURS.5957", "identifiant": "79500002", "idetab": "5957", "nom": "EARL BOCAVOL", "codeape": "0147Z", "cp": "79380" }, "geometry": { "type": "Point", "coordinates": [ -0.644212, 46.778889 ] } },
{ "type": "Feature", "properties": { "gml_id": "ETABLISSEMENTS_POLLUEURS.5958", "identifiant": "79500003", "idetab": "5958", "nom": "EARL LE BUISSON", "codeape": "0147Z", "cp": "79380" }, "geometry": { "type": "Point", "coordinates": [ -0.644212, 46.778889 ] } },
{ "type": "Feature", "properties": { "gml_id": "ETABLISSEMENTS_POLLUEURS.5960", "identifiant": "79500006", "idetab": "5960", "nom": "SCEA LE QUAIREUX", "codeape": "0147Z", "cp": "79380" }, "geometry": { "type": "Point", "coordinates": [ -0.644212, 46.778889 ] } },
{ "type": "Feature", "properties": { "gml_id": "ETABLISSEMENTS_POLLUEURS.5961", "identifiant": "79500007", "idetab": "5961", "nom": "SCEA BROUARD", "codeape": "012G", "cp": "79240" }, "geometry": { "type": "Point", "coordinates": [ -0.494288, 46.701344 ] } },
{ "type": "Feature", "properties": { "gml_id": "ETABLISSEMENTS_POLLUEURS.5964", "identifiant": "79500010", "idetab": "5964", "nom": "EARL MAROLLEAU", "codeape": "0147Z", "cp": "79240" }, "geometry": { "type": "Point", "coordinates": [ -0.572369, 46.640296 ] } },
{ "type": "Feature", "properties": { "gml_id": "ETABLISSEMENTS_POLLUEURS.13928", "identifiant": "79500052", "idetab": "13928", "nom": "AUBINEAU FABRICE", "codeape": "0147Z", "cp": "79240" }, "geometry": { "type": "Point", "coordinates": [ -0.612122, 46.641309 ] } },
{ "type": "Feature", "properties": { "gml_id": "ETABLISSEMENTS_POLLUEURS.13536", "identifiant": "79500084", "idetab": "13536", "nom": "SCEA DEBORDE AVICULTURE", "codeape": "0147Z", "cp": "79320" }, "geometry": { "type": "Point", "coordinates": [ -0.549807, 46.728961 ] } },
{ "type": "Feature", "properties": { "gml_id": "ETABLISSEMENTS_POLLUEURS.8464", "identifiant": "79500085", "idetab": "8464", "nom": "EARL BOCADINDES", "codeape": "0147Z", "cp": "79320" }, "geometry": { "type": "Point", "coordinates": [ -0.587989, 46.733936 ] } },
{ "type": "Feature", "properties": { "gml_id": "ETABLISSEMENTS_POLLUEURS.596995", "identifiant": "0057900143", "idetab": "596995", "nom": "GAEC SOUS LES ARBRES", "codeape": "0145Z", "cp": "79300" }, "geometry": { "type": "Point", "coordinates": [ -0.56994, 46.8027 ] } },
{ "type": "Feature", "properties": { "gml_id": "ETABLISSEMENTS_POLLUEURS.7055", "identifiant": "0007201811", "idetab": "7055", "nom": "COMEBO INDUSTRIES", "codeape": "2830Z", "cp": "79300" }, "geometry": { "type": "Point", "coordinates": [ -0.55144, 46.80799 ] } },
{ "type": "Feature", "properties": { "gml_id": "ETABLISSEMENTS_POLLUEURS.595401", "identifiant": "0057900142", "idetab": "595401", "nom": "SCEA AVICOLORADO", "codeape": "0147Z", "cp": "79300" }, "geometry": { "type": "Point", "coordinates": [ -0.48679, 46.80861 ] } },
{ "type": "Feature", "properties": { "gml_id": "ETABLISSEMENTS_POLLUEURS.592851", "identifiant": "0057900182", "idetab": "592851", "nom": "GAEC LA GONDROMIERE", "codeape": "0147Z", "cp": "79140" }, "geometry": { "type": "Point", "coordinates": [ -0.669179, 46.811148 ] } },
{ "type": "Feature", "properties": { "gml_id": "ETABLISSEMENTS_POLLUEURS.11073", "identifiant": "0007204193", "idetab": "11073", "nom": "SARL TOP AUTO", "codeape": "4677Z", "cp": "79140" }, "geometry": { "type": "Point", "coordinates": [ -0.66926, 46.81969 ] } },
{ "type": "Feature", "properties": { "gml_id": "ETABLISSEMENTS_POLLUEURS.588166", "identifiant": "0007208358", "idetab": "588166", "nom": "SAS PELLETIER TP", "codeape": "4312A", "cp": "79140" }, "geometry": { "type": "Point", "coordinates": [ -0.667726, 46.821366 ] } },
{ "type": "Feature", "properties": { "gml_id": "ETABLISSEMENTS_POLLUEURS.9254", "identifiant": "0007206042", "idetab": "9254", "nom": "AFM RECYCLAGE", "codeape": "3832Z", "cp": "79140" }, "geometry": { "type": "Point", "coordinates": [ -0.6777, 46.82467 ] } },
{ "type": "Feature", "properties": { "gml_id": "ETABLISSEMENTS_POLLUEURS.3223", "identifiant": "0007201587", "idetab": "3223", "nom": "CARTOL", "codeape": "2550B", "cp": "79140" }, "geometry": { "type": "Point", "coordinates": [ -0.66471, 46.82692 ] } },
{ "type": "Feature", "properties": { "gml_id": "ETABLISSEMENTS_POLLUEURS.595266", "identifiant": "0057900181", "idetab": "595266", "nom": "EXPLOITATION AGRICOLE A RESPONSABILITE LIMITEE CERVOL", "codeape": "0147Z", "cp": "79140" }, "geometry": { "type": "Point", "coordinates": [ -0.64912, 46.82727 ] } },
{ "type": "Feature", "properties": { "gml_id": "ETABLISSEMENTS_POLLUEURS.597774", "identifiant": "0007210651", "idetab": "597774", "nom": "LMA PASQUIER", "codeape": "0147Z", "cp": "79140" }, "geometry": { "type": "Point", "coordinates": [ -0.61202, 46.83346 ] } },
{ "type": "Feature", "properties": { "gml_id": "ETABLISSEMENTS_POLLUEURS.592551", "identifiant": "0057900108", "idetab": "592551", "nom": "ELIVIA", "codeape": "1011Z", "cp": "79300" }, "geometry": { "type": "Point", "coordinates": [ -0.49807, 46.83548 ] } },
{ "type": "Feature", "properties": { "gml_id": "ETABLISSEMENTS_POLLUEURS.592792", "identifiant": "0057900149", "idetab": "592792", "nom": "SCEA PELLETIER", "codeape": "0111Z", "cp": "79300" }, "geometry": { "type": "Point", "coordinates": [ -0.6012, 46.84017 ] } },
{ "type": "Feature", "properties": { "gml_id": "ETABLISSEMENTS_POLLUEURS.589436", "identifiant": "0057902253", "idetab": "589436", "nom": "COVI SAS", "codeape": "1085Z", "cp": "79300" }, "geometry": { "type": "Point", "coordinates": [ -0.495952, 46.84025 ] } },
{ "type": "Feature", "properties": { "gml_id": "ETABLISSEMENTS_POLLUEURS.8124", "identifiant": "0007201326", "idetab": "8124", "nom": "MAJENCIA", "codeape": "3101Z", "cp": "79300" }, "geometry": { "type": "Point", "coordinates": [ -0.495952, 46.84025 ] } },
{ "type": "Feature", "properties": { "gml_id": "ETABLISSEMENTS_POLLUEURS.5354", "identifiant": "0007201614", "idetab": "5354", "nom": "ELIVIA BRESSUIRE", "codeape": "1011Z", "cp": "79302" }, "geometry": { "type": "Point", "coordinates": [ -0.495952, 46.84025 ] } },
{ "type": "Feature", "properties": { "gml_id": "ETABLISSEMENTS_POLLUEURS.7059", "identifiant": "0007202170", "idetab": "7059", "nom": "MDP INDUSTRIE", "codeape": "3109B", "cp": "79000" }, "geometry": { "type": "Point", "coordinates": [ -0.495952, 46.84025 ] } },
{ "type": "Feature", "properties": { "gml_id": "ETABLISSEMENTS_POLLUEURS.588144", "identifiant": "0007202182", "idetab": "588144", "nom": "MILLET PORTES ET FENÊTRES", "codeape": "1623Z", "cp": "79300" }, "geometry": { "type": "Point", "coordinates": [ -0.495952, 46.84025 ] } },
{ "type": "Feature", "properties": { "gml_id": "ETABLISSEMENTS_POLLUEURS.11055", "identifiant": "0007202188", "idetab": "11055", "nom": "SARL BRESSUIRE RECUP'AUTO", "codeape": "4520A", "cp": "79300" }, "geometry": { "type": "Point", "coordinates": [ -0.495952, 46.84025 ] } },
{ "type": "Feature", "properties": { "gml_id": "ETABLISSEMENTS_POLLUEURS.8165", "identifiant": "0007206514", "idetab": "8165", "nom": "MAJENCIA", "codeape": "3101Z", "cp": "79300" }, "geometry": { "type": "Point", "coordinates": [ -0.495952, 46.84025 ] } },
{ "type": "Feature", "properties": { "gml_id": "ETABLISSEMENTS_POLLUEURS.7078", "identifiant": "0007206789", "idetab": "7078", "nom": "COVI S.A.S.", "codeape": "1085Z", "cp": "79300" }, "geometry": { "type": "Point", "coordinates": [ -0.495952, 46.84025 ] } },
{ "type": "Feature", "properties": { "gml_id": "ETABLISSEMENTS_POLLUEURS.5944", "identifiant": "79062292", "idetab": "5944", "nom": "GAEC LA GONDROMIERE", "codeape": "0147Z", "cp": "79140" }, "geometry": { "type": "Point", "coordinates": [ -0.662856, 46.829719 ] } },
{ "type": "Feature", "properties": { "gml_id": "ETABLISSEMENTS_POLLUEURS.5948", "identifiant": "79091912", "idetab": "5948", "nom": "EARL LMA PASQUIER", "codeape": "0147Z", "cp": "79140" }, "geometry": { "type": "Point", "coordinates": [ -0.615747, 46.844979 ] } },
{ "type": "Feature", "properties": { "gml_id": "ETABLISSEMENTS_POLLUEURS.10468", "identifiant": "79500025", "idetab": "10468", "nom": "GAEC PASQUIER", "codeape": "0147Z", "cp": "79140" }, "geometry": { "type": "Point", "coordinates": [ -0.621119, 46.845619 ] } },
{ "type": "Feature", "properties": { "gml_id": "ETABLISSEMENTS_POLLUEURS.7613", "identifiant": "79500102", "idetab": "7613", "nom": "EARL LE COLOMBIER", "codeape": "0147Z", "cp": "79380" }, "geometry": { "type": "Point", "coordinates": [ -0.672413, 46.791322 ] } },
{ "type": "Feature", "properties": { "gml_id": "ETABLISSEMENTS_POLLUEURS.599100", "identifiant": "0006303136", "idetab": "599100", "nom": "LUCAS G.", "codeape": "2830Z", "cp": "85130" }, "geometry": { "type": "Point", "coordinates": [ -0.99517, 46.96454 ] } },
{ "type": "Feature", "properties": { "gml_id": "ETABLISSEMENTS_POLLUEURS.598368", "identifiant": "0058503778", "idetab": "598368", "nom": "EARL PINEAU JBL", "codeape": "0147Z", "cp": "85130" }, "geometry": { "type": "Point", "coordinates": [ -0.99203, 46.95161 ] } },
{ "type": "Feature", "properties": { "gml_id": "ETABLISSEMENTS_POLLUEURS.597258", "identifiant": "0006307043", "idetab": "597258", "nom": "FRANCOIS BARREAU", "codeape": "0147Z", "cp": "85130" }, "geometry": { "type": "Point", "coordinates": [ -0.98521, 46.95385 ] } },
{ "type": "Feature", "properties": { "gml_id": "ETABLISSEMENTS_POLLUEURS.596379", "identifiant": "0058503791", "idetab": "596379", "nom": "EARL LE FRENE", "codeape": "0146Z", "cp": "85130" }, "geometry": { "type": "Point", "coordinates": [ -0.97738, 46.9705 ] } },
{ "type": "Feature", "properties": { "gml_id": "ETABLISSEMENTS_POLLUEURS.595926", "identifiant": "0006307491", "idetab": "595926", "nom": "LES PLUMES", "codeape": "0149Z", "cp": "85500" }, "geometry": { "type": "Point", "coordinates": [ -0.96391, 46.92101 ] } },
{ "type": "Feature", "properties": { "gml_id": "ETABLISSEMENTS_POLLUEURS.599306", "identifiant": "0006307265", "idetab": "599306", "nom": "LES QUATRE SAULES", "codeape": "0147Z", "cp": "85130" }, "geometry": { "type": "Point", "coordinates": [ -0.96011, 46.94003 ] } },
{ "type": "Feature", "properties": { "gml_id": "ETABLISSEMENTS_POLLUEURS.595901", "identifiant": "0054901758", "idetab": "595901", "nom": "BOUCHONNEAU", "codeape": "0146Z", "cp": "49280" }, "geometry": { "type": "Point", "coordinates": [ -0.95564, 46.99896 ] } },
{ "type": "Feature", "properties": { "gml_id": "ETABLISSEMENTS_POLLUEURS.588901", "identifiant": "0006307676", "idetab": "588901", "nom": "SAS AGRIBIOMETHANE", "codeape": "3821Z", "cp": "85290" }, "geometry": { "type": "Point", "coordinates": [ -0.949947, 46.993358 ] } },
{ "type": "Feature", "properties": { "gml_id": "ETABLISSEMENTS_POLLUEURS.12301", "identifiant": "0006301135", "idetab": "12301", "nom": "SMURFIT WESTROCK FRANCE", "codeape": "1721A", "cp": "85291" }, "geometry": { "type": "Point", "coordinates": [ -0.94351, 46.99532 ] } },
{ "type": "Feature", "properties": { "gml_id": "ETABLISSEMENTS_POLLUEURS.591490", "identifiant": "0006303268", "idetab": "591490", "nom": "VIENNOISERIE LIGERIENNE", "codeape": "1071A", "cp": "85290" }, "geometry": { "type": "Point", "coordinates": [ -0.93438, 46.98673 ] } },
{ "type": "Feature", "properties": { "gml_id": "ETABLISSEMENTS_POLLUEURS.590165", "identifiant": "0058503100", "idetab": "590165", "nom": "SAS LES PERCHOIRS", "codeape": "0147Z", "cp": "85590" }, "geometry": { "type": "Point", "coordinates": [ -0.93219, 46.92885 ] } },
{ "type": "Feature", "properties": { "gml_id": "ETABLISSEMENTS_POLLUEURS.596501", "identifiant": "0006306701", "idetab": "596501", "nom": "AGRIBIOMETHANE", "codeape": "3821Z", "cp": "85290" }, "geometry": { "type": "Point", "coordinates": [ -0.93016, 46.99324 ] } },
{ "type": "Feature", "properties": { "gml_id": "ETABLISSEMENTS_POLLUEURS.597769", "identifiant": "0058503097", "idetab": "597769", "nom": "TALEC CHRISTOPHE", "codeape": "0147Z", "cp": "85590" }, "geometry": { "type": "Point", "coordinates": [ -0.90936, 46.92743 ] } },
{ "type": "Feature", "properties": { "gml_id": "ETABLISSEMENTS_POLLUEURS.12300", "identifiant": "0006300214", "idetab": "12300", "nom": "SNC CARRIERE DE LA ROCHE ATARD", "codeape": "0812Z", "cp": "49300" }, "geometry": { "type": "Point", "coordinates": [ -0.89657, 46.98095 ] } },
{ "type": "Feature", "properties": { "gml_id": "ETABLISSEMENTS_POLLUEURS.4674", "identifiant": "0006301260", "idetab": "4674", "nom": "SVPM", "codeape": "2561Z", "cp": "85290" }, "geometry": { "type": "Point", "coordinates": [ -0.8875, 46.96577 ] } },
{ "type": "Feature", "properties": { "gml_id": "ETABLISSEMENTS_POLLUEURS.596092", "identifiant": "0058504052", "idetab": "596092", "nom": "SCEA LES VALLONS", "codeape": "0149Z", "cp": "85130" }, "geometry": { "type": "Point", "coordinates": [ -0.99908, 46.91093 ] } },
{ "type": "Feature", "properties": { "gml_id": "ETABLISSEMENTS_POLLUEURS.13806", "identifiant": "10850718", "idetab": "13806", "nom": "EARL LA VERGNAIE", "codeape": "0147Z", "cp": "85130" }, "geometry": { "type": "Point", "coordinates": [ -0.990523, 46.969567 ] } },
{ "type": "Feature", "properties": { "gml_id": "ETABLISSEMENTS_POLLUEURS.596358", "identifiant": "0057900115", "idetab": "596358", "nom": "MORIN", "codeape": "0142Z", "cp": "79300" }, "geometry": { "type": "Point", "coordinates": [ -0.52408, 46.86614 ] } },
{ "type": "Feature", "properties": { "gml_id": "ETABLISSEMENTS_POLLUEURS.597704", "identifiant": "0057908961", "idetab": "597704", "nom": "EI LETHOUEIL", "codeape": "0147Z", "cp": "79150" }, "geometry": { "type": "Point", "coordinates": [ -0.51437, 46.96306 ] } },
{ "type": "Feature", "properties": { "gml_id": "ETABLISSEMENTS_POLLUEURS.597740", "identifiant": "0057900786", "idetab": "597740", "nom": "EARL DE PONCEAU", "codeape": "0142Z", "cp": "79150" }, "geometry": { "type": "Point", "coordinates": [ -0.51437, 46.96306 ] } },
{ "type": "Feature", "properties": { "gml_id": "ETABLISSEMENTS_POLLUEURS.597007", "identifiant": "0057903205", "idetab": "597007", "nom": "VOLCANE", "codeape": "0147Z", "cp": "79150" }, "geometry": { "type": "Point", "coordinates": [ -0.51437, 46.96306 ] } },
{ "type": "Feature", "properties": { "gml_id": "ETABLISSEMENTS_POLLUEURS.598303", "identifiant": "0057900079", "idetab": "598303", "nom": "BOESSE", "codeape": "0147Z", "cp": "79150" }, "geometry": { "type": "Point", "coordinates": [ -0.48011, 46.98143 ] } },
{ "type": "Feature", "properties": { "gml_id": "ETABLISSEMENTS_POLLUEURS.11054", "identifiant": "0007202164", "idetab": "11054", "nom": "HOUDELOT NEGOCE SARL", "codeape": "3832Z", "cp": "79300" }, "geometry": { "type": "Point", "coordinates": [ -0.46752, 46.84869 ] } },
{ "type": "Feature", "properties": { "gml_id": "ETABLISSEMENTS_POLLUEURS.597072", "identifiant": "0057900133", "idetab": "597072", "nom": "EARL CHABAUTY ROMAIN", "codeape": "0142Z", "cp": "79300" }, "geometry": { "type": "Point", "coordinates": [ -0.44997, 46.87023 ] } },
{ "type": "Feature", "properties": { "gml_id": "ETABLISSEMENTS_POLLUEURS.591183", "identifiant": "0057900148", "idetab": "591183", "nom": "DANS LE 7 N'OEUFS", "codeape": "0147Z", "cp": "79300" }, "geometry": { "type": "Point", "coordinates": [ -0.44445, 46.84764 ] } },
{ "type": "Feature", "properties": { "gml_id": "ETABLISSEMENTS_POLLUEURS.591218", "identifiant": "0058502167", "idetab": "591218", "nom": "SARL LA SAPINIERE", "codeape": "0147Z", "cp": "79150" }, "geometry": { "type": "Point", "coordinates": [ -0.439671, 46.963378 ] } },
{ "type": "Feature", "properties": { "gml_id": "ETABLISSEMENTS_POLLUEURS.596383", "identifiant": "0057900033", "idetab": "596383", "nom": "SCEA GALLIFORME", "codeape": "0147Z", "cp": "79150" }, "geometry": { "type": "Point", "coordinates": [ -0.43904, 46.95778 ] } },
{ "type": "Feature", "properties": { "gml_id": "ETABLISSEMENTS_POLLUEURS.591182", "identifiant": "0057900147", "idetab": "591182", "nom": "SCEA BLAVI", "codeape": "0147Z", "cp": "79300" }, "geometry": { "type": "Point", "coordinates": [ -0.43364, 46.88649 ] } },
{ "type": "Feature", "properties": { "gml_id": "ETABLISSEMENTS_POLLUEURS.7608", "identifiant": "79049065", "idetab": "7608", "nom": "EARL DANS LE 7 N'OEUFS", "codeape": "0150Z", "cp": "79300" }, "geometry": { "type": "Point", "coordinates": [ -0.491054, 46.848595 ] } },
{ "type": "Feature", "properties": { "gml_id": "ETABLISSEMENTS_POLLUEURS.5959", "identifiant": "79500005", "idetab": "5959", "nom": "SCEA BLAVI", "codeape": "0147Z", "cp": "79300" }, "geometry": { "type": "Point", "coordinates": [ -0.491054, 46.848595 ] } },
{ "type": "Feature", "properties": { "gml_id": "ETABLISSEMENTS_POLLUEURS.7609", "identifiant": "79500036", "idetab": "7609", "nom": "SAPINIERE SARL", "codeape": "0147Z", "cp": "79150" }, "geometry": { "type": "Point", "coordinates": [ -0.431678, 46.967305 ] } },
{ "type": "Feature", "properties": { "gml_id": "ETABLISSEMENTS_POLLUEURS.7612", "identifiant": "79500073", "idetab": "7612", "nom": "EARL PELLETIER", "codeape": "0111Z", "cp": "79300" }, "geometry": { "type": "Point", "coordinates": [ -0.491054, 46.848595 ] } },
{ "type": "Feature", "properties": { "gml_id": "ETABLISSEMENTS_POLLUEURS.588331", "identifiant": "79500078", "idetab": "588331", "nom": "LAUX NICOLAS", "codeape": "0147Z", "cp": "79300" }, "geometry": { "type": "Point", "coordinates": [ -0.491054, 46.848595 ] } },
{ "type": "Feature", "properties": { "gml_id": "ETABLISSEMENTS_POLLUEURS.597723", "identifiant": "0051700449", "idetab": "597723", "nom": "SAINTONG'OEUFS", "codeape": "4633Z", "cp": "17470" }, "geometry": { "type": "Point", "coordinates": [ -0.25249, 46.03411 ] } },
{ "type": "Feature", "properties": { "gml_id": "ETABLISSEMENTS_POLLUEURS.590620", "identifiant": "0007211907", "idetab": "590620", "nom": "LAFFOND SAMUEL", "codeape": "4399C", "cp": "79110" }, "geometry": { "type": "Point", "coordinates": [ -0.06242, 46.04972 ] } },
{ "type": "Feature", "properties": { "gml_id": "ETABLISSEMENTS_POLLUEURS.590232", "identifiant": "0003102721", "idetab": "590232", "nom": "CC MELLOIS EN POITOU", "codeape": "3821Z", "cp": "79110" }, "geometry": { "type": "Point", "coordinates": [ -0.01653, 46.08746 ] } },
{ "type": "Feature", "properties": { "gml_id": "ETABLISSEMENTS_POLLUEURS.588184", "identifiant": "0007211757", "idetab": "588184", "nom": "CC MELLOIS (ISDI SOMPT)", "codeape": "3811Z", "cp": "79110" }, "geometry": { "type": "Point", "coordinates": [ -0.10016, 46.15926 ] } },
{ "type": "Feature", "properties": { "gml_id": "ETABLISSEMENTS_POLLUEURS.588172", "identifiant": "0007211730", "idetab": "588172", "nom": "CC MELLOIS (ISDI PAIZAY LE TORT)", "codeape": "3811Z", "cp": "79500" }, "geometry": { "type": "Point", "coordinates": [ -0.16261, 46.17057 ] } },
{ "type": "Feature", "properties": { "gml_id": "ETABLISSEMENTS_POLLUEURS.588177", "identifiant": "0007211743", "idetab": "588177", "nom": "CC DU MELLOIS (ISDI MAISONNAY)", "codeape": "3811Z", "cp": "79500" }, "geometry": { "type": "Point", "coordinates": [ -0.04449, 46.18044 ] } },
{ "type": "Feature", "properties": { "gml_id": "ETABLISSEMENTS_POLLUEURS.588171", "identifiant": "0007211729", "idetab": "588171", "nom": "CC MELLOIS (ISDI ST VINCENT LA CHATRE)", "codeape": "3811Z", "cp": "79500" }, "geometry": { "type": "Point", "coordinates": [ -0.0376, 46.20216 ] } },
{ "type": "Feature", "properties": { "gml_id": "ETABLISSEMENTS_POLLUEURS.11938", "identifiant": "0007208217", "idetab": "11938", "nom": "DALKIA", "codeape": "3530Z", "cp": "79500" }, "geometry": { "type": "Point", "coordinates": [ -0.12465, 46.21738 ] } },
{ "type": "Feature", "properties": { "gml_id": "ETABLISSEMENTS_POLLUEURS.3214", "identifiant": "0007201348", "idetab": "3214", "nom": "SPECIALTY OPERATIONS FRANCE", "codeape": "2014Z", "cp": "79500" }, "geometry": { "type": "Point", "coordinates": [ -0.12465, 46.21738 ] } },
{ "type": "Feature", "properties": { "gml_id": "ETABLISSEMENTS_POLLUEURS.7076", "identifiant": "0007206418", "idetab": "7076", "nom": "DANISCO FRANCE", "codeape": "2014Z", "cp": "79500" }, "geometry": { "type": "Point", "coordinates": [ -0.13765, 46.22072 ] } },
{ "type": "Feature", "properties": { "gml_id": "ETABLISSEMENTS_POLLUEURS.596891", "identifiant": "0007210828", "idetab": "596891", "nom": "METH'INNOV", "codeape": "3521Z", "cp": "79500" }, "geometry": { "type": "Point", "coordinates": [ -0.14673, 46.23066 ] } },
{ "type": "Feature", "properties": { "gml_id": "ETABLISSEMENTS_POLLUEURS.588170", "identifiant": "0007211727", "idetab": "588170", "nom": "CC MELLOIS (ISDI ST MARTIN LES MELLE)", "codeape": "3811Z", "cp": "79500" }, "geometry": { "type": "Point", "coordinates": [ -0.16, 46.23635 ] } },
{ "type": "Feature", "properties": { "gml_id": "ETABLISSEMENTS_POLLUEURS.591180", "identifiant": "0057900028", "idetab": "591180", "nom": "SCEA PORCLOS", "codeape": "0146Z", "cp": "79110" }, "geometry": { "type": "Point", "coordinates": [ -0.04379, 46.09332 ] } },
{ "type": "Feature", "properties": { "gml_id": "ETABLISSEMENTS_POLLUEURS.592814", "identifiant": "0057900191", "idetab": "592814", "nom": "GAEC LA RENAUDIERE", "codeape": "0147Z", "cp": "79500" }, "geometry": { "type": "Point", "coordinates": [ -0.09236, 46.20899 ] } },
{ "type": "Feature", "properties": { "gml_id": "ETABLISSEMENTS_POLLUEURS.591184", "identifiant": "0057900192", "idetab": "591184", "nom": "SCEA APPORCS", "codeape": "0146Z", "cp": "79500" }, "geometry": { "type": "Point", "coordinates": [ -0.08866, 46.20201 ] } },
{ "type": "Feature", "properties": { "gml_id": "ETABLISSEMENTS_POLLUEURS.591795", "identifiant": "0057900737", "idetab": "591795", "nom": "SCEA ISAPOULES", "codeape": "0147Z", "cp": "79110" }, "geometry": { "type": "Point", "coordinates": [ -0.11216, 46.17187 ] } },
{ "type": "Feature", "properties": { "gml_id": "ETABLISSEMENTS_POLLUEURS.5945", "identifiant": "79064090", "idetab": "5945", "nom": "GAEC LA RENAUDIERE", "codeape": "012G", "cp": "79500" }, "geometry": { "type": "Point", "coordinates": [ -0.088243, 46.216759 ] } },
{ "type": "Feature", "properties": { "gml_id": "ETABLISSEMENTS_POLLUEURS.5955", "identifiant": "79314901", "idetab": "5955", "nom": "SCEA ISAPOULES", "codeape": "0147Z", "cp": "79110" }, "geometry": { "type": "Point", "coordinates": [ -0.099631, 46.164874 ] } },
{ "type": "Feature", "properties": { "gml_id": "ETABLISSEMENTS_POLLUEURS.8463", "identifiant": "79500011", "idetab": "8463", "nom": "SCEA PORCLOS", "codeape": "0146Z", "cp": "79110" }, "geometry": { "type": "Point", "coordinates": [ -0.039062, 46.106396 ] } },
{ "type": "Feature", "properties": { "gml_id": "ETABLISSEMENTS_POLLUEURS.12659", "identifiant": "79500012", "idetab": "12659", "nom": "SCEA APPORCS", "codeape": "0146Z", "cp": "79500" }, "geometry": { "type": "Point", "coordinates": [ -0.088243, 46.216759 ] } },
{ "type": "Feature", "properties": { "gml_id": "ETABLISSEMENTS_POLLUEURS.588160", "identifiant": "0007207644", "idetab": "588160", "nom": "SYNDICAT MIXTE À LA CARTE DU HAUT VAL DE SÈVRE ET SUD GÂTINE", "codeape": "8411Z", "cp": "79400" }, "geometry": { "type": "Point", "coordinates": [ -0.233725, 46.428938 ] } },