{
"type": "FeatureCollection",
"name": "ms:ETABLISSEMENTS_POLLUEURS",
"crs": { "type": "name", "properties": { "name": "urn:ogc:def:crs:OGC:1.3:CRS84" } },
"features": [
{ "type": "Feature", "properties": { "gml_id": "ETABLISSEMENTS_POLLUEURS.1884", "identifiant": "0006202598", "idetab": "1884", "nom": "SOCIETE FROMAGERE DE XERTIGNY", "codeape": "1051C", "cp": "88220" }, "geometry": { "type": "Point", "coordinates": [ 6.41764, 48.05145 ] } },
{ "type": "Feature", "properties": { "gml_id": "ETABLISSEMENTS_POLLUEURS.1885", "identifiant": "0006202599", "idetab": "1885", "nom": "TRÉFILERIES DE XERTIGNY", "codeape": "273G", "cp": "88220" }, "geometry": { "type": "Point", "coordinates": [ 6.405148, 48.0454 ] } },
{ "type": "Feature", "properties": { "gml_id": "ETABLISSEMENTS_POLLUEURS.588864", "identifiant": "0006210085", "idetab": "588864", "nom": "MAIRIE", "codeape": "3811Z", "cp": "88220" }, "geometry": { "type": "Point", "coordinates": [ 6.405148, 48.0454 ] } },
{ "type": "Feature", "properties": { "gml_id": "ETABLISSEMENTS_POLLUEURS.597456", "identifiant": "0003013023", "idetab": "597456", "nom": "EURL AGRI SOL APPRO", "codeape": "3511Z", "cp": "88260" }, "geometry": { "type": "Point", "coordinates": [ 6.10329, 48.15578 ] } },
{ "type": "Feature", "properties": { "gml_id": "ETABLISSEMENTS_POLLUEURS.8653", "identifiant": "0006207663", "idetab": "8653", "nom": "SUEZ ORGANIQUE", "codeape": "7112B", "cp": "88800" }, "geometry": { "type": "Point", "coordinates": [ 6.05014, 48.19882 ] } },
{ "type": "Feature", "properties": { "gml_id": "ETABLISSEMENTS_POLLUEURS.597531", "identifiant": "0006209907", "idetab": "597531", "nom": "METHAVIGNE", "codeape": "3521Z", "cp": "88500" }, "geometry": { "type": "Point", "coordinates": [ 6.11483, 48.2914 ] } },
{ "type": "Feature", "properties": { "gml_id": "ETABLISSEMENTS_POLLUEURS.598352", "identifiant": "0006202301", "idetab": "598352", "nom": "SHEPHERD MIRECOURT SAS", "codeape": "2014Z", "cp": "88500" }, "geometry": { "type": "Point", "coordinates": [ 6.06553, 48.31947 ] } },
{ "type": "Feature", "properties": { "gml_id": "ETABLISSEMENTS_POLLUEURS.1865", "identifiant": "0006202302", "idetab": "1865", "nom": "TECH-RTS", "codeape": "2561Z", "cp": "88500" }, "geometry": { "type": "Point", "coordinates": [ 6.067806, 48.319967 ] } },
{ "type": "Feature", "properties": { "gml_id": "ETABLISSEMENTS_POLLUEURS.597328", "identifiant": "0003013143", "idetab": "597328", "nom": "SAS CH4", "codeape": "3821Z", "cp": "88500" }, "geometry": { "type": "Point", "coordinates": [ 6.02323, 48.33377 ] } },
{ "type": "Feature", "properties": { "gml_id": "ETABLISSEMENTS_POLLUEURS.9274", "identifiant": "0009000061", "idetab": "9274", "nom": "SOC TRANSPORTS PETROLIERS PAR PIPELINE", "codeape": "4950Z", "cp": "88500" }, "geometry": { "type": "Point", "coordinates": [ 6.03603, 48.3609 ] } },
{ "type": "Feature", "properties": { "gml_id": "ETABLISSEMENTS_POLLUEURS.594955", "identifiant": "0058800183", "idetab": "594955", "nom": "ELIVIA MIRECOURT", "codeape": "1011Z", "cp": "88500" }, "geometry": { "type": "Point", "coordinates": [ 6.07973, 48.30713 ] } },
{ "type": "Feature", "properties": { "gml_id": "ETABLISSEMENTS_POLLUEURS.597423", "identifiant": "0100000324", "idetab": "597423", "nom": "PUITS COURS BIOMETHANE", "codeape": "3521Z", "cp": "88800" }, "geometry": { "type": "Point", "coordinates": [ 6.04585, 48.2067 ] } },
{ "type": "Feature", "properties": { "gml_id": "ETABLISSEMENTS_POLLUEURS.599094", "identifiant": "0003013315", "idetab": "599094", "nom": "ADVENIS", "codeape": "6630Z", "cp": "54840" }, "geometry": { "type": "Point", "coordinates": [ 6.00392, 48.691 ] } },
{ "type": "Feature", "properties": { "gml_id": "ETABLISSEMENTS_POLLUEURS.1742", "identifiant": "0006200514", "idetab": "1742", "nom": "MERSEN FRANCE PY SAS", "codeape": "2825Z", "cp": "54530" }, "geometry": { "type": "Point", "coordinates": [ 6.0299, 48.98516 ] } },
{ "type": "Feature", "properties": { "gml_id": "ETABLISSEMENTS_POLLUEURS.6661", "identifiant": "0006206086", "idetab": "6661", "nom": "LEGRAND FRANCE", "codeape": "2733Z", "cp": "54700" }, "geometry": { "type": "Point", "coordinates": [ 6.03568, 48.91303 ] } },
{ "type": "Feature", "properties": { "gml_id": "ETABLISSEMENTS_POLLUEURS.588846", "identifiant": "0006207619", "idetab": "588846", "nom": "EQIOM GRANULATS VANDIÈRES", "codeape": "0812Z", "cp": "54121" }, "geometry": { "type": "Point", "coordinates": [ 6.035791, 48.955489 ] } },
{ "type": "Feature", "properties": { "gml_id": "ETABLISSEMENTS_POLLUEURS.1721", "identifiant": "0006200067", "idetab": "1721", "nom": "ELECTRICITE DE FRANCE", "codeape": "3511Z", "cp": "54700" }, "geometry": { "type": "Point", "coordinates": [ 6.03856, 48.8827 ] } },
{ "type": "Feature", "properties": { "gml_id": "ETABLISSEMENTS_POLLUEURS.594046", "identifiant": "0006205837", "idetab": "594046", "nom": "SARL SIMON GABRIEL", "codeape": "0812Z", "cp": "54700" }, "geometry": { "type": "Point", "coordinates": [ 6.04114, 48.92647 ] } },
{ "type": "Feature", "properties": { "gml_id": "ETABLISSEMENTS_POLLUEURS.590433", "identifiant": "0006205628", "idetab": "590433", "nom": "CARRIERES & MATERIAUX NORD-EST", "codeape": "0812Z", "cp": "54700" }, "geometry": { "type": "Point", "coordinates": [ 6.04619, 48.88263 ] } },
{ "type": "Feature", "properties": { "gml_id": "ETABLISSEMENTS_POLLUEURS.1744", "identifiant": "0006200537", "idetab": "1744", "nom": "DR FISCHER EUROPE", "codeape": "2740Z", "cp": "54700" }, "geometry": { "type": "Point", "coordinates": [ 6.049181, 48.900309 ] } },
{ "type": "Feature", "properties": { "gml_id": "ETABLISSEMENTS_POLLUEURS.1745", "identifiant": "0006200539", "idetab": "1745", "nom": "SAINT-GOBAIN PAM CANALISATION", "codeape": "2451Z", "cp": "54700" }, "geometry": { "type": "Point", "coordinates": [ 6.05187, 48.89672 ] } },
{ "type": "Feature", "properties": { "gml_id": "ETABLISSEMENTS_POLLUEURS.4559", "identifiant": "0006200329", "idetab": "4559", "nom": "USINE DE LIVERDUN", "codeape": "2451Z", "cp": "54460" }, "geometry": { "type": "Point", "coordinates": [ 6.063371, 48.743997 ] } },
{ "type": "Feature", "properties": { "gml_id": "ETABLISSEMENTS_POLLUEURS.14152", "identifiant": "0006206174", "idetab": "14152", "nom": "GRANULATS VICAT", "codeape": "0811Z", "cp": "54700" }, "geometry": { "type": "Point", "coordinates": [ 6.06608, 48.88209 ] } },
{ "type": "Feature", "properties": { "gml_id": "ETABLISSEMENTS_POLLUEURS.9002", "identifiant": "0006200526", "idetab": "9002", "nom": "HEIDELBERG MATERIALS FRANCE GRANULATS", "codeape": "0812Z", "cp": "54700" }, "geometry": { "type": "Point", "coordinates": [ 6.06694, 48.9324 ] } },
{ "type": "Feature", "properties": { "gml_id": "ETABLISSEMENTS_POLLUEURS.8996", "identifiant": "0006200012", "idetab": "8996", "nom": "HEIDELBERG MATERIALS FRANCE GRANULATS", "codeape": "0812Z", "cp": "54700" }, "geometry": { "type": "Point", "coordinates": [ 6.07703, 48.87911 ] } },
{ "type": "Feature", "properties": { "gml_id": "ETABLISSEMENTS_POLLUEURS.8523", "identifiant": "0006200412", "idetab": "8523", "nom": "COMMUNAUTE DE COMMUNES DU BASSIN DE POMPEY", "codeape": "8411Z", "cp": "54820" }, "geometry": { "type": "Point", "coordinates": [ 6.09014, 48.78976 ] } },
{ "type": "Feature", "properties": { "gml_id": "ETABLISSEMENTS_POLLUEURS.4562", "identifiant": "0006200529", "idetab": "4562", "nom": "SUEZ RV NORD EST", "codeape": "3821Z", "cp": "54700" }, "geometry": { "type": "Point", "coordinates": [ 6.09495, 48.9267 ] } },
{ "type": "Feature", "properties": { "gml_id": "ETABLISSEMENTS_POLLUEURS.1720", "identifiant": "0006200045", "idetab": "1720", "nom": "USINE DE PONT.A.MOUSSON SERVICE AGGLOMERATION", "codeape": "2451Z", "cp": "54940" }, "geometry": { "type": "Point", "coordinates": [ 6.09769, 48.816791 ] } },
{ "type": "Feature", "properties": { "gml_id": "ETABLISSEMENTS_POLLUEURS.590438", "identifiant": "0006208689", "idetab": "590438", "nom": "EQIOM GRANULATS", "codeape": "0812Z", "cp": "54121" }, "geometry": { "type": "Point", "coordinates": [ 6.04093, 48.96274 ] } },
{ "type": "Feature", "properties": { "gml_id": "ETABLISSEMENTS_POLLUEURS.11371", "identifiant": "0006205429", "idetab": "11371", "nom": "EDF ATTON (PARC À CENDRES)", "codeape": "3821Z", "cp": "54700" }, "geometry": { "type": "Point", "coordinates": [ 6.107786, 48.880509 ] } },
{ "type": "Feature", "properties": { "gml_id": "ETABLISSEMENTS_POLLUEURS.10737", "identifiant": "0006207688", "idetab": "10737", "nom": "GUY DAUPHIN ENVIRONNEMENT", "codeape": "6820B", "cp": "54940" }, "geometry": { "type": "Point", "coordinates": [ 6.11158, 48.81796 ] } },
{ "type": "Feature", "properties": { "gml_id": "ETABLISSEMENTS_POLLUEURS.591466", "identifiant": "0006200137", "idetab": "591466", "nom": "TTM ENVIRONNEMENT", "codeape": "3811Z", "cp": "54670" }, "geometry": { "type": "Point", "coordinates": [ 6.11655, 48.79577 ] } },
{ "type": "Feature", "properties": { "gml_id": "ETABLISSEMENTS_POLLUEURS.10673", "identifiant": "0006200415", "idetab": "10673", "nom": "ETABLISSEMENTS PAUL DUBOIS", "codeape": "4511Z", "cp": "54820" }, "geometry": { "type": "Point", "coordinates": [ 6.12093, 48.78695 ] } },
{ "type": "Feature", "properties": { "gml_id": "ETABLISSEMENTS_POLLUEURS.10669", "identifiant": "0006200213", "idetab": "10669", "nom": "ESKA", "codeape": "3832Z", "cp": "54250" }, "geometry": { "type": "Point", "coordinates": [ 6.12225, 48.72071 ] } },
{ "type": "Feature", "properties": { "gml_id": "ETABLISSEMENTS_POLLUEURS.587936", "identifiant": "0006200314", "idetab": "587936", "nom": "AUCHAN HYPERMARCHE", "codeape": "4711F", "cp": "54520" }, "geometry": { "type": "Point", "coordinates": [ 6.12761, 48.69451 ] } },
{ "type": "Feature", "properties": { "gml_id": "ETABLISSEMENTS_POLLUEURS.8998", "identifiant": "0006200135", "idetab": "8998", "nom": "ALLEVARD REJNA AUTOSUSPENSIONS", "codeape": "2932Z", "cp": "54670" }, "geometry": { "type": "Point", "coordinates": [ 6.130857, 48.787204 ] } },
{ "type": "Feature", "properties": { "gml_id": "ETABLISSEMENTS_POLLUEURS.14147", "identifiant": "0006201085", "idetab": "14147", "nom": "ESKA", "codeape": "3832Z", "cp": "57420" }, "geometry": { "type": "Point", "coordinates": [ 6.13208, 48.93987 ] } },
{ "type": "Feature", "properties": { "gml_id": "ETABLISSEMENTS_POLLUEURS.594888", "identifiant": "0006205547", "idetab": "594888", "nom": "NOVASEP PROCESS", "codeape": "7112B", "cp": "54340" }, "geometry": { "type": "Point", "coordinates": [ 6.134538, 48.77783 ] } },
{ "type": "Feature", "properties": { "gml_id": "ETABLISSEMENTS_POLLUEURS.1728", "identifiant": "0006200203", "idetab": "1728", "nom": "SOFIDEL FRANCE", "codeape": "1722Z", "cp": "54390" }, "geometry": { "type": "Point", "coordinates": [ 6.13553, 48.77016 ] } },
{ "type": "Feature", "properties": { "gml_id": "ETABLISSEMENTS_POLLUEURS.12929", "identifiant": "0006206152", "idetab": "12929", "nom": "TECNOLAK", "codeape": "2561Z", "cp": "54340" }, "geometry": { "type": "Point", "coordinates": [ 6.135905, 48.782447 ] } },
{ "type": "Feature", "properties": { "gml_id": "ETABLISSEMENTS_POLLUEURS.1724", "identifiant": "0006200139", "idetab": "1724", "nom": "CROWN BEVCAN FRANCE SAS", "codeape": "2592Z", "cp": "54670" }, "geometry": { "type": "Point", "coordinates": [ 6.13828, 48.7862 ] } },
{ "type": "Feature", "properties": { "gml_id": "ETABLISSEMENTS_POLLUEURS.11681", "identifiant": "0006200525", "idetab": "11681", "nom": "UPM RAFLATAC", "codeape": "1712Z", "cp": "54340" }, "geometry": { "type": "Point", "coordinates": [ 6.13993, 48.7815 ] } },
{ "type": "Feature", "properties": { "gml_id": "ETABLISSEMENTS_POLLUEURS.1740", "identifiant": "0006200487", "idetab": "1740", "nom": "CHAUFFERIE HAUT DU LIÈVRE", "codeape": "6820A", "cp": "54000" }, "geometry": { "type": "Point", "coordinates": [ 6.1537, 48.701702 ] } },
{ "type": "Feature", "properties": { "gml_id": "ETABLISSEMENTS_POLLUEURS.8655", "identifiant": "0006207748", "idetab": "8655", "nom": "NANCY COMPOST", "codeape": "3821Z", "cp": "54700" }, "geometry": { "type": "Point", "coordinates": [ 6.15925, 48.89981 ] } },
{ "type": "Feature", "properties": { "gml_id": "ETABLISSEMENTS_POLLUEURS.6663", "identifiant": "0006206346", "idetab": "6663", "nom": "GE ENERGIE - POWER CONVERSION", "codeape": "2711Z", "cp": "54250" }, "geometry": { "type": "Point", "coordinates": [ 6.167103, 48.733813 ] } },
{ "type": "Feature", "properties": { "gml_id": "ETABLISSEMENTS_POLLUEURS.4557", "identifiant": "0006200104", "idetab": "4557", "nom": "BRASSERIE CHAMPIGNEULLES", "codeape": "1105Z", "cp": "54250" }, "geometry": { "type": "Point", "coordinates": [ 6.16856, 48.7367 ] } },
{ "type": "Feature", "properties": { "gml_id": "ETABLISSEMENTS_POLLUEURS.589696", "identifiant": "0006200420", "idetab": "589696", "nom": "ROCHLING INDUSTRIAL NANCY", "codeape": "2790Z", "cp": "54320" }, "geometry": { "type": "Point", "coordinates": [ 6.16987, 48.714 ] } },
{ "type": "Feature", "properties": { "gml_id": "ETABLISSEMENTS_POLLUEURS.1898", "identifiant": "0006204953", "idetab": "1898", "nom": "PIERRETTE T.B.A.", "codeape": "9601B", "cp": "54220" }, "geometry": { "type": "Point", "coordinates": [ 6.17789, 48.71918 ] } },
{ "type": "Feature", "properties": { "gml_id": "ETABLISSEMENTS_POLLUEURS.6626", "identifiant": "0006200486", "idetab": "6626", "nom": "TSM", "codeape": "2561Z", "cp": "54000" }, "geometry": { "type": "Point", "coordinates": [ 6.178978, 48.692033 ] } },
{ "type": "Feature", "properties": { "gml_id": "ETABLISSEMENTS_POLLUEURS.595199", "identifiant": "0003012500", "idetab": "595199", "nom": "ESTIA RESEAUX DE CHALEUR", "codeape": "3530Z", "cp": "54000" }, "geometry": { "type": "Point", "coordinates": [ 6.19746, 48.69027 ] } },
{ "type": "Feature", "properties": { "gml_id": "ETABLISSEMENTS_POLLUEURS.12296", "identifiant": "0006200481", "idetab": "12296", "nom": "FIVES NORDON", "codeape": "3311Z", "cp": "54000" }, "geometry": { "type": "Point", "coordinates": [ 6.19928, 48.6976 ] } },
{ "type": "Feature", "properties": { "gml_id": "ETABLISSEMENTS_POLLUEURS.9025", "identifiant": "0006207626", "idetab": "9025", "nom": "LINGENHELD ENVIRONNEMENT LORRAINE", "codeape": "3832Z", "cp": "57420" }, "geometry": { "type": "Point", "coordinates": [ 6.20235, 48.95733 ] } },
{ "type": "Feature", "properties": { "gml_id": "ETABLISSEMENTS_POLLUEURS.4558", "identifiant": "0006200282", "idetab": "4558", "nom": "SUEZ RR IWS MINERALS FRANCE", "codeape": "3822Z", "cp": "54114" }, "geometry": { "type": "Point", "coordinates": [ 6.25194, 48.83601 ] } },
{ "type": "Feature", "properties": { "gml_id": "ETABLISSEMENTS_POLLUEURS.11682", "identifiant": "0006200542", "idetab": "11682", "nom": "BASF BEAUTY CARE SOLUTIONS", "codeape": "7219Z", "cp": "54425" }, "geometry": { "type": "Point", "coordinates": [ 6.260054, 48.703724 ] } },
{ "type": "Feature", "properties": { "gml_id": "ETABLISSEMENTS_POLLUEURS.9023", "identifiant": "0006206498", "idetab": "9023", "nom": "GRTGAZ", "codeape": "4950Z", "cp": "54280" }, "geometry": { "type": "Point", "coordinates": [ 6.290865, 48.70294 ] } },
{ "type": "Feature", "properties": { "gml_id": "ETABLISSEMENTS_POLLUEURS.1722", "identifiant": "0006200092", "idetab": "1722", "nom": "STORENGY FRANCE", "codeape": "5210B", "cp": "54420" }, "geometry": { "type": "Point", "coordinates": [ 6.30003, 48.70188 ] } },
{ "type": "Feature", "properties": { "gml_id": "ETABLISSEMENTS_POLLUEURS.11294", "identifiant": "0006208115", "idetab": "11294", "nom": "LORHUMUS", "codeape": "0149Z", "cp": "54280" }, "geometry": { "type": "Point", "coordinates": [ 6.380565, 48.75846 ] } },
{ "type": "Feature", "properties": { "gml_id": "ETABLISSEMENTS_POLLUEURS.8656", "identifiant": "0006207749", "idetab": "8656", "nom": "NANCY COMPOST (ERBEVILLER)", "codeape": "0161Z", "cp": "54110" }, "geometry": { "type": "Point", "coordinates": [ 6.389326, 48.704834 ] } },
{ "type": "Feature", "properties": { "gml_id": "ETABLISSEMENTS_POLLUEURS.1780", "identifiant": "0006201080", "idetab": "1780", "nom": "EURIAL ULTRA FRAIS", "codeape": "1051A", "cp": "57170" }, "geometry": { "type": "Point", "coordinates": [ 6.50863, 48.81388 ] } },
{ "type": "Feature", "properties": { "gml_id": "ETABLISSEMENTS_POLLUEURS.8651", "identifiant": "0006201724", "idetab": "8651", "nom": "VEOLIA AGRICULTURE FRANCE", "codeape": "3700Z", "cp": "57340" }, "geometry": { "type": "Point", "coordinates": [ 6.53615, 48.87794 ] } },
{ "type": "Feature", "properties": { "gml_id": "ETABLISSEMENTS_POLLUEURS.8531", "identifiant": "0006207648", "idetab": "8531", "nom": "LORCOMPOST", "codeape": "3821Z", "cp": "54370" }, "geometry": { "type": "Point", "coordinates": [ 6.57402, 48.69178 ] } },
{ "type": "Feature", "properties": { "gml_id": "ETABLISSEMENTS_POLLUEURS.10680", "identifiant": "0006201054", "idetab": "10680", "nom": "DECONSTRA", "codeape": "4677Z", "cp": "57170" }, "geometry": { "type": "Point", "coordinates": [ 6.57895, 48.86234 ] } },
{ "type": "Feature", "properties": { "gml_id": "ETABLISSEMENTS_POLLUEURS.6648", "identifiant": "0006201615", "idetab": "6648", "nom": "FRANCE GALVA LORRAINE", "codeape": "2561Z", "cp": "57340" }, "geometry": { "type": "Point", "coordinates": [ 6.65142, 48.9349 ] } },
{ "type": "Feature", "properties": { "gml_id": "ETABLISSEMENTS_POLLUEURS.6649", "identifiant": "0006201616", "idetab": "6649", "nom": "REHAU INDUSTRIE SARL", "codeape": "2221Z", "cp": "57340" }, "geometry": { "type": "Point", "coordinates": [ 6.65343, 48.94086 ] } },
{ "type": "Feature", "properties": { "gml_id": "ETABLISSEMENTS_POLLUEURS.590441", "identifiant": "0006209293", "idetab": "590441", "nom": "GRIS DECOUPAGE", "codeape": "2594Z", "cp": "54700" }, "geometry": { "type": "Point", "coordinates": [ 6.11004, 48.93121 ] } },
{ "type": "Feature", "properties": { "gml_id": "ETABLISSEMENTS_POLLUEURS.14159", "identifiant": "0006209479", "idetab": "14159", "nom": "COMMUNAUTE DE COMMUNES DU BASSIN DE POMPEY", "codeape": "8411Z", "cp": "54390" }, "geometry": { "type": "Point", "coordinates": [ 6.12283, 48.75058 ] } },
{ "type": "Feature", "properties": { "gml_id": "ETABLISSEMENTS_POLLUEURS.597157", "identifiant": "0006209920", "idetab": "597157", "nom": "METHANISATION SEILLE ENVIRONNEMENT", "codeape": "3511Z", "cp": "57630" }, "geometry": { "type": "Point", "coordinates": [ 6.60615, 48.79529 ] } },
{ "type": "Feature", "properties": { "gml_id": "ETABLISSEMENTS_POLLUEURS.589708", "identifiant": "0006209939", "idetab": "589708", "nom": "METHA DE LA ROTTE", "codeape": "3521Z", "cp": "57380" }, "geometry": { "type": "Point", "coordinates": [ 6.53237, 48.97386 ] } },
{ "type": "Feature", "properties": { "gml_id": "ETABLISSEMENTS_POLLUEURS.588855", "identifiant": "0006210025", "idetab": "588855", "nom": "EUROGRANULATS ISDI DE LANFROICOURT", "codeape": "0812Z", "cp": "54760" }, "geometry": { "type": "Point", "coordinates": [ 6.330963, 48.81031 ] } },
{ "type": "Feature", "properties": { "gml_id": "ETABLISSEMENTS_POLLUEURS.589713", "identifiant": "0006210100", "idetab": "589713", "nom": "EUROGRANULATS", "codeape": "0812Z", "cp": "54760" }, "geometry": { "type": "Point", "coordinates": [ 6.31914, 48.80638 ] } },
{ "type": "Feature", "properties": { "gml_id": "ETABLISSEMENTS_POLLUEURS.594976", "identifiant": "0009075401", "idetab": "594976", "nom": "SOCIETE DE VALORISATION DES EFFLUENTS DE LA METROPOLE DU GRAND NANCY", "codeape": "3600Z", "cp": "54320" }, "geometry": { "type": "Point", "coordinates": [ 6.17661, 48.7093 ] } },
{ "type": "Feature", "properties": { "gml_id": "ETABLISSEMENTS_POLLUEURS.596091", "identifiant": "0055400195", "idetab": "596091", "nom": "SCEA DE GRANDVAL", "codeape": "0150Z", "cp": "54370" }, "geometry": { "type": "Point", "coordinates": [ 6.57073, 48.69852 ] } },
{ "type": "Feature", "properties": { "gml_id": "ETABLISSEMENTS_POLLUEURS.9489", "identifiant": "0075435775", "idetab": "9489", "nom": "STATION DU GRAND NANCY SITUÉE À MAXEVILLE", "codeape": "3700Z", "cp": "54320" }, "geometry": { "type": "Point", "coordinates": [ 6.17377, 48.712279 ] } },
{ "type": "Feature", "properties": { "gml_id": "ETABLISSEMENTS_POLLUEURS.7910", "identifiant": "0006202382", "idetab": "7910", "nom": "VOSGES OCCAS", "codeape": "4677Z", "cp": "88550" }, "geometry": { "type": "Point", "coordinates": [ 6.56535, 48.09564 ] } },
{ "type": "Feature", "properties": { "gml_id": "ETABLISSEMENTS_POLLUEURS.1845", "identifiant": "0006202068", "idetab": "1845", "nom": "AHLSTROM ARCHES", "codeape": "1712Z", "cp": "88380" }, "geometry": { "type": "Point", "coordinates": [ 6.53996, 48.11354 ] } },
{ "type": "Feature", "properties": { "gml_id": "ETABLISSEMENTS_POLLUEURS.595807", "identifiant": "0006202381", "idetab": "595807", "nom": "SAGRAM", "codeape": "0812Z", "cp": "88550" }, "geometry": { "type": "Point", "coordinates": [ 6.5553, 48.11382 ] } },
{ "type": "Feature", "properties": { "gml_id": "ETABLISSEMENTS_POLLUEURS.1843", "identifiant": "0006202064", "idetab": "1843", "nom": "COVERIGHT SURFACES FRANCE", "codeape": "1712Z", "cp": "88380" }, "geometry": { "type": "Point", "coordinates": [ 6.53757, 48.115202 ] } },
{ "type": "Feature", "properties": { "gml_id": "ETABLISSEMENTS_POLLUEURS.1844", "identifiant": "0006202065", "idetab": "1844", "nom": "EUROPEAN PRINTED PRODUCTS (E2P)", "codeape": "222C", "cp": "88380" }, "geometry": { "type": "Point", "coordinates": [ 6.526003, 48.118249 ] } },
{ "type": "Feature", "properties": { "gml_id": "ETABLISSEMENTS_POLLUEURS.1846", "identifiant": "0006202070", "idetab": "1846", "nom": "STE INDUSTRIELLE DE TRANSFORMATION DE PRODUITS AGRICOLES", "codeape": "1031Z", "cp": "88380" }, "geometry": { "type": "Point", "coordinates": [ 6.52233, 48.12049 ] } },
{ "type": "Feature", "properties": { "gml_id": "ETABLISSEMENTS_POLLUEURS.597447", "identifiant": "0003012596", "idetab": "597447", "nom": "AGRI GN VOGE", "codeape": "3511Z", "cp": "88390" }, "geometry": { "type": "Point", "coordinates": [ 6.29359, 48.1451 ] } },
{ "type": "Feature", "properties": { "gml_id": "ETABLISSEMENTS_POLLUEURS.1886", "identifiant": "0006202608", "idetab": "1886", "nom": "ENGIE ENERGIE SERVICES", "codeape": "3530Z", "cp": "88000" }, "geometry": { "type": "Point", "coordinates": [ 6.47953, 48.16295 ] } },
{ "type": "Feature", "properties": { "gml_id": "ETABLISSEMENTS_POLLUEURS.9778", "identifiant": "0006202269", "idetab": "9778", "nom": "SOCIETE TRANE", "codeape": "2825Z", "cp": "88190" }, "geometry": { "type": "Point", "coordinates": [ 6.42704, 48.19937 ] } },
{ "type": "Feature", "properties": { "gml_id": "ETABLISSEMENTS_POLLUEURS.1861", "identifiant": "0006202270", "idetab": "1861", "nom": "FIVES CRYO", "codeape": "2825Z", "cp": "88190" }, "geometry": { "type": "Point", "coordinates": [ 6.43024, 48.19983 ] } },
{ "type": "Feature", "properties": { "gml_id": "ETABLISSEMENTS_POLLUEURS.1863", "identifiant": "0006202274", "idetab": "1863", "nom": "NORSKE SKOG GOLBEY", "codeape": "1712Z", "cp": "88190" }, "geometry": { "type": "Point", "coordinates": [ 6.42027, 48.20944 ] } },
{ "type": "Feature", "properties": { "gml_id": "ETABLISSEMENTS_POLLUEURS.1862", "identifiant": "0006202271", "idetab": "1862", "nom": "MANUFACTURE FRANCAISE DES PNEUMATIQUES MICHELIN", "codeape": "2593Z", "cp": "88190" }, "geometry": { "type": "Point", "coordinates": [ 6.43585, 48.21033 ] } },
{ "type": "Feature", "properties": { "gml_id": "ETABLISSEMENTS_POLLUEURS.10706", "identifiant": "0006202273", "idetab": "10706", "nom": "ESKA", "codeape": "3832Z", "cp": "88190" }, "geometry": { "type": "Point", "coordinates": [ 6.43847, 48.2105 ] } },
{ "type": "Feature", "properties": { "gml_id": "ETABLISSEMENTS_POLLUEURS.598717", "identifiant": "0003013460", "idetab": "598717", "nom": "CITRAVAL CHAVELOT", "codeape": "3832Z", "cp": "88150" }, "geometry": { "type": "Point", "coordinates": [ 6.43642, 48.214875 ] } },
{ "type": "Feature", "properties": { "gml_id": "ETABLISSEMENTS_POLLUEURS.599116", "identifiant": "0006202193", "idetab": "599116", "nom": "ALIANE", "codeape": "1091Z", "cp": "88270" }, "geometry": { "type": "Point", "coordinates": [ 6.2117, 48.21861 ] } },
{ "type": "Feature", "properties": { "gml_id": "ETABLISSEMENTS_POLLUEURS.597312", "identifiant": "0003013355", "idetab": "597312", "nom": "VBG ENER'GREEN", "codeape": "3511Z", "cp": "88270" }, "geometry": { "type": "Point", "coordinates": [ 6.27756, 48.21939 ] } },
{ "type": "Feature", "properties": { "gml_id": "ETABLISSEMENTS_POLLUEURS.1850", "identifiant": "0006202161", "idetab": "1850", "nom": "MGE TRANSPORTS & SERVICES", "codeape": "4941A", "cp": "88150" }, "geometry": { "type": "Point", "coordinates": [ 6.42997, 48.22304 ] } },
{ "type": "Feature", "properties": { "gml_id": "ETABLISSEMENTS_POLLUEURS.597308", "identifiant": "0003013071", "idetab": "597308", "nom": "AGRI NRJ", "codeape": "3511Z", "cp": "88270" }, "geometry": { "type": "Point", "coordinates": [ 6.20501, 48.22319 ] } },
{ "type": "Feature", "properties": { "gml_id": "ETABLISSEMENTS_POLLUEURS.1879", "identifiant": "0006202530", "idetab": "1879", "nom": "ANETT QUATRE", "codeape": "7729Z", "cp": "88150" }, "geometry": { "type": "Point", "coordinates": [ 6.43525, 48.24159 ] } },
{ "type": "Feature", "properties": { "gml_id": "ETABLISSEMENTS_POLLUEURS.1880", "identifiant": "0006202541", "idetab": "1880", "nom": "VISKASE", "codeape": "2221Z", "cp": "88150" }, "geometry": { "type": "Point", "coordinates": [ 6.43166, 48.24736 ] } },
{ "type": "Feature", "properties": { "gml_id": "ETABLISSEMENTS_POLLUEURS.7912", "identifiant": "0006202538", "idetab": "7912", "nom": "ACCEUIL AUTO PIECES", "codeape": "4677Z", "cp": "88150" }, "geometry": { "type": "Point", "coordinates": [ 6.42135, 48.249597 ] } },
{ "type": "Feature", "properties": { "gml_id": "ETABLISSEMENTS_POLLUEURS.7911", "identifiant": "0006202534", "idetab": "7911", "nom": "GARRETT MOTION FRANCE", "codeape": "2813Z", "cp": "88150" }, "geometry": { "type": "Point", "coordinates": [ 6.40597, 48.25509 ] } },
{ "type": "Feature", "properties": { "gml_id": "ETABLISSEMENTS_POLLUEURS.10708", "identifiant": "0006202323", "idetab": "10708", "nom": "CDA", "codeape": "4532Z", "cp": "88500" }, "geometry": { "type": "Point", "coordinates": [ 6.132624, 48.280406 ] } },
{ "type": "Feature", "properties": { "gml_id": "ETABLISSEMENTS_POLLUEURS.10709", "identifiant": "0006202325", "idetab": "10709", "nom": "AUTO RECYCLAGE DES VOSGES", "codeape": "3831Z", "cp": "88500" }, "geometry": { "type": "Point", "coordinates": [ 6.132624, 48.280406 ] } },
{ "type": "Feature", "properties": { "gml_id": "ETABLISSEMENTS_POLLUEURS.591471", "identifiant": "0006202578", "idetab": "591471", "nom": "AMTPL", "codeape": "2420Z", "cp": "88450" }, "geometry": { "type": "Point", "coordinates": [ 6.332509, 48.341722 ] } },
{ "type": "Feature", "properties": { "gml_id": "ETABLISSEMENTS_POLLUEURS.588842", "identifiant": "0006202420", "idetab": "588842", "nom": "ETS GRANDIDIER", "codeape": "3832Z", "cp": "88330" }, "geometry": { "type": "Point", "coordinates": [ 6.45761, 48.35594 ] } },
{ "type": "Feature", "properties": { "gml_id": "ETABLISSEMENTS_POLLUEURS.1849", "identifiant": "0006202133", "idetab": "1849", "nom": "PATISFRANCE PURATOS", "codeape": "1039B", "cp": "88130" }, "geometry": { "type": "Point", "coordinates": [ 6.289066, 48.36978 ] } },
{ "type": "Feature", "properties": { "gml_id": "ETABLISSEMENTS_POLLUEURS.588841", "identifiant": "0006202135", "idetab": "588841", "nom": "SOCIETE TRANE", "codeape": "2825Z", "cp": "88130" }, "geometry": { "type": "Point", "coordinates": [ 6.29466, 48.38078 ] } },
{ "type": "Feature", "properties": { "gml_id": "ETABLISSEMENTS_POLLUEURS.10670", "identifiant": "0006200230", "idetab": "10670", "nom": "AUTO CASSE SERVICE", "codeape": "4677Z", "cp": "54290" }, "geometry": { "type": "Point", "coordinates": [ 6.25462, 48.4091 ] } },
{ "type": "Feature", "properties": { "gml_id": "ETABLISSEMENTS_POLLUEURS.1889", "identifiant": "0006204544", "idetab": "1889", "nom": "ECB - EQUIPEMENT CUISINES BAINS", "codeape": "3102Z", "cp": "88503" }, "geometry": { "type": "Point", "coordinates": [ 6.127981, 48.311134 ] } },
{ "type": "Feature", "properties": { "gml_id": "ETABLISSEMENTS_POLLUEURS.1894", "identifiant": "0006204691", "idetab": "1894", "nom": "COGESTAR", "codeape": "3511Z", "cp": "88380" }, "geometry": { "type": "Point", "coordinates": [ 6.53996, 48.11354 ] } },
{ "type": "Feature", "properties": { "gml_id": "ETABLISSEMENTS_POLLUEURS.9016", "identifiant": "0006205243", "idetab": "9016", "nom": "GSM IGNEY", "codeape": "0812Z", "cp": "88150" }, "geometry": { "type": "Point", "coordinates": [ 6.394859, 48.275021 ] } },
{ "type": "Feature", "properties": { "gml_id": "ETABLISSEMENTS_POLLUEURS.1908", "identifiant": "0006205555", "idetab": "1908", "nom": "PARISOT INDUSTRIE", "codeape": "3102Z", "cp": "88500" }, "geometry": { "type": "Point", "coordinates": [ 6.13428, 48.27719 ] } },
{ "type": "Feature", "properties": { "gml_id": "ETABLISSEMENTS_POLLUEURS.9021", "identifiant": "0006206251", "idetab": "9021", "nom": "SUEZ EAU FRANCE - TAIJI", "codeape": "3821Z", "cp": "88190" }, "geometry": { "type": "Point", "coordinates": [ 6.43483, 48.190928 ] } },
{ "type": "Feature", "properties": { "gml_id": "ETABLISSEMENTS_POLLUEURS.10729", "identifiant": "0006206581", "idetab": "10729", "nom": "ACCUEIL AUTO PIECES 88", "codeape": "4677Z", "cp": "88150" }, "geometry": { "type": "Point", "coordinates": [ 6.39816, 48.25469 ] } },
{ "type": "Feature", "properties": { "gml_id": "ETABLISSEMENTS_POLLUEURS.4617", "identifiant": "0006206616", "idetab": "4617", "nom": "ELIVIA ETABLISSEMENT MIRECOURT", "codeape": "1011Z", "cp": "88500" }, "geometry": { "type": "Point", "coordinates": [ 6.133268, 48.294149 ] } },
{ "type": "Feature", "properties": { "gml_id": "ETABLISSEMENTS_POLLUEURS.8657", "identifiant": "0006207764", "idetab": "8657", "nom": "SYND INTERCOMMUNAL DE COLLECTE ET DE VALORISATION DES DECHETS MENAGERS DE LA REGION D EPINAL", "codeape": "3811Z", "cp": "88000" }, "geometry": { "type": "Point", "coordinates": [ 6.499195, 48.182021 ] } },
{ "type": "Feature", "properties": { "gml_id": "ETABLISSEMENTS_POLLUEURS.587945", "identifiant": "0006208489", "idetab": "587945", "nom": "SICOVAD", "codeape": "3811Z", "cp": "88000" }, "geometry": { "type": "Point", "coordinates": [ 6.444718, 48.172899 ] } },
{ "type": "Feature", "properties": { "gml_id": "ETABLISSEMENTS_POLLUEURS.12938", "identifiant": "0006208533", "idetab": "12938", "nom": "SUEZ RV NORD EST", "codeape": "3821Z", "cp": "88150" }, "geometry": { "type": "Point", "coordinates": [ 6.51078, 48.26397 ] } },
{ "type": "Feature", "properties": { "gml_id": "ETABLISSEMENTS_POLLUEURS.593275", "identifiant": "0006208885", "idetab": "593275", "nom": "SAGRAM", "codeape": "0812Z", "cp": "88150" }, "geometry": { "type": "Point", "coordinates": [ 6.40771, 48.27442 ] } },
{ "type": "Feature", "properties": { "gml_id": "ETABLISSEMENTS_POLLUEURS.597310", "identifiant": "0006209643", "idetab": "597310", "nom": "CHARMOIS BIOENERGIE", "codeape": "3511Z", "cp": "88270" }, "geometry": { "type": "Point", "coordinates": [ 6.26771, 48.09019 ] } },
{ "type": "Feature", "properties": { "gml_id": "ETABLISSEMENTS_POLLUEURS.596892", "identifiant": "0006209656", "idetab": "596892", "nom": "AGRIWATT", "codeape": "3511Z", "cp": "88600" }, "geometry": { "type": "Point", "coordinates": [ 6.56075, 48.21649 ] } },
{ "type": "Feature", "properties": { "gml_id": "ETABLISSEMENTS_POLLUEURS.599181", "identifiant": "0006209854", "idetab": "599181", "nom": "VOSGES METHANISATION", "codeape": "3511Z", "cp": "88220" }, "geometry": { "type": "Point", "coordinates": [ 6.51505, 48.05673 ] } },
{ "type": "Feature", "properties": { "gml_id": "ETABLISSEMENTS_POLLUEURS.597465", "identifiant": "0006209906", "idetab": "597465", "nom": "PIERRON ET FILS", "codeape": "3821Z", "cp": "88330" }, "geometry": { "type": "Point", "coordinates": [ 6.40675, 48.38283 ] } },
{ "type": "Feature", "properties": { "gml_id": "ETABLISSEMENTS_POLLUEURS.592099", "identifiant": "0006210081", "idetab": "592099", "nom": "SICOVAD", "codeape": "3811Z", "cp": "88000" }, "geometry": { "type": "Point", "coordinates": [ 6.444718, 48.172899 ] } },
{ "type": "Feature", "properties": { "gml_id": "ETABLISSEMENTS_POLLUEURS.589232", "identifiant": "0009000302", "idetab": "589232", "nom": "1 RTIR", "codeape": "8422Z", "cp": "88013" }, "geometry": { "type": "Point", "coordinates": [ 6.47953, 48.16295 ] } },
{ "type": "Feature", "properties": { "gml_id": "ETABLISSEMENTS_POLLUEURS.8997", "identifiant": "0006200130", "idetab": "8997", "nom": "HEIDELBERG MATERIALS FRANCE GRANULATS", "codeape": "0812Z", "cp": "54290" }, "geometry": { "type": "Point", "coordinates": [ 6.27501, 48.52721 ] } },
{ "type": "Feature", "properties": { "gml_id": "ETABLISSEMENTS_POLLUEURS.10674", "identifiant": "0006200544", "idetab": "10674", "nom": "ESKA", "codeape": "3832Z", "cp": "54300" }, "geometry": { "type": "Point", "coordinates": [ 6.47211, 48.56449 ] } },
{ "type": "Feature", "properties": { "gml_id": "ETABLISSEMENTS_POLLUEURS.1738", "identifiant": "0006200395", "idetab": "1738", "nom": "TRAILOR", "codeape": "2920Z", "cp": "54303" }, "geometry": { "type": "Point", "coordinates": [ 6.503018, 48.590709 ] } },
{ "type": "Feature", "properties": { "gml_id": "ETABLISSEMENTS_POLLUEURS.596518", "identifiant": "0003012722", "idetab": "596518", "nom": "LES SABLIERES DE LA MEURTHE", "codeape": "0812Z", "cp": "54110" }, "geometry": { "type": "Point", "coordinates": [ 6.32976, 48.6007 ] } },
{ "type": "Feature", "properties": { "gml_id": "ETABLISSEMENTS_POLLUEURS.1736", "identifiant": "0006200378", "idetab": "1736", "nom": "ST HUBERT", "codeape": "1042Z", "cp": "54710" }, "geometry": { "type": "Point", "coordinates": [ 6.18864, 48.61232 ] } },
{ "type": "Feature", "properties": { "gml_id": "ETABLISSEMENTS_POLLUEURS.1737", "identifiant": "0006200381", "idetab": "1737", "nom": "TRIVIUM METAL PACKAGING FRANCE", "codeape": "2592Z", "cp": "54712" }, "geometry": { "type": "Point", "coordinates": [ 6.19254, 48.6142 ] } },
{ "type": "Feature", "properties": { "gml_id": "ETABLISSEMENTS_POLLUEURS.1735", "identifiant": "0006200373", "idetab": "1735", "nom": "VAL'ERGIE", "codeape": "3811Z", "cp": "54710" }, "geometry": { "type": "Point", "coordinates": [ 6.19711, 48.61613 ] } },
{ "type": "Feature", "properties": { "gml_id": "ETABLISSEMENTS_POLLUEURS.598763", "identifiant": "0006200194", "idetab": "598763", "nom": "SOLAVI", "codeape": "4520B", "cp": "54710" }, "geometry": { "type": "Point", "coordinates": [ 6.21108, 48.617 ] } },
{ "type": "Feature", "properties": { "gml_id": "ETABLISSEMENTS_POLLUEURS.1726", "identifiant": "0006200158", "idetab": "1726", "nom": "SOLVAY OPERATIONS FRANCE", "codeape": "2013B", "cp": "54110" }, "geometry": { "type": "Point", "coordinates": [ 6.35778, 48.6196 ] } },
{ "type": "Feature", "properties": { "gml_id": "ETABLISSEMENTS_POLLUEURS.1725", "identifiant": "0006200154", "idetab": "1725", "nom": "SOLVAY OPERATIONS FRANCE", "codeape": "3530Z", "cp": "54110" }, "geometry": { "type": "Point", "coordinates": [ 6.336414, 48.627996 ] } },
{ "type": "Feature", "properties": { "gml_id": "ETABLISSEMENTS_POLLUEURS.4565", "identifiant": "0006200673", "idetab": "4565", "nom": "GENSEL", "codeape": "3511Z", "cp": "54110" }, "geometry": { "type": "Point", "coordinates": [ 6.321372, 48.63435 ] } },
{ "type": "Feature", "properties": { "gml_id": "ETABLISSEMENTS_POLLUEURS.1747", "identifiant": "0006200677", "idetab": "1747", "nom": "R.A.M LOCATIONS", "codeape": "9609Z", "cp": "54110" }, "geometry": { "type": "Point", "coordinates": [ 6.313941, 48.634843 ] } },
{ "type": "Feature", "properties": { "gml_id": "ETABLISSEMENTS_POLLUEURS.1748", "identifiant": "0006200679", "idetab": "1748", "nom": "COMPAGNIE DES SALINS DU MIDI ET DES SALINES DE L'EST", "codeape": "1084Z", "cp": "54110" }, "geometry": { "type": "Point", "coordinates": [ 6.30917, 48.63823 ] } },
{ "type": "Feature", "properties": { "gml_id": "ETABLISSEMENTS_POLLUEURS.597588", "identifiant": "0003012003", "idetab": "597588", "nom": "NOVAWOOD", "codeape": "3511Z", "cp": "54410" }, "geometry": { "type": "Point", "coordinates": [ 6.26559, 48.63936 ] } },
{ "type": "Feature", "properties": { "gml_id": "ETABLISSEMENTS_POLLUEURS.1731", "identifiant": "0006200297", "idetab": "1731", "nom": "NOVACOGE", "codeape": "3511Z", "cp": "54410" }, "geometry": { "type": "Point", "coordinates": [ 6.26553, 48.63936 ] } },
{ "type": "Feature", "properties": { "gml_id": "ETABLISSEMENTS_POLLUEURS.1732", "identifiant": "0006200307", "idetab": "1732", "nom": "NOVACARB", "codeape": "2013B", "cp": "54410" }, "geometry": { "type": "Point", "coordinates": [ 6.26553, 48.6394 ] } },
{ "type": "Feature", "properties": { "gml_id": "ETABLISSEMENTS_POLLUEURS.1739", "identifiant": "0006200462", "idetab": "1739", "nom": "CHU DE NANCY", "codeape": "8610Z", "cp": "54500" }, "geometry": { "type": "Point", "coordinates": [ 6.150299, 48.648892 ] } },
{ "type": "Feature", "properties": { "gml_id": "ETABLISSEMENTS_POLLUEURS.12295", "identifiant": "0006200176", "idetab": "12295", "nom": "ALIANE", "codeape": "1091Z", "cp": "54370" }, "geometry": { "type": "Point", "coordinates": [ 6.47589, 48.65139 ] } },
{ "type": "Feature", "properties": { "gml_id": "ETABLISSEMENTS_POLLUEURS.8999", "identifiant": "0006200175", "idetab": "8999", "nom": "SALINE D'EINVILLE S.A.", "codeape": "1084Z", "cp": "54370" }, "geometry": { "type": "Point", "coordinates": [ 6.464373, 48.653278 ] } },
{ "type": "Feature", "properties": { "gml_id": "ETABLISSEMENTS_POLLUEURS.596889", "identifiant": "0003012154", "idetab": "596889", "nom": "SERVICES ENERGETIQUES ET ENVIRONNEMENTAUX DE VANDOEUVRE (EN ABREGE) S.E.E.V.", "codeape": "3530Z", "cp": "54500" }, "geometry": { "type": "Point", "coordinates": [ 6.16709, 48.65703 ] } },
{ "type": "Feature", "properties": { "gml_id": "ETABLISSEMENTS_POLLUEURS.9001", "identifiant": "0006200299", "idetab": "9001", "nom": "GSM JARVILLE/LANEUVEVILLE", "codeape": "0812Z", "cp": "54410" }, "geometry": { "type": "Point", "coordinates": [ 6.229444, 48.657989 ] } },
{ "type": "Feature", "properties": { "gml_id": "ETABLISSEMENTS_POLLUEURS.4564", "identifiant": "0006200667", "idetab": "4564", "nom": "SEEV VANDOEUVRE", "codeape": "3530Z", "cp": "54500" }, "geometry": { "type": "Point", "coordinates": [ 6.166138, 48.660725 ] } },
{ "type": "Feature", "properties": { "gml_id": "ETABLISSEMENTS_POLLUEURS.4561", "identifiant": "0006200472", "idetab": "4561", "nom": "ESTIA RESEAUX DE CHALEUR", "codeape": "3530Z", "cp": "54000" }, "geometry": { "type": "Point", "coordinates": [ 6.16554, 48.67005 ] } },
{ "type": "Feature", "properties": { "gml_id": "ETABLISSEMENTS_POLLUEURS.9013", "identifiant": "0006203590", "idetab": "9013", "nom": "HEIDELBERG MATERIALS FRANCE GRANULATS", "codeape": "0812Z", "cp": "54360" }, "geometry": { "type": "Point", "coordinates": [ 6.34345, 48.56885 ] } },
{ "type": "Feature", "properties": { "gml_id": "ETABLISSEMENTS_POLLUEURS.10717", "identifiant": "0006204795", "idetab": "10717", "nom": "AUTO CASSE 3000", "codeape": "4532Z", "cp": "54500" }, "geometry": { "type": "Point", "coordinates": [ 6.182697, 48.657311 ] } },
{ "type": "Feature", "properties": { "gml_id": "ETABLISSEMENTS_POLLUEURS.593921", "identifiant": "0006204810", "idetab": "593921", "nom": "TRAVAUX ROUTIERS DE LA MEURTHE", "codeape": "2399Z", "cp": "54300" }, "geometry": { "type": "Point", "coordinates": [ 6.49321, 48.56872 ] } },
{ "type": "Feature", "properties": { "gml_id": "ETABLISSEMENTS_POLLUEURS.6657", "identifiant": "0006204828", "idetab": "6657", "nom": "RESOLEST", "codeape": "3822Z", "cp": "54110" }, "geometry": { "type": "Point", "coordinates": [ 6.36156, 48.6026 ] } },
{ "type": "Feature", "properties": { "gml_id": "ETABLISSEMENTS_POLLUEURS.9017", "identifiant": "0006205716", "idetab": "9017", "nom": "ONYX EST LUDRES 2", "codeape": "372Z", "cp": "54710" }, "geometry": { "type": "Point", "coordinates": [ 6.160202, 48.621543 ] } },
{ "type": "Feature", "properties": { "gml_id": "ETABLISSEMENTS_POLLUEURS.9018", "identifiant": "0006205820", "idetab": "9018", "nom": "BETAIGNE ENVIRONNEMENT", "codeape": "2015Z", "cp": "54950" }, "geometry": { "type": "Point", "coordinates": [ 6.600758, 48.542548 ] } },
{ "type": "Feature", "properties": { "gml_id": "ETABLISSEMENTS_POLLUEURS.1912", "identifiant": "0006205874", "idetab": "1912", "nom": "SCHWEITZER", "codeape": "2222Z", "cp": "54710" }, "geometry": { "type": "Point", "coordinates": [ 6.18583, 48.61136 ] } },
{ "type": "Feature", "properties": { "gml_id": "ETABLISSEMENTS_POLLUEURS.594235", "identifiant": "0006205891", "idetab": "594235", "nom": "HEIDELBERG MATERIALS FRANCE GRANULATS", "codeape": "0812Z", "cp": "54290" }, "geometry": { "type": "Point", "coordinates": [ 6.28962, 48.48467 ] } },
{ "type": "Feature", "properties": { "gml_id": "ETABLISSEMENTS_POLLUEURS.592562", "identifiant": "0006206155", "idetab": "592562", "nom": "GRANULATS VICAT", "codeape": "0811Z", "cp": "54950" }, "geometry": { "type": "Point", "coordinates": [ 6.58262, 48.52696 ] } },
{ "type": "Feature", "properties": { "gml_id": "ETABLISSEMENTS_POLLUEURS.12930", "identifiant": "0006206168", "idetab": "12930", "nom": "B.BRAUN MEDICAL", "codeape": "3250A", "cp": "54710" }, "geometry": { "type": "Point", "coordinates": [ 6.18861, 48.61515 ] } },
{ "type": "Feature", "properties": { "gml_id": "ETABLISSEMENTS_POLLUEURS.589703", "identifiant": "0006206356", "idetab": "589703", "nom": "CARRIERES & MATERIAUX NORD-EST", "codeape": "7010Z", "cp": "54850" }, "geometry": { "type": "Point", "coordinates": [ 6.13031, 48.61277 ] } },
{ "type": "Feature", "properties": { "gml_id": "ETABLISSEMENTS_POLLUEURS.594230", "identifiant": "0006206504", "idetab": "594230", "nom": "HEIDELBERG MATERIALS FRANCE GRANULATS", "codeape": "0812Z", "cp": "54360" }, "geometry": { "type": "Point", "coordinates": [ 6.3547, 48.57371 ] } },
{ "type": "Feature", "properties": { "gml_id": "ETABLISSEMENTS_POLLUEURS.14158", "identifiant": "0006207759", "idetab": "14158", "nom": "SAS GRANULATS VICAT", "codeape": "0812Z", "cp": "54300" }, "geometry": { "type": "Point", "coordinates": [ 6.511106, 48.548245 ] } },
{ "type": "Feature", "properties": { "gml_id": "ETABLISSEMENTS_POLLUEURS.594083", "identifiant": "0006207866", "idetab": "594083", "nom": "FRAIMBOIS GRANULATS", "codeape": "0812Z", "cp": "54300" }, "geometry": { "type": "Point", "coordinates": [ 6.56644, 48.53398 ] } },
{ "type": "Feature", "properties": { "gml_id": "ETABLISSEMENTS_POLLUEURS.10744", "identifiant": "0006208086", "idetab": "10744", "nom": "SERVICES ENERGETIQUES ET ENVIRONNEMENTAUX DE VANDOEUVRE (EN ABREGE) S.E.E.V.", "codeape": "3530Z", "cp": "54500" }, "geometry": { "type": "Point", "coordinates": [ 6.18417, 48.66003 ] } },
{ "type": "Feature", "properties": { "gml_id": "ETABLISSEMENTS_POLLUEURS.588848", "identifiant": "0006208315", "idetab": "588848", "nom": "GRANULATS VICAT", "codeape": "0812Z", "cp": "54300" }, "geometry": { "type": "Point", "coordinates": [ 6.53699, 48.55842 ] } },
{ "type": "Feature", "properties": { "gml_id": "ETABLISSEMENTS_POLLUEURS.594800", "identifiant": "0006208326", "idetab": "594800", "nom": "HEIDELBERG MATERIALS FRANCE GRANULATS", "codeape": "0812Z", "cp": "54630" }, "geometry": { "type": "Point", "coordinates": [ 6.2161, 48.56073 ] } },
{ "type": "Feature", "properties": { "gml_id": "ETABLISSEMENTS_POLLUEURS.590442", "identifiant": "0006209376", "idetab": "590442", "nom": "ALPHA RECYCLAGE FRANCHE COMTE SARL", "codeape": "3832Z", "cp": "54950" }, "geometry": { "type": "Point", "coordinates": [ 6.59819, 48.54467 ] } },
{ "type": "Feature", "properties": { "gml_id": "ETABLISSEMENTS_POLLUEURS.588850", "identifiant": "0006209481", "idetab": "588850", "nom": "LES SABLIÈRES DE LA MEURTHE", "codeape": "0812Z", "cp": "54100" }, "geometry": { "type": "Point", "coordinates": [ 6.34469, 48.58995 ] } },
{ "type": "Feature", "properties": { "gml_id": "ETABLISSEMENTS_POLLUEURS.591077", "identifiant": "0055400200", "idetab": "591077", "nom": "PYCOQ", "codeape": "0147Z", "cp": "54210" }, "geometry": { "type": "Point", "coordinates": [ 6.25063, 48.58168 ] } },
{ "type": "Feature", "properties": { "gml_id": "ETABLISSEMENTS_POLLUEURS.7446", "identifiant": "54108310", "idetab": "7446", "nom": "SCEA LA HAIE DES PRES", "codeape": "0147Z", "cp": "54210" }, "geometry": { "type": "Point", "coordinates": [ 6.253545, 48.591282 ] } },
{ "type": "Feature", "properties": { "gml_id": "ETABLISSEMENTS_POLLUEURS.1877", "identifiant": "0006202492", "idetab": "1877", "nom": "MAILLE VERTE VOSGIENNE", "codeape": "1391Z", "cp": "88200" }, "geometry": { "type": "Point", "coordinates": [ 6.55623, 48.01389 ] } },
{ "type": "Feature", "properties": { "gml_id": "ETABLISSEMENTS_POLLUEURS.6654", "identifiant": "0006202442", "idetab": "6654", "nom": "KYOCERA SENCO FRANCE", "codeape": "2593Z", "cp": "88120" }, "geometry": { "type": "Point", "coordinates": [ 6.66599, 48.02083 ] } },
{ "type": "Feature", "properties": { "gml_id": "ETABLISSEMENTS_POLLUEURS.10715", "identifiant": "0006202520", "idetab": "10715", "nom": "AUTO PIECES 88", "codeape": "4519Z", "cp": "88120" }, "geometry": { "type": "Point", "coordinates": [ 6.685027, 48.025768 ] } },
{ "type": "Feature", "properties": { "gml_id": "ETABLISSEMENTS_POLLUEURS.1878", "identifiant": "0006202493", "idetab": "1878", "nom": "GREGOIRE SA", "codeape": "1712Z", "cp": "88204" }, "geometry": { "type": "Point", "coordinates": [ 6.577752, 48.0272 ] } },
{ "type": "Feature", "properties": { "gml_id": "ETABLISSEMENTS_POLLUEURS.9780", "identifiant": "0006204549", "idetab": "9780", "nom": "GIE DU COSTET", "codeape": "7010Z", "cp": "88400" }, "geometry": { "type": "Point", "coordinates": [ 6.85961, 48.06497 ] } },
{ "type": "Feature", "properties": { "gml_id": "ETABLISSEMENTS_POLLUEURS.1856", "identifiant": "0006202240", "idetab": "1856", "nom": "BLANCHIMENT DE XONRUPT II", "codeape": "1330Z", "cp": "88400" }, "geometry": { "type": "Point", "coordinates": [ 6.85961, 48.06497 ] } },
{ "type": "Feature", "properties": { "gml_id": "ETABLISSEMENTS_POLLUEURS.4601", "identifiant": "0006202252", "idetab": "4601", "nom": "CROUVEZIER DEVELOPPEMENT", "codeape": "1330Z", "cp": "88400" }, "geometry": { "type": "Point", "coordinates": [ 6.85961, 48.06497 ] } },
{ "type": "Feature", "properties": { "gml_id": "ETABLISSEMENTS_POLLUEURS.1859", "identifiant": "0006202253", "idetab": "1859", "nom": "DORIDANT S.A.S.", "codeape": "173Z", "cp": "88400" }, "geometry": { "type": "Point", "coordinates": [ 6.88333, 48.0667 ] } },
{ "type": "Feature", "properties": { "gml_id": "ETABLISSEMENTS_POLLUEURS.1857", "identifiant": "0006202245", "idetab": "1857", "nom": "SVBC DAVID", "codeape": "174A", "cp": "88400" }, "geometry": { "type": "Point", "coordinates": [ 6.88333, 48.0667 ] } },
{ "type": "Feature", "properties": { "gml_id": "ETABLISSEMENTS_POLLUEURS.11685", "identifiant": "0006204550", "idetab": "11685", "nom": "ETABLISSEMENTS RENE PARMENTELAT ET FILS", "codeape": "1330Z", "cp": "88400" }, "geometry": { "type": "Point", "coordinates": [ 6.81004, 48.06981 ] } },
{ "type": "Feature", "properties": { "gml_id": "ETABLISSEMENTS_POLLUEURS.1858", "identifiant": "0006202250", "idetab": "1858", "nom": "PARMENTELAT RENE ET FILS", "codeape": "", "cp": "88400" }, "geometry": { "type": "Point", "coordinates": [ 6.868599, 48.071651 ] } },
{ "type": "Feature", "properties": { "gml_id": "ETABLISSEMENTS_POLLUEURS.1888", "identifiant": "0006204543", "idetab": "1888", "nom": "BLANCHIMENT DES HAUTES-VOSGES", "codeape": "173Z", "cp": "88400" }, "geometry": { "type": "Point", "coordinates": [ 6.868599, 48.071651 ] } },
{ "type": "Feature", "properties": { "gml_id": "ETABLISSEMENTS_POLLUEURS.594886", "identifiant": "0006202196", "idetab": "594886", "nom": "DS SMITH PACKAGING VELIN", "codeape": "1721A", "cp": "88510" }, "geometry": { "type": "Point", "coordinates": [ 6.60492, 48.07406 ] } },
{ "type": "Feature", "properties": { "gml_id": "ETABLISSEMENTS_POLLUEURS.596117", "identifiant": "0006204186", "idetab": "596117", "nom": "SAGRAM", "codeape": "0812Z", "cp": "88530" }, "geometry": { "type": "Point", "coordinates": [ 6.78093, 48.07425 ] } },
{ "type": "Feature", "properties": { "gml_id": "ETABLISSEMENTS_POLLUEURS.597329", "identifiant": "0006202247", "idetab": "597329", "nom": "SOCIETE NOUVELLEWM EN ABREGE 'WM'", "codeape": "2932Z", "cp": "88400" }, "geometry": { "type": "Point", "coordinates": [ 6.87978, 48.07701 ] } },
{ "type": "Feature", "properties": { "gml_id": "ETABLISSEMENTS_POLLUEURS.1881", "identifiant": "0006202551", "idetab": "1881", "nom": "B.G.", "codeape": "1051C", "cp": "88530" }, "geometry": { "type": "Point", "coordinates": [ 6.73698, 48.08406 ] } },
{ "type": "Feature", "properties": { "gml_id": "ETABLISSEMENTS_POLLUEURS.4608", "identifiant": "0006205027", "idetab": "4608", "nom": "GLACES THIRIET", "codeape": "1052Z", "cp": "88510" }, "geometry": { "type": "Point", "coordinates": [ 6.61997, 48.093 ] } },
{ "type": "Feature", "properties": { "gml_id": "ETABLISSEMENTS_POLLUEURS.1864", "identifiant": "0006202277", "idetab": "1864", "nom": "SOCIETE DE TISSAGE DE GERARDMER GARNIER THIEBAUT", "codeape": "1320Z", "cp": "88640" }, "geometry": { "type": "Point", "coordinates": [ 6.81561, 48.14107 ] } },
{ "type": "Feature", "properties": { "gml_id": "ETABLISSEMENTS_POLLUEURS.1854", "identifiant": "0006202183", "idetab": "1854", "nom": "ETABLISSEMENT PAPETERIES DE DOCELLES", "codeape": "1712Z", "cp": "88460" }, "geometry": { "type": "Point", "coordinates": [ 6.616524, 48.145833 ] } },
{ "type": "Feature", "properties": { "gml_id": "ETABLISSEMENTS_POLLUEURS.1867", "identifiant": "0006202312", "idetab": "1867", "nom": "DECOUVELAERE", "codeape": "172A", "cp": "88600" }, "geometry": { "type": "Point", "coordinates": [ 6.668108, 48.173181 ] } },
{ "type": "Feature", "properties": { "gml_id": "ETABLISSEMENTS_POLLUEURS.1852", "identifiant": "0006202172", "idetab": "1852", "nom": "MARCILLAT CORCIEUX", "codeape": "1051C", "cp": "88430" }, "geometry": { "type": "Point", "coordinates": [ 6.88377, 48.1785 ] } },
{ "type": "Feature", "properties": { "gml_id": "ETABLISSEMENTS_POLLUEURS.1853", "identifiant": "0006202174", "idetab": "1853", "nom": "MARCILLAT CORCIEUX", "codeape": "1051D", "cp": "88430" }, "geometry": { "type": "Point", "coordinates": [ 6.88309, 48.18416 ] } },
{ "type": "Feature", "properties": { "gml_id": "ETABLISSEMENTS_POLLUEURS.1848", "identifiant": "0006202118", "idetab": "1848", "nom": "TOILTECH", "codeape": "1396Z", "cp": "88600" }, "geometry": { "type": "Point", "coordinates": [ 6.77846, 48.19161 ] } },
{ "type": "Feature", "properties": { "gml_id": "ETABLISSEMENTS_POLLUEURS.1866", "identifiant": "0006202307", "idetab": "1866", "nom": "LUCART SAS", "codeape": "1722Z", "cp": "88600" }, "geometry": { "type": "Point", "coordinates": [ 6.7062, 48.19223 ] } },
{ "type": "Feature", "properties": { "gml_id": "ETABLISSEMENTS_POLLUEURS.4606", "identifiant": "0006204816", "idetab": "4606", "nom": "CCV", "codeape": "3511Z", "cp": "88600" }, "geometry": { "type": "Point", "coordinates": [ 6.698048, 48.194389 ] } },
{ "type": "Feature", "properties": { "gml_id": "ETABLISSEMENTS_POLLUEURS.10724", "identifiant": "0006206113", "idetab": "10724", "nom": "DUBAS FRÉDÉRIC", "codeape": "3831Z", "cp": "88600" }, "geometry": { "type": "Point", "coordinates": [ 6.63152, 48.22643 ] } },
{ "type": "Feature", "properties": { "gml_id": "ETABLISSEMENTS_POLLUEURS.1915", "identifiant": "0006206235", "idetab": "1915", "nom": "PAPETERIES DES VOSGES", "codeape": "1712Z", "cp": "88600" }, "geometry": { "type": "Point", "coordinates": [ 6.70176, 48.19251 ] } },
{ "type": "Feature", "properties": { "gml_id": "ETABLISSEMENTS_POLLUEURS.12932", "identifiant": "0006206538", "idetab": "12932", "nom": "SPECIALTY MINERALS FRANCE", "codeape": "2013B", "cp": "88460" }, "geometry": { "type": "Point", "coordinates": [ 6.616524, 48.145833 ] } },
{ "type": "Feature", "properties": { "gml_id": "ETABLISSEMENTS_POLLUEURS.590440", "identifiant": "0006209228", "idetab": "590440", "nom": "BIOFELY PDV", "codeape": "3511Z", "cp": "88600" }, "geometry": { "type": "Point", "coordinates": [ 6.698048, 48.194389 ] } },
{ "type": "Feature", "properties": { "gml_id": "ETABLISSEMENTS_POLLUEURS.593840", "identifiant": "0006204853", "idetab": "593840", "nom": "HEIDELBERG MATERIALS FRANCE GRANULATS", "codeape": "0812Z", "cp": "88700" }, "geometry": { "type": "Point", "coordinates": [ 6.67836, 48.31133 ] } },
{ "type": "Feature", "properties": { "gml_id": "ETABLISSEMENTS_POLLUEURS.1870", "identifiant": "0006202363", "idetab": "1870", "nom": "FAURECIA VOSGES", "codeape": "2932Z", "cp": "88470" }, "geometry": { "type": "Point", "coordinates": [ 6.885052, 48.312232 ] } },
{ "type": "Feature", "properties": { "gml_id": "ETABLISSEMENTS_POLLUEURS.9015", "identifiant": "0006204000", "idetab": "9015", "nom": "HEIDELBERG MATERIALS FRANCE GRANULATS", "codeape": "0812Z", "cp": "88700" }, "geometry": { "type": "Point", "coordinates": [ 6.67831, 48.31473 ] } },
{ "type": "Feature", "properties": { "gml_id": "ETABLISSEMENTS_POLLUEURS.10711", "identifiant": "0006202482", "idetab": "10711", "nom": "FAURECIA INTERIEUR INDUSTRIE", "codeape": "2932Z", "cp": "88470" }, "geometry": { "type": "Point", "coordinates": [ 6.89805, 48.32057 ] } },
{ "type": "Feature", "properties": { "gml_id": "ETABLISSEMENTS_POLLUEURS.1876", "identifiant": "0006202480", "idetab": "1876", "nom": "HIRSCH FRANCE (EX PLACOPLATRE)", "codeape": "2223Z", "cp": "88470" }, "geometry": { "type": "Point", "coordinates": [ 6.890769, 48.322181 ] } },
{ "type": "Feature", "properties": { "gml_id": "ETABLISSEMENTS_POLLUEURS.589701", "identifiant": "0006202478", "idetab": "589701", "nom": "EST ARGENT", "codeape": "3832Z", "cp": "88470" }, "geometry": { "type": "Point", "coordinates": [ 6.89753, 48.323 ] } },
{ "type": "Feature", "properties": { "gml_id": "ETABLISSEMENTS_POLLUEURS.4603", "identifiant": "0006202396", "idetab": "4603", "nom": "EGGER PANNEAUX ET DECORS", "codeape": "1621Z", "cp": "88700" }, "geometry": { "type": "Point", "coordinates": [ 6.65654, 48.33671 ] } },
{ "type": "Feature", "properties": { "gml_id": "ETABLISSEMENTS_POLLUEURS.1872", "identifiant": "0006202399", "idetab": "1872", "nom": "PAPETERIES MATUSSIÈRE ET FOREST - SITE DE RAMBERVILLERS", "codeape": "211C", "cp": "88700" }, "geometry": { "type": "Point", "coordinates": [ 6.635175, 48.341952 ] } },
{ "type": "Feature", "properties": { "gml_id": "ETABLISSEMENTS_POLLUEURS.1871", "identifiant": "0006202392", "idetab": "1871", "nom": "FENIIX", "codeape": "3821Z", "cp": "88700" }, "geometry": { "type": "Point", "coordinates": [ 6.6208, 48.35563 ] } },
{ "type": "Feature", "properties": { "gml_id": "ETABLISSEMENTS_POLLUEURS.1855", "identifiant": "0006202229", "idetab": "1855", "nom": "PAPETERIES DE CLAIREFONTAINE", "codeape": "1712Z", "cp": "88480" }, "geometry": { "type": "Point", "coordinates": [ 6.87423, 48.36509 ] } },
{ "type": "Feature", "properties": { "gml_id": "ETABLISSEMENTS_POLLUEURS.597529", "identifiant": "0003012598", "idetab": "597529", "nom": "THIEBAUT ENERGIE", "codeape": "3511Z", "cp": "88700" }, "geometry": { "type": "Point", "coordinates": [ 6.67054, 48.37325 ] } },
{ "type": "Feature", "properties": { "gml_id": "ETABLISSEMENTS_POLLUEURS.12928", "identifiant": "0006202415", "idetab": "12928", "nom": "PTP INDUSTRY", "codeape": "2451Z", "cp": "88110" }, "geometry": { "type": "Point", "coordinates": [ 6.83483, 48.40401 ] } },
{ "type": "Feature", "properties": { "gml_id": "ETABLISSEMENTS_POLLUEURS.1874", "identifiant": "0006202418", "idetab": "1874", "nom": "PAPETERIE DES CHATELLES", "codeape": "1712Z", "cp": "88110" }, "geometry": { "type": "Point", "coordinates": [ 6.84357, 48.406602 ] } },
{ "type": "Feature", "properties": { "gml_id": "ETABLISSEMENTS_POLLUEURS.589700", "identifiant": "0006202416", "idetab": "589700", "nom": "CARRIERES & MATERIAUX NORD-EST", "codeape": "0812Z", "cp": "88110" }, "geometry": { "type": "Point", "coordinates": [ 6.87132, 48.40717 ] } },
{ "type": "Feature", "properties": { "gml_id": "ETABLISSEMENTS_POLLUEURS.1873", "identifiant": "0006202417", "idetab": "1873", "nom": "RAON CIRCULAR REGENERATION", "codeape": "1712Z", "cp": "88110" }, "geometry": { "type": "Point", "coordinates": [ 6.828482, 48.410432 ] } },
{ "type": "Feature", "properties": { "gml_id": "ETABLISSEMENTS_POLLUEURS.4602", "identifiant": "0006202326", "idetab": "4602", "nom": "SITA LORRAINE", "codeape": "3821Z", "cp": "88700" }, "geometry": { "type": "Point", "coordinates": [ 6.64792, 48.41854 ] } },
{ "type": "Feature", "properties": { "gml_id": "ETABLISSEMENTS_POLLUEURS.1718", "identifiant": "0006200031", "idetab": "1718", "nom": "BACCARAT", "codeape": "2313Z", "cp": "54120" }, "geometry": { "type": "Point", "coordinates": [ 6.74173, 48.4486 ] } },
{ "type": "Feature", "properties": { "gml_id": "ETABLISSEMENTS_POLLUEURS.9770", "identifiant": "0006200030", "idetab": "9770", "nom": "SOCIETE EUROPEENNE DE GALVANISATION", "codeape": "2561Z", "cp": "54120" }, "geometry": { "type": "Point", "coordinates": [ 6.74407, 48.4599 ] } },
{ "type": "Feature", "properties": { "gml_id": "ETABLISSEMENTS_POLLUEURS.11688", "identifiant": "0006208421", "idetab": "11688", "nom": "TERRAGRI", "codeape": "0161Z", "cp": "88700" }, "geometry": { "type": "Point", "coordinates": [ 6.67084, 48.36262 ] } },
{ "type": "Feature", "properties": { "gml_id": "ETABLISSEMENTS_POLLUEURS.588852", "identifiant": "0006209789", "idetab": "588852", "nom": "SUEZ ORGANIQUE", "codeape": "3821Z", "cp": "88700" }, "geometry": { "type": "Point", "coordinates": [ 6.64792, 48.41854 ] } },
{ "type": "Feature", "properties": { "gml_id": "ETABLISSEMENTS_POLLUEURS.588863", "identifiant": "0006210083", "idetab": "588863", "nom": "SOGEA EST B T P", "codeape": "4221Z", "cp": "88700" }, "geometry": { "type": "Point", "coordinates": [ 6.62139, 48.34497 ] } },
{ "type": "Feature", "properties": { "gml_id": "ETABLISSEMENTS_POLLUEURS.6623", "identifiant": "0006200160", "idetab": "6623", "nom": "CHIMIREC-EST", "codeape": "3812Z", "cp": "54450" }, "geometry": { "type": "Point", "coordinates": [ 6.69513, 48.5651 ] } },
{ "type": "Feature", "properties": { "gml_id": "ETABLISSEMENTS_POLLUEURS.6637", "identifiant": "0006201128", "idetab": "6637", "nom": "KOHLER FRANCE DIVISION METAQUARTZ", "codeape": "252E", "cp": "57260" }, "geometry": { "type": "Point", "coordinates": [ 6.71562, 48.812401 ] } },
{ "type": "Feature", "properties": { "gml_id": "ETABLISSEMENTS_POLLUEURS.8524", "identifiant": "0006201126", "idetab": "8524", "nom": "EURO DIEUZE INDUSTRIE", "codeape": "3822Z", "cp": "57260" }, "geometry": { "type": "Point", "coordinates": [ 6.72013, 48.8125 ] } },
{ "type": "Feature", "properties": { "gml_id": "ETABLISSEMENTS_POLLUEURS.1892", "identifiant": "0006204561", "idetab": "1892", "nom": "CHAINES ET ROUES DENTEES RAFER", "codeape": "2815Z", "cp": "57260" }, "geometry": { "type": "Point", "coordinates": [ 6.721625, 48.823097 ] } },
{ "type": "Feature", "properties": { "gml_id": "ETABLISSEMENTS_POLLUEURS.9000", "identifiant": "0006200244", "idetab": "9000", "nom": "LES FROMAGERIES DE BLAMONT", "codeape": "1051C", "cp": "54450" }, "geometry": { "type": "Point", "coordinates": [ 6.75378, 48.55381 ] } },
{ "type": "Feature", "properties": { "gml_id": "ETABLISSEMENTS_POLLUEURS.1775", "identifiant": "0006201021", "idetab": "1775", "nom": "COMPAGNIE DES FROMAGES ET RICHESMONTS", "codeape": "1051C", "cp": "57670" }, "geometry": { "type": "Point", "coordinates": [ 6.7606, 48.9072 ] } },
{ "type": "Feature", "properties": { "gml_id": "ETABLISSEMENTS_POLLUEURS.1774", "identifiant": "0006201020", "idetab": "1774", "nom": "EUROSERUM", "codeape": "1051D", "cp": "57670" }, "geometry": { "type": "Point", "coordinates": [ 6.7606, 48.9072 ] } },
{ "type": "Feature", "properties": { "gml_id": "ETABLISSEMENTS_POLLUEURS.598709", "identifiant": "0006207081", "idetab": "598709", "nom": "KLV ENVIRONNEMENT", "codeape": "3821Z", "cp": "57260" }, "geometry": { "type": "Point", "coordinates": [ 6.78374, 48.89025 ] } },
{ "type": "Feature", "properties": { "gml_id": "ETABLISSEMENTS_POLLUEURS.8652", "identifiant": "0006207447", "idetab": "8652", "nom": "LOR COMPOST (SITE D'AVRICOURT)", "codeape": "3811Z", "cp": "57810" }, "geometry": { "type": "Point", "coordinates": [ 6.804679, 48.65197 ] } },
{ "type": "Feature", "properties": { "gml_id": "ETABLISSEMENTS_POLLUEURS.6659", "identifiant": "0006205873", "idetab": "6659", "nom": "ETABLISSEMENTS GEYER FRERES", "codeape": "1107B", "cp": "57670" }, "geometry": { "type": "Point", "coordinates": [ 6.913526, 48.912788 ] } },
{ "type": "Feature", "properties": { "gml_id": "ETABLISSEMENTS_POLLUEURS.588844", "identifiant": "0006206430", "idetab": "588844", "nom": "SOCIETE DES TRAVAUX DE LA VEZOUZE", "codeape": "0812Z", "cp": "54450" }, "geometry": { "type": "Point", "coordinates": [ 6.953205, 48.609169 ] } },
{ "type": "Feature", "properties": { "gml_id": "ETABLISSEMENTS_POLLUEURS.1804", "identifiant": "0006201370", "idetab": "1804", "nom": "EQIOM", "codeape": "2351Z", "cp": "57830" }, "geometry": { "type": "Point", "coordinates": [ 6.96899, 48.6902 ] } },
{ "type": "Feature", "properties": { "gml_id": "ETABLISSEMENTS_POLLUEURS.598360", "identifiant": "0006200050", "idetab": "598360", "nom": "SOCIETE DECKER FRERES", "codeape": "1610A", "cp": "54480" }, "geometry": { "type": "Point", "coordinates": [ 6.98979, 48.5972 ] } },
{ "type": "Feature", "properties": { "gml_id": "ETABLISSEMENTS_POLLUEURS.10731", "identifiant": "0006207283", "idetab": "10731", "nom": "BEBING AUTO SARL", "codeape": "4511Z", "cp": "57830" }, "geometry": { "type": "Point", "coordinates": [ 6.99597, 48.71028 ] } },
{ "type": "Feature", "properties": { "gml_id": "ETABLISSEMENTS_POLLUEURS.594847", "identifiant": "0006203962", "idetab": "594847", "nom": "EQIOM", "codeape": "2351Z", "cp": "57400" }, "geometry": { "type": "Point", "coordinates": [ 6.99781, 48.68928 ] } },
{ "type": "Feature", "properties": { "gml_id": "ETABLISSEMENTS_POLLUEURS.597898", "identifiant": "0055400086", "idetab": "597898", "nom": "GAEC DE BARBEZIEUX", "codeape": "0142Z", "cp": "54450" }, "geometry": { "type": "Point", "coordinates": [ 6.85167, 48.57334 ] } },
{ "type": "Feature", "properties": { "gml_id": "ETABLISSEMENTS_POLLUEURS.592838", "identifiant": "0055700335", "idetab": "592838", "nom": "GAEC DU GRAND SORBIER", "codeape": "0141Z", "cp": "57815" }, "geometry": { "type": "Point", "coordinates": [ 6.92778, 48.68784 ] } },
{ "type": "Feature", "properties": { "gml_id": "ETABLISSEMENTS_POLLUEURS.591130", "identifiant": "0055700493", "idetab": "591130", "nom": "SARL L'OEUF DU GRAND EST", "codeape": "0147Z", "cp": "57810" }, "geometry": { "type": "Point", "coordinates": [ 6.701964, 48.691447 ] } },
{ "type": "Feature", "properties": { "gml_id": "ETABLISSEMENTS_POLLUEURS.10411", "identifiant": "57375400", "idetab": "10411", "nom": "SARL L'OEUF DU GRAND EST", "codeape": "0147Z", "cp": "57810" }, "geometry": { "type": "Point", "coordinates": [ 6.702718, 48.700422 ] } },
{ "type": "Feature", "properties": { "gml_id": "ETABLISSEMENTS_POLLUEURS.590444", "identifiant": "0006209782", "idetab": "590444", "nom": "SALVECO", "codeape": "2041Z", "cp": "88100" }, "geometry": { "type": "Point", "coordinates": [ 6.9251, 48.30288 ] } },
{ "type": "Feature", "properties": { "gml_id": "ETABLISSEMENTS_POLLUEURS.591469", "identifiant": "0006202460", "idetab": "591469", "nom": "MEA INDUSTRIES", "codeape": "2223Z", "cp": "88100" }, "geometry": { "type": "Point", "coordinates": [ 6.92751, 48.29033 ] } },
{ "type": "Feature", "properties": { "gml_id": "ETABLISSEMENTS_POLLUEURS.10716", "identifiant": "0006204707", "idetab": "10716", "nom": "ETS DAVID DREYFUS", "codeape": "3831Z", "cp": "88100" }, "geometry": { "type": "Point", "coordinates": [ 6.93509, 48.28551 ] } },
{ "type": "Feature", "properties": { "gml_id": "ETABLISSEMENTS_POLLUEURS.10745", "identifiant": "0006208407", "idetab": "10745", "nom": "DAM S.A.S.", "codeape": "2561Z", "cp": "88100" }, "geometry": { "type": "Point", "coordinates": [ 6.947778, 48.2846 ] } },
{ "type": "Feature", "properties": { "gml_id": "ETABLISSEMENTS_POLLUEURS.10712", "identifiant": "0006202502", "idetab": "10712", "nom": "DERAPAGE", "codeape": "4532Z", "cp": "88580" }, "geometry": { "type": "Point", "coordinates": [ 6.95092, 48.23486 ] } },
{ "type": "Feature", "properties": { "gml_id": "ETABLISSEMENTS_POLLUEURS.1842", "identifiant": "0006202062", "idetab": "1842", "nom": "SOUCHE PARTICIPATION", "codeape": "1712Z", "cp": "88650" }, "geometry": { "type": "Point", "coordinates": [ 6.952917, 48.188817 ] } },
{ "type": "Feature", "properties": { "gml_id": "ETABLISSEMENTS_POLLUEURS.6655", "identifiant": "0006202454", "idetab": "6655", "nom": "GANTOIS INDUSTRIES", "codeape": "2599B", "cp": "88100" }, "geometry": { "type": "Point", "coordinates": [ 6.96416, 48.2829 ] } },
{ "type": "Feature", "properties": { "gml_id": "ETABLISSEMENTS_POLLUEURS.590431", "identifiant": "0006204163", "idetab": "590431", "nom": "SOCIETE ANONYME BALLASTIERES CANTRELLE", "codeape": "7010Z", "cp": "88580" }, "geometry": { "type": "Point", "coordinates": [ 6.9659, 48.25059 ] } },
{ "type": "Feature", "properties": { "gml_id": "ETABLISSEMENTS_POLLUEURS.587941", "identifiant": "0006202471", "idetab": "587941", "nom": "NOVARES FRANCE", "codeape": "2229A", "cp": "88100" }, "geometry": { "type": "Point", "coordinates": [ 6.9811, 48.26409 ] } },
{ "type": "Feature", "properties": { "gml_id": "ETABLISSEMENTS_POLLUEURS.14151", "identifiant": "0006205834", "idetab": "14151", "nom": "SOCIETE ANONYME DE TUYAUX DE MATERIAUX ET D'AGGLOMERES", "codeape": "2361Z", "cp": "54990" }, "geometry": { "type": "Point", "coordinates": [ 6.10779, 48.55194 ] } },
{ "type": "Feature", "properties": { "gml_id": "ETABLISSEMENTS_POLLUEURS.4566", "identifiant": "0006200725", "idetab": "4566", "nom": "VICAT", "codeape": "2351Z", "cp": "54990" }, "geometry": { "type": "Point", "coordinates": [ 6.10325, 48.5674 ] } },
{ "type": "Feature", "properties": { "gml_id": "ETABLISSEMENTS_POLLUEURS.587937", "identifiant": "0006200401", "idetab": "587937", "nom": "GRANULATS VICAT", "codeape": "0812Z", "cp": "54550" }, "geometry": { "type": "Point", "coordinates": [ 6.06044, 48.59551 ] } },
{ "type": "Feature", "properties": { "gml_id": "ETABLISSEMENTS_POLLUEURS.1741", "identifiant": "0006200499", "idetab": "1741", "nom": "SAM SOCIETE DES ACIERS D'ARMATURE POUR LE BETON", "codeape": "2410Z", "cp": "54230" }, "geometry": { "type": "Point", "coordinates": [ 6.10217, 48.61 ] } },
{ "type": "Feature", "properties": { "gml_id": "ETABLISSEMENTS_POLLUEURS.588837", "identifiant": "0006200494", "idetab": "588837", "nom": "LOCA BENNES", "codeape": "7739Z", "cp": "54230" }, "geometry": { "type": "Point", "coordinates": [ 6.09351, 48.61254 ] } },
{ "type": "Feature", "properties": { "gml_id": "ETABLISSEMENTS_POLLUEURS.10733", "identifiant": "0006207636", "idetab": "10733", "nom": "SARL ALLO CASSE AUTO", "codeape": "3831Z", "cp": "54840" }, "geometry": { "type": "Point", "coordinates": [ 6.02709, 48.6913 ] } },
{ "type": "Feature", "properties": { "gml_id": "ETABLISSEMENTS_POLLUEURS.10730", "identifiant": "0006206593", "idetab": "10730", "nom": "CETAL", "codeape": "2512Z", "cp": "54840" }, "geometry": { "type": "Point", "coordinates": [ 6.05432, 48.69624 ] } }
]
}
