{
"type": "FeatureCollection",
"name": "ms:ETABLISSEMENTS_POLLUEURS",
"crs": { "type": "name", "properties": { "name": "urn:ogc:def:crs:OGC:1.3:CRS84" } },
"features": [
{ "type": "Feature", "properties": { "gml_id": "ETABLISSEMENTS_POLLUEURS.6065", "identifiant": "0005104161", "idetab": "6065", "nom": "BETRANCOURT SAS", "codeape": "2562B", "cp": "80300" }, "geometry": { "type": "Point", "coordinates": [ 2.63585, 50.00018 ] } },
{ "type": "Feature", "properties": { "gml_id": "ETABLISSEMENTS_POLLUEURS.12089", "identifiant": "0005101768", "idetab": "12089", "nom": "DOUCE HYDRO", "codeape": "2812Z", "cp": "80300" }, "geometry": { "type": "Point", "coordinates": [ 2.63663, 50.00371 ] } },
{ "type": "Feature", "properties": { "gml_id": "ETABLISSEMENTS_POLLUEURS.588357", "identifiant": "0005101772", "idetab": "588357", "nom": "NOVIAL EX UCALPI", "codeape": "1091Z", "cp": "80300" }, "geometry": { "type": "Point", "coordinates": [ 2.650736, 50.016334 ] } },
{ "type": "Feature", "properties": { "gml_id": "ETABLISSEMENTS_POLLUEURS.7661", "identifiant": "0005104733", "idetab": "7661", "nom": "SOMEPIC TECHNOLOGIE", "codeape": "2562B", "cp": "80300" }, "geometry": { "type": "Point", "coordinates": [ 2.60882, 50.02339 ] } },
{ "type": "Feature", "properties": { "gml_id": "ETABLISSEMENTS_POLLUEURS.12178", "identifiant": "0005105869", "idetab": "12178", "nom": "SUMA AERO MECANIQUE", "codeape": "2562B", "cp": "80300" }, "geometry": { "type": "Point", "coordinates": [ 2.67048, 50.01382 ] } },
{ "type": "Feature", "properties": { "gml_id": "ETABLISSEMENTS_POLLUEURS.13670", "identifiant": "0007003072", "idetab": "13670", "nom": "LEBRUN", "codeape": "3832Z", "cp": "62750" }, "geometry": { "type": "Point", "coordinates": [ 2.791837, 50.456999 ] } },
{ "type": "Feature", "properties": { "gml_id": "ETABLISSEMENTS_POLLUEURS.5301", "identifiant": "0007001735", "idetab": "5301", "nom": "FILARTOIS", "codeape": "2060Z", "cp": "62092" }, "geometry": { "type": "Point", "coordinates": [ 2.800742, 50.508106 ] } },
{ "type": "Feature", "properties": { "gml_id": "ETABLISSEMENTS_POLLUEURS.3192", "identifiant": "0007002547", "idetab": "3192", "nom": "NITROCHIMIE - USINE DE BILLY BERCLAU", "codeape": "246A", "cp": "62091" }, "geometry": { "type": "Point", "coordinates": [ 2.800742, 50.508106 ] } },
{ "type": "Feature", "properties": { "gml_id": "ETABLISSEMENTS_POLLUEURS.5311", "identifiant": "0007002576", "idetab": "5311", "nom": "WIENERBERGER SAS", "codeape": "2332Z", "cp": "62410" }, "geometry": { "type": "Point", "coordinates": [ 2.808461, 50.486634 ] } },
{ "type": "Feature", "properties": { "gml_id": "ETABLISSEMENTS_POLLUEURS.3179", "identifiant": "0007002336", "idetab": "3179", "nom": "TT PLAST", "codeape": "2222Z", "cp": "62300" }, "geometry": { "type": "Point", "coordinates": [ 2.81916, 50.45003 ] } },
{ "type": "Feature", "properties": { "gml_id": "ETABLISSEMENTS_POLLUEURS.5271", "identifiant": "0007000814", "idetab": "5271", "nom": "STATION D'AVION HP", "codeape": "3523Z", "cp": "62210" }, "geometry": { "type": "Point", "coordinates": [ 2.822351, 50.409193 ] } },
{ "type": "Feature", "properties": { "gml_id": "ETABLISSEMENTS_POLLUEURS.5297", "identifiant": "0007001564", "idetab": "5297", "nom": "CHAUFFERIE DE LA ZUP D'AVION", "codeape": "3530Z", "cp": "62210" }, "geometry": { "type": "Point", "coordinates": [ 2.822351, 50.409193 ] } },
{ "type": "Feature", "properties": { "gml_id": "ETABLISSEMENTS_POLLUEURS.589164", "identifiant": "0007004605", "idetab": "589164", "nom": "TT PLAST", "codeape": "2222Z", "cp": "62300" }, "geometry": { "type": "Point", "coordinates": [ 2.82274, 50.42126 ] } },
{ "type": "Feature", "properties": { "gml_id": "ETABLISSEMENTS_POLLUEURS.7019", "identifiant": "0007000768", "idetab": "7019", "nom": "DINDE DES PAYS DU NORD", "codeape": "151C", "cp": "62305" }, "geometry": { "type": "Point", "coordinates": [ 2.823598, 50.430669 ] } },
{ "type": "Feature", "properties": { "gml_id": "ETABLISSEMENTS_POLLUEURS.9238", "identifiant": "0007003803", "idetab": "9238", "nom": "MECACORP ETABLISSEMENT DE LENS", "codeape": "2229A", "cp": "62300" }, "geometry": { "type": "Point", "coordinates": [ 2.823598, 50.430669 ] } },
{ "type": "Feature", "properties": { "gml_id": "ETABLISSEMENTS_POLLUEURS.9228", "identifiant": "0007002164", "idetab": "9228", "nom": "SA J.ROUSSEL", "codeape": "3832Z", "cp": "62300" }, "geometry": { "type": "Point", "coordinates": [ 2.823598, 50.430669 ] } },
{ "type": "Feature", "properties": { "gml_id": "ETABLISSEMENTS_POLLUEURS.3094", "identifiant": "0007001005", "idetab": "3094", "nom": "DALKIA", "codeape": "3530Z", "cp": "62300" }, "geometry": { "type": "Point", "coordinates": [ 2.82731, 50.44784 ] } },
{ "type": "Feature", "properties": { "gml_id": "ETABLISSEMENTS_POLLUEURS.10203", "identifiant": "0007003911", "idetab": "10203", "nom": "ETABLISSEMENTS SIMON-DUTRIAUX", "codeape": "1020Z", "cp": "62880" }, "geometry": { "type": "Point", "coordinates": [ 2.84226, 50.46038 ] } },
{ "type": "Feature", "properties": { "gml_id": "ETABLISSEMENTS_POLLUEURS.2952", "identifiant": "0007000535", "idetab": "2952", "nom": "NEXANS FRANCE", "codeape": "2732Z", "cp": "62300" }, "geometry": { "type": "Point", "coordinates": [ 2.84513, 50.43636 ] } },
{ "type": "Feature", "properties": { "gml_id": "ETABLISSEMENTS_POLLUEURS.10149", "identifiant": "0007002497", "idetab": "10149", "nom": "NEXANS FRANCE", "codeape": "2732Z", "cp": "62300" }, "geometry": { "type": "Point", "coordinates": [ 2.84513, 50.43636 ] } },
{ "type": "Feature", "properties": { "gml_id": "ETABLISSEMENTS_POLLUEURS.3058", "identifiant": "0007000883", "idetab": "3058", "nom": "TREFILEUROPE", "codeape": "273G", "cp": "62218" }, "geometry": { "type": "Point", "coordinates": [ 2.85157, 50.43383 ] } },
{ "type": "Feature", "properties": { "gml_id": "ETABLISSEMENTS_POLLUEURS.2989", "identifiant": "0007000671", "idetab": "2989", "nom": "ARKEMA - USINE DE LOISON SOUS LENS -", "codeape": "5210B", "cp": "62218" }, "geometry": { "type": "Point", "coordinates": [ 2.853526, 50.4424 ] } },
{ "type": "Feature", "properties": { "gml_id": "ETABLISSEMENTS_POLLUEURS.3188", "identifiant": "0007002483", "idetab": "3188", "nom": "NEXANS FRANCE ATELIER LSA", "codeape": "313Z", "cp": "62300" }, "geometry": { "type": "Point", "coordinates": [ 2.853602, 50.433319 ] } },
{ "type": "Feature", "properties": { "gml_id": "ETABLISSEMENTS_POLLUEURS.3202", "identifiant": "0007002953", "idetab": "3202", "nom": "DRAKA COMTEQ FRANCE", "codeape": "2731Z", "cp": "62092" }, "geometry": { "type": "Point", "coordinates": [ 2.85882, 50.51043 ] } },
{ "type": "Feature", "properties": { "gml_id": "ETABLISSEMENTS_POLLUEURS.9971", "identifiant": "0007000451", "idetab": "9971", "nom": "GEA ERGE SPIRALE ET SORAMAT", "codeape": "2825Z", "cp": "62410" }, "geometry": { "type": "Point", "coordinates": [ 2.859984, 50.491827 ] } },
{ "type": "Feature", "properties": { "gml_id": "ETABLISSEMENTS_POLLUEURS.597910", "identifiant": "0007005745", "idetab": "597910", "nom": "PROLOGIS FRANCE LXXII EURL", "codeape": "6820B", "cp": "62138" }, "geometry": { "type": "Point", "coordinates": [ 2.83377, 50.51246 ] } },
{ "type": "Feature", "properties": { "gml_id": "ETABLISSEMENTS_POLLUEURS.598126", "identifiant": "0007005926", "idetab": "598126", "nom": "STB MATERIAUX", "codeape": "0812Z", "cp": "62740" }, "geometry": { "type": "Point", "coordinates": [ 2.89169, 50.43526 ] } },
{ "type": "Feature", "properties": { "gml_id": "ETABLISSEMENTS_POLLUEURS.596745", "identifiant": "0007006490", "idetab": "596745", "nom": "SOCIETE INDUSTRIELLE DE CHAUFFAGE (SIC)", "codeape": "2521Z", "cp": "62138" }, "geometry": { "type": "Point", "coordinates": [ 2.84615, 50.51292 ] } },
{ "type": "Feature", "properties": { "gml_id": "ETABLISSEMENTS_POLLUEURS.595022", "identifiant": "0009076202", "idetab": "595022", "nom": "VEOLIA EAU - COMPAGNIE GENERALE DES EAUX", "codeape": "3600Z", "cp": "62218" }, "geometry": { "type": "Point", "coordinates": [ 2.85654, 50.43594 ] } },
{ "type": "Feature", "properties": { "gml_id": "ETABLISSEMENTS_POLLUEURS.13824", "identifiant": "0028200044", "idetab": "13824", "nom": "LENOIR", "codeape": "3831Z", "cp": "62210" }, "geometry": { "type": "Point", "coordinates": [ 2.822351, 50.409193 ] } },
{ "type": "Feature", "properties": { "gml_id": "ETABLISSEMENTS_POLLUEURS.12021", "identifiant": "0028200050", "idetab": "12021", "nom": "GALLOO FRANCE", "codeape": "3832Z", "cp": "62430" }, "geometry": { "type": "Point", "coordinates": [ 2.86087, 50.42203 ] } },
{ "type": "Feature", "properties": { "gml_id": "ETABLISSEMENTS_POLLUEURS.9529", "identifiant": "0076252300", "idetab": "9529", "nom": "STEP - LOISON SOUS LENS", "codeape": "3700Z", "cp": "62218" }, "geometry": { "type": "Point", "coordinates": [ 2.856548, 50.435944 ] } },
{ "type": "Feature", "properties": { "gml_id": "ETABLISSEMENTS_POLLUEURS.5773", "identifiant": "62065018", "idetab": "5773", "nom": "INTEROVO AVICOLE FRANCE", "codeape": "0147Z", "cp": "62210" }, "geometry": { "type": "Point", "coordinates": [ 2.828142, 50.417367 ] } },
{ "type": "Feature", "properties": { "gml_id": "ETABLISSEMENTS_POLLUEURS.3062", "identifiant": "0007000893", "idetab": "3062", "nom": "PLASTIC OMNIUM", "codeape": "252H", "cp": "62700" }, "geometry": { "type": "Point", "coordinates": [ 2.544115, 50.480336 ] } },
{ "type": "Feature", "properties": { "gml_id": "ETABLISSEMENTS_POLLUEURS.590588", "identifiant": "0007004542", "idetab": "590588", "nom": "RAMERY TRAVAUX PUBLICS", "codeape": "4211Z", "cp": "62470" }, "geometry": { "type": "Point", "coordinates": [ 2.42941, 50.48213 ] } },
{ "type": "Feature", "properties": { "gml_id": "ETABLISSEMENTS_POLLUEURS.589476", "identifiant": "0003800009", "idetab": "589476", "nom": "TRAVAUX CANALISATIONS PATINIER ANDRE", "codeape": "4221Z", "cp": "62470" }, "geometry": { "type": "Point", "coordinates": [ 2.42941, 50.48213 ] } },
{ "type": "Feature", "properties": { "gml_id": "ETABLISSEMENTS_POLLUEURS.592493", "identifiant": "0007000342", "idetab": "592493", "nom": "GRES DE PERNES", "codeape": "0811Z", "cp": "62550" }, "geometry": { "type": "Point", "coordinates": [ 2.42431, 50.48431 ] } },
{ "type": "Feature", "properties": { "gml_id": "ETABLISSEMENTS_POLLUEURS.10031", "identifiant": "0007001060", "idetab": "10031", "nom": "FLEX-N-GATE MARLES", "codeape": "2229A", "cp": "62470" }, "geometry": { "type": "Point", "coordinates": [ 2.49966, 50.49349 ] } },
{ "type": "Feature", "properties": { "gml_id": "ETABLISSEMENTS_POLLUEURS.592294", "identifiant": "0007005301", "idetab": "592294", "nom": "FIELDTURF TARKETT", "codeape": "1393Z", "cp": "62260" }, "geometry": { "type": "Point", "coordinates": [ 2.47193, 50.49688 ] } },
{ "type": "Feature", "properties": { "gml_id": "ETABLISSEMENTS_POLLUEURS.2921", "identifiant": "0007000172", "idetab": "2921", "nom": "WIERNERBERGER FRANCE NORD", "codeape": "0812Z", "cp": "62260" }, "geometry": { "type": "Point", "coordinates": [ 2.45718, 50.4995 ] } },
{ "type": "Feature", "properties": { "gml_id": "ETABLISSEMENTS_POLLUEURS.10073", "identifiant": "0007001312", "idetab": "10073", "nom": "GALLOO FRANCE DIVISION FIEFS", "codeape": "3832Z", "cp": "62134" }, "geometry": { "type": "Point", "coordinates": [ 2.330937, 50.502493 ] } },
{ "type": "Feature", "properties": { "gml_id": "ETABLISSEMENTS_POLLUEURS.5315", "identifiant": "0007003507", "idetab": "5315", "nom": "WIENERBERGER SAS", "codeape": "2332Z", "cp": "62260" }, "geometry": { "type": "Point", "coordinates": [ 2.451495, 50.503882 ] } },
{ "type": "Feature", "properties": { "gml_id": "ETABLISSEMENTS_POLLUEURS.13658", "identifiant": "0007001365", "idetab": "13658", "nom": "ETABLISSEMENTS BONNEL ET FILS", "codeape": "4677Z", "cp": "62122" }, "geometry": { "type": "Point", "coordinates": [ 2.51662, 50.50582 ] } },
{ "type": "Feature", "properties": { "gml_id": "ETABLISSEMENTS_POLLUEURS.3072", "identifiant": "0007000945", "idetab": "3072", "nom": "SITA NORD", "codeape": "3821Z", "cp": "62122" }, "geometry": { "type": "Point", "coordinates": [ 2.52516, 50.50614 ] } },
{ "type": "Feature", "properties": { "gml_id": "ETABLISSEMENTS_POLLUEURS.2953", "identifiant": "0007000542", "idetab": "2953", "nom": "AUCHELAINE SARL", "codeape": "171E", "cp": "62260" }, "geometry": { "type": "Point", "coordinates": [ 2.474658, 50.507106 ] } },
{ "type": "Feature", "properties": { "gml_id": "ETABLISSEMENTS_POLLUEURS.589154", "identifiant": "0007002319", "idetab": "589154", "nom": "DELIFRANCE S A", "codeape": "1071A", "cp": "62122" }, "geometry": { "type": "Point", "coordinates": [ 2.54455, 50.51498 ] } },
{ "type": "Feature", "properties": { "gml_id": "ETABLISSEMENTS_POLLUEURS.3119", "identifiant": "0007001097", "idetab": "3119", "nom": "FAURECIA INTERIEUR INDUSTRIE", "codeape": "2932Z", "cp": "62260" }, "geometry": { "type": "Point", "coordinates": [ 2.46732, 50.51567 ] } },
{ "type": "Feature", "properties": { "gml_id": "ETABLISSEMENTS_POLLUEURS.596528", "identifiant": "0007001863", "idetab": "596528", "nom": "JET'SAC", "codeape": "2222Z", "cp": "62260" }, "geometry": { "type": "Point", "coordinates": [ 2.46901, 50.51587 ] } },
{ "type": "Feature", "properties": { "gml_id": "ETABLISSEMENTS_POLLUEURS.589860", "identifiant": "0007002181", "idetab": "589860", "nom": "SOCIETE DE RECUPERATION METALLURGIQUE DE L ARTOIS", "codeape": "3832Z", "cp": "62920" }, "geometry": { "type": "Point", "coordinates": [ 2.54391, 50.54085 ] } },
{ "type": "Feature", "properties": { "gml_id": "ETABLISSEMENTS_POLLUEURS.599299", "identifiant": "0056201860", "idetab": "599299", "nom": "SARL DESBUQUOIS", "codeape": "0210Z", "cp": "62960" }, "geometry": { "type": "Point", "coordinates": [ 2.34586, 50.54327 ] } },
{ "type": "Feature", "properties": { "gml_id": "ETABLISSEMENTS_POLLUEURS.3067", "identifiant": "0007000936", "idetab": "3067", "nom": "SUCRERIES DISTILLERIES HAUTS DE FRANCE", "codeape": "4611Z", "cp": "62190" }, "geometry": { "type": "Point", "coordinates": [ 2.49065, 50.55963 ] } },
{ "type": "Feature", "properties": { "gml_id": "ETABLISSEMENTS_POLLUEURS.3193", "identifiant": "0007002548", "idetab": "3193", "nom": "SI GROUP- BETHUNE", "codeape": "2016Z", "cp": "62404" }, "geometry": { "type": "Point", "coordinates": [ 2.66747, 50.53747 ] } },
{ "type": "Feature", "properties": { "gml_id": "ETABLISSEMENTS_POLLUEURS.13659", "identifiant": "0007001493", "idetab": "13659", "nom": "COENMANS RECYCLAGE INDUSTRIEL", "codeape": "3832Z", "cp": "62400" }, "geometry": { "type": "Point", "coordinates": [ 2.669189, 50.535328 ] } },
{ "type": "Feature", "properties": { "gml_id": "ETABLISSEMENTS_POLLUEURS.591611", "identifiant": "0007002570", "idetab": "591611", "nom": "PAPREC NORD VGF (EX GIBERT  RECYCLAGE)", "codeape": "3832Z", "cp": "62400" }, "geometry": { "type": "Point", "coordinates": [ 2.674354, 50.535925 ] } },
{ "type": "Feature", "properties": { "gml_id": "ETABLISSEMENTS_POLLUEURS.10042", "identifiant": "0007001106", "idetab": "10042", "nom": "LES MOULINS DE SAINT AUBERT", "codeape": "1071A", "cp": "62660" }, "geometry": { "type": "Point", "coordinates": [ 2.67573, 50.51843 ] } },
{ "type": "Feature", "properties": { "gml_id": "ETABLISSEMENTS_POLLUEURS.5310", "identifiant": "0007002546", "idetab": "5310", "nom": "ROQUETTE FRERES", "codeape": "1062Z", "cp": "62136" }, "geometry": { "type": "Point", "coordinates": [ 2.67593, 50.63404 ] } },
{ "type": "Feature", "properties": { "gml_id": "ETABLISSEMENTS_POLLUEURS.5253", "identifiant": "0007000538", "idetab": "5253", "nom": "FONDOIR BUCHEZ", "codeape": "1041A", "cp": "59940" }, "geometry": { "type": "Point", "coordinates": [ 2.69003, 50.64241 ] } },
{ "type": "Feature", "properties": { "gml_id": "ETABLISSEMENTS_POLLUEURS.10168", "identifiant": "0007002861", "idetab": "10168", "nom": "SA FLAMME ASSAINISSEMENT", "codeape": "8122Z", "cp": "59940" }, "geometry": { "type": "Point", "coordinates": [ 2.69461, 50.6573 ] } },
{ "type": "Feature", "properties": { "gml_id": "ETABLISSEMENTS_POLLUEURS.3011", "identifiant": "0007000740", "idetab": "3011", "nom": "DECOSTER CAULLIEZ", "codeape": "1330Z", "cp": "59253" }, "geometry": { "type": "Point", "coordinates": [ 2.6982, 50.6335 ] } },
{ "type": "Feature", "properties": { "gml_id": "ETABLISSEMENTS_POLLUEURS.590246", "identifiant": "0003800392", "idetab": "590246", "nom": "SYNDICAT MIXTE DE COLLECTE ET DE TRAITEMENT DES ORDURES MENAGERES DANS LA REGION DES FLANDRES", "codeape": "3811Z", "cp": "59940" }, "geometry": { "type": "Point", "coordinates": [ 2.7173, 50.66124 ] } },
{ "type": "Feature", "properties": { "gml_id": "ETABLISSEMENTS_POLLUEURS.3014", "identifiant": "0007000744", "idetab": "3014", "nom": "DANONE PRODUITS FRAIS FRANCE", "codeape": "1051C", "cp": "59270" }, "geometry": { "type": "Point", "coordinates": [ 2.73299, 50.72693 ] } },
{ "type": "Feature", "properties": { "gml_id": "ETABLISSEMENTS_POLLUEURS.3035", "identifiant": "0007000803", "idetab": "3035", "nom": "PGI FRANCE", "codeape": "1395Z", "cp": "59270" }, "geometry": { "type": "Point", "coordinates": [ 2.74297, 50.7245 ] } },
{ "type": "Feature", "properties": { "gml_id": "ETABLISSEMENTS_POLLUEURS.10074", "identifiant": "0007001344", "idetab": "10074", "nom": "MOLINS CREAUTO", "codeape": "4511Z", "cp": "62149" }, "geometry": { "type": "Point", "coordinates": [ 2.74906, 50.52061 ] } },
{ "type": "Feature", "properties": { "gml_id": "ETABLISSEMENTS_POLLUEURS.2987", "identifiant": "0007000664", "idetab": "2987", "nom": "VALLYS SARL SILVA", "codeape": "1330Z", "cp": "62840" }, "geometry": { "type": "Point", "coordinates": [ 2.768251, 50.65624 ] } },
{ "type": "Feature", "properties": { "gml_id": "ETABLISSEMENTS_POLLUEURS.5250", "identifiant": "0007000475", "idetab": "5250", "nom": "FEUTRIE", "codeape": "1330Z", "cp": "62840" }, "geometry": { "type": "Point", "coordinates": [ 2.78323, 50.66226 ] } },
{ "type": "Feature", "properties": { "gml_id": "ETABLISSEMENTS_POLLUEURS.9999", "identifiant": "0007000666", "idetab": "9999", "nom": "ARDO-VIOLAINES", "codeape": "1039A", "cp": "62138" }, "geometry": { "type": "Point", "coordinates": [ 2.78467, 50.54979 ] } },
{ "type": "Feature", "properties": { "gml_id": "ETABLISSEMENTS_POLLUEURS.10029", "identifiant": "0007001029", "idetab": "10029", "nom": "SITRA FRANCE", "codeape": "4941A", "cp": "62840" }, "geometry": { "type": "Point", "coordinates": [ 2.78722, 50.66162 ] } },
{ "type": "Feature", "properties": { "gml_id": "ETABLISSEMENTS_POLLUEURS.13677", "identifiant": "0007003998", "idetab": "13677", "nom": "BOONE COMENOR METALIMPEX", "codeape": "4672Z", "cp": "59480" }, "geometry": { "type": "Point", "coordinates": [ 2.815, 50.53243 ] } },
{ "type": "Feature", "properties": { "gml_id": "ETABLISSEMENTS_POLLUEURS.10152", "identifiant": "0007002578", "idetab": "10152", "nom": "PROGROUP BOARD SAS", "codeape": "1721A", "cp": "62138" }, "geometry": { "type": "Point", "coordinates": [ 2.83702, 50.52107 ] } },
{ "type": "Feature", "properties": { "gml_id": "ETABLISSEMENTS_POLLUEURS.10021", "identifiant": "0007000906", "idetab": "10021", "nom": "ALURAL FRANCE (EX SOFILAC)", "codeape": "2561Z", "cp": "59496" }, "geometry": { "type": "Point", "coordinates": [ 2.838995, 50.53487 ] } },
{ "type": "Feature", "properties": { "gml_id": "ETABLISSEMENTS_POLLUEURS.5281", "identifiant": "0007000967", "idetab": "5281", "nom": "DESCAMPS", "codeape": "174A", "cp": "59850" }, "geometry": { "type": "Point", "coordinates": [ 2.839287, 50.704408 ] } },
{ "type": "Feature", "properties": { "gml_id": "ETABLISSEMENTS_POLLUEURS.9220", "identifiant": "0007000597", "idetab": "9220", "nom": "VALROTALYS", "codeape": "1813Z", "cp": "59850" }, "geometry": { "type": "Point", "coordinates": [ 2.839287, 50.704408 ] } },
{ "type": "Feature", "properties": { "gml_id": "ETABLISSEMENTS_POLLUEURS.3042", "identifiant": "0007000829", "idetab": "3042", "nom": "FRANCAISE DE MECANIQUE/STELLANTIS DOUVRIN", "codeape": "2910Z", "cp": "62138" }, "geometry": { "type": "Point", "coordinates": [ 2.8425, 50.51963 ] } },
{ "type": "Feature", "properties": { "gml_id": "ETABLISSEMENTS_POLLUEURS.590249", "identifiant": "0003800443", "idetab": "590249", "nom": "SYNDICAT MIXTE DE COLLECTE ET DE TRAITEMENT DES ORDURES MENAGERES DANS LA REGION DES FLANDRES", "codeape": "3811Z", "cp": "59850" }, "geometry": { "type": "Point", "coordinates": [ 2.84874, 50.6902 ] } },
{ "type": "Feature", "properties": { "gml_id": "ETABLISSEMENTS_POLLUEURS.10975", "identifiant": "0007000570", "idetab": "10975", "nom": "ETABLISSEMENTS MOTTEZ ET COMPAGNIE", "codeape": "2572Z", "cp": "59193" }, "geometry": { "type": "Point", "coordinates": [ 2.85554, 50.68117 ] } },
{ "type": "Feature", "properties": { "gml_id": "ETABLISSEMENTS_POLLUEURS.3195", "identifiant": "0007002577", "idetab": "3195", "nom": "GREIF PLASTICS LILLE", "codeape": "3832Z", "cp": "62138" }, "geometry": { "type": "Point", "coordinates": [ 2.85594, 50.52876 ] } },
{ "type": "Feature", "properties": { "gml_id": "ETABLISSEMENTS_POLLUEURS.9221", "identifiant": "0007000684", "idetab": "9221", "nom": "GENERALE DE ROBINET INDUSTR SYSTEM SURE", "codeape": "2814Z", "cp": "59280" }, "geometry": { "type": "Point", "coordinates": [ 2.86215, 50.68948 ] } },
{ "type": "Feature", "properties": { "gml_id": "ETABLISSEMENTS_POLLUEURS.3153", "identifiant": "0007001591", "idetab": "3153", "nom": "N.V. BISCUITS DELACRE S.A", "codeape": "1072Z", "cp": "59850" }, "geometry": { "type": "Point", "coordinates": [ 2.86509, 50.70003 ] } },
{ "type": "Feature", "properties": { "gml_id": "ETABLISSEMENTS_POLLUEURS.10974", "identifiant": "0007000447", "idetab": "10974", "nom": "VAN GANSEWINKEL FRANCE", "codeape": "3832Z", "cp": "59280" }, "geometry": { "type": "Point", "coordinates": [ 2.872597, 50.649554 ] } },
{ "type": "Feature", "properties": { "gml_id": "ETABLISSEMENTS_POLLUEURS.9997", "identifiant": "0007000660", "idetab": "9997", "nom": "BECK CRESPEL", "codeape": "2562B", "cp": "59280" }, "geometry": { "type": "Point", "coordinates": [ 2.882875, 50.691207 ] } },
{ "type": "Feature", "properties": { "gml_id": "ETABLISSEMENTS_POLLUEURS.10004", "identifiant": "0007000737", "idetab": "10004", "nom": "TEINTURERIE DELALYS", "codeape": "1330Z", "cp": "59116" }, "geometry": { "type": "Point", "coordinates": [ 2.897697, 50.689587 ] } },
{ "type": "Feature", "properties": { "gml_id": "ETABLISSEMENTS_POLLUEURS.11883", "identifiant": "0007000685", "idetab": "11883", "nom": "SODI", "codeape": "8122Z", "cp": "59930" }, "geometry": { "type": "Point", "coordinates": [ 2.89952, 50.65695 ] } },
{ "type": "Feature", "properties": { "gml_id": "ETABLISSEMENTS_POLLUEURS.11040", "identifiant": "0007004260", "idetab": "11040", "nom": "RECUPERATION DU NORD", "codeape": "3832Z", "cp": "59930" }, "geometry": { "type": "Point", "coordinates": [ 2.89996, 50.6549 ] } },
{ "type": "Feature", "properties": { "gml_id": "ETABLISSEMENTS_POLLUEURS.9970", "identifiant": "0007000426", "idetab": "9970", "nom": "RDN (RÉCUPÉRATION DU NORD) - M ZOMAR", "codeape": "3831Z", "cp": "59930" }, "geometry": { "type": "Point", "coordinates": [ 2.9086, 50.669126 ] } },
{ "type": "Feature", "properties": { "gml_id": "ETABLISSEMENTS_POLLUEURS.11026", "identifiant": "0007004002", "idetab": "11026", "nom": "CASSE DE DON", "codeape": "4677Z", "cp": "59272" }, "geometry": { "type": "Point", "coordinates": [ 2.91022, 50.54593 ] } },
{ "type": "Feature", "properties": { "gml_id": "ETABLISSEMENTS_POLLUEURS.590585", "identifiant": "0007003080", "idetab": "590585", "nom": "PRD PERCIER REALIS ET DEVELOPPEMENT", "codeape": "6820B", "cp": "59116" }, "geometry": { "type": "Point", "coordinates": [ 2.91177, 50.69744 ] } },
{ "type": "Feature", "properties": { "gml_id": "ETABLISSEMENTS_POLLUEURS.589866", "identifiant": "0007004281", "idetab": "589866", "nom": "BAUDELET METAUX", "codeape": "4672Z", "cp": "59270" }, "geometry": { "type": "Point", "coordinates": [ 2.73301, 50.72516 ] } },
{ "type": "Feature", "properties": { "gml_id": "ETABLISSEMENTS_POLLUEURS.13686", "identifiant": "0007004317", "idetab": "13686", "nom": "DELHEM", "codeape": "4532Z", "cp": "59850" }, "geometry": { "type": "Point", "coordinates": [ 2.8673, 50.70216 ] } },
{ "type": "Feature", "properties": { "gml_id": "ETABLISSEMENTS_POLLUEURS.13699", "identifiant": "0007005009", "idetab": "13699", "nom": "VANHEEDE ENVIRONNEMENT", "codeape": "3811Z", "cp": "62138" }, "geometry": { "type": "Point", "coordinates": [ 2.85675, 50.52372 ] } },
{ "type": "Feature", "properties": { "gml_id": "ETABLISSEMENTS_POLLUEURS.590593", "identifiant": "0007005828", "idetab": "590593", "nom": "SYNDICAT MIXTE DE COLLECTE ET DE TRAITEMENT DES ORDURES MENAGERES DANS LA REGION DES FLANDRES", "codeape": "3811Z", "cp": "62840" }, "geometry": { "type": "Point", "coordinates": [ 2.77033, 50.63216 ] } },
{ "type": "Feature", "properties": { "gml_id": "ETABLISSEMENTS_POLLUEURS.589169", "identifiant": "0007005922", "idetab": "589169", "nom": "URBASER ENVIRONNEMENT", "codeape": "3821Z", "cp": "59113" }, "geometry": { "type": "Point", "coordinates": [ 2.84353, 50.60878 ] } },
{ "type": "Feature", "properties": { "gml_id": "ETABLISSEMENTS_POLLUEURS.13708", "identifiant": "0007006014", "idetab": "13708", "nom": "SARL ACA", "codeape": "4511Z", "cp": "59850" }, "geometry": { "type": "Point", "coordinates": [ 2.842225, 50.689125 ] } },
{ "type": "Feature", "properties": { "gml_id": "ETABLISSEMENTS_POLLUEURS.590595", "identifiant": "0007006155", "idetab": "590595", "nom": "SYNDICAT MIXTE DE COLLECTE ET DE TRAITEMENT DES ORDURES MENAGERES DANS LA REGION DES FLANDRES", "codeape": "3811Z", "cp": "59270" }, "geometry": { "type": "Point", "coordinates": [ 2.73766, 50.72351 ] } },
{ "type": "Feature", "properties": { "gml_id": "ETABLISSEMENTS_POLLUEURS.598919", "identifiant": "0055900018", "idetab": "598919", "nom": "MY POUSSINIERE", "codeape": "0147Z", "cp": "59112" }, "geometry": { "type": "Point", "coordinates": [ 2.91073, 50.5313 ] } },
{ "type": "Feature", "properties": { "gml_id": "ETABLISSEMENTS_POLLUEURS.599320", "identifiant": "0055900099", "idetab": "599320", "nom": "EARL ODEN", "codeape": "0146Z", "cp": "59270" }, "geometry": { "type": "Point", "coordinates": [ 2.69282, 50.70346 ] } },
{ "type": "Feature", "properties": { "gml_id": "ETABLISSEMENTS_POLLUEURS.599300", "identifiant": "0055901133", "idetab": "599300", "nom": "EARL HENNION GILLES", "codeape": "0111Z", "cp": "59270" }, "geometry": { "type": "Point", "coordinates": [ 2.68416, 50.72942 ] } },
{ "type": "Feature", "properties": { "gml_id": "ETABLISSEMENTS_POLLUEURS.598501", "identifiant": "0100000434", "idetab": "598501", "nom": "AUTOMOTIVE CELLS COMPANY FACTORIES EUROPE SA", "codeape": "2720Z", "cp": "62138" }, "geometry": { "type": "Point", "coordinates": [ 2.85331, 50.52086 ] } },
{ "type": "Feature", "properties": { "gml_id": "ETABLISSEMENTS_POLLUEURS.7455", "identifiant": "59401027", "idetab": "7455", "nom": "EARL DE LA WATTERSTRAETE", "codeape": "0150Z", "cp": "59270" }, "geometry": { "type": "Point", "coordinates": [ 2.695638, 50.748976 ] } },
{ "type": "Feature", "properties": { "gml_id": "ETABLISSEMENTS_POLLUEURS.3566", "identifiant": "59401093", "idetab": "3566", "nom": "EARL DE LA WATTERSTRAETE", "codeape": "", "cp": "59270" }, "geometry": { "type": "Point", "coordinates": [ 2.695638, 50.748976 ] } },
{ "type": "Feature", "properties": { "gml_id": "ETABLISSEMENTS_POLLUEURS.3567", "identifiant": "59401515", "idetab": "3567", "nom": "SCEA DU HAUT CHAMP", "codeape": "0150Z", "cp": "59270" }, "geometry": { "type": "Point", "coordinates": [ 2.695638, 50.748976 ] } },
{ "type": "Feature", "properties": { "gml_id": "ETABLISSEMENTS_POLLUEURS.10131", "identifiant": "0007002204", "idetab": "10131", "nom": "BIO-RAD", "codeape": "7219Z", "cp": "59114" }, "geometry": { "type": "Point", "coordinates": [ 2.56284, 50.80809 ] } },
{ "type": "Feature", "properties": { "gml_id": "ETABLISSEMENTS_POLLUEURS.5263", "identifiant": "0007000699", "idetab": "5263", "nom": "VALNOR", "codeape": "3821Z", "cp": "62122" }, "geometry": { "type": "Point", "coordinates": [ 2.56431, 50.52699 ] } },
{ "type": "Feature", "properties": { "gml_id": "ETABLISSEMENTS_POLLUEURS.5283", "identifiant": "0007000985", "idetab": "5283", "nom": "CRODA CHOCQUES", "codeape": "2041Z", "cp": "62920" }, "geometry": { "type": "Point", "coordinates": [ 2.57095, 50.53711 ] } },
{ "type": "Feature", "properties": { "gml_id": "ETABLISSEMENTS_POLLUEURS.11888", "identifiant": "0007002503", "idetab": "11888", "nom": "CORNING GOSSELIN", "codeape": "2222Z", "cp": "59190" }, "geometry": { "type": "Point", "coordinates": [ 2.57732, 50.73383 ] } },
{ "type": "Feature", "properties": { "gml_id": "ETABLISSEMENTS_POLLUEURS.5254", "identifiant": "0007000540", "idetab": "5254", "nom": "BLEDINA", "codeape": "1086Z", "cp": "59114" }, "geometry": { "type": "Point", "coordinates": [ 2.58042, 50.81085 ] } },
{ "type": "Feature", "properties": { "gml_id": "ETABLISSEMENTS_POLLUEURS.3194", "identifiant": "0007002568", "idetab": "3194", "nom": "OVONOR", "codeape": "6820B", "cp": "62232" }, "geometry": { "type": "Point", "coordinates": [ 2.59834, 50.52991 ] } },
{ "type": "Feature", "properties": { "gml_id": "ETABLISSEMENTS_POLLUEURS.9995", "identifiant": "0007000642", "idetab": "9995", "nom": "BOSAL FRANCE", "codeape": "2932Z", "cp": "62232" }, "geometry": { "type": "Point", "coordinates": [ 2.60025, 50.531502 ] } },
{ "type": "Feature", "properties": { "gml_id": "ETABLISSEMENTS_POLLUEURS.3152", "identifiant": "0007001495", "idetab": "3152", "nom": "ARTOIS ENERGIES", "codeape": "7112B", "cp": "62113" }, "geometry": { "type": "Point", "coordinates": [ 2.62092, 50.52179 ] } },
{ "type": "Feature", "properties": { "gml_id": "ETABLISSEMENTS_POLLUEURS.596916", "identifiant": "0007003220", "idetab": "596916", "nom": "SOCIETE INDUSTRIELLE DE CHAUFFAGE (SIC)", "codeape": "2521Z", "cp": "59660" }, "geometry": { "type": "Point", "coordinates": [ 2.62996, 50.64212 ] } },
{ "type": "Feature", "properties": { "gml_id": "ETABLISSEMENTS_POLLUEURS.9234", "identifiant": "0007003219", "idetab": "9234", "nom": "STAUB FONDERIE", "codeape": "2599A", "cp": "59660" }, "geometry": { "type": "Point", "coordinates": [ 2.63199, 50.6444 ] } },
{ "type": "Feature", "properties": { "gml_id": "ETABLISSEMENTS_POLLUEURS.596684", "identifiant": "0003801923", "idetab": "596684", "nom": "NORD ALU LAQUAGE", "codeape": "2561Z", "cp": "59270" }, "geometry": { "type": "Point", "coordinates": [ 2.63869, 50.81167 ] } },
{ "type": "Feature", "properties": { "gml_id": "ETABLISSEMENTS_POLLUEURS.9232", "identifiant": "0007002361", "idetab": "9232", "nom": "TRAITEX", "codeape": "1330Z", "cp": "59660" }, "geometry": { "type": "Point", "coordinates": [ 2.639262, 50.645796 ] } },
{ "type": "Feature", "properties": { "gml_id": "ETABLISSEMENTS_POLLUEURS.10175", "identifiant": "0007003092", "idetab": "10175", "nom": "LYS SERVICES", "codeape": "5224B", "cp": "59660" }, "geometry": { "type": "Point", "coordinates": [ 2.640857, 50.635527 ] } },
{ "type": "Feature", "properties": { "gml_id": "ETABLISSEMENTS_POLLUEURS.590248", "identifiant": "0003800442", "idetab": "590248", "nom": "SYNDICAT MIXTE DE COLLECTE ET DE TRAITEMENT DES ORDURES MENAGERES DANS LA REGION DES FLANDRES", "codeape": "3811Z", "cp": "59660" }, "geometry": { "type": "Point", "coordinates": [ 2.64086, 50.65774 ] } },
{ "type": "Feature", "properties": { "gml_id": "ETABLISSEMENTS_POLLUEURS.2985", "identifiant": "0007000661", "idetab": "2985", "nom": "MC CAIN ALIMENTAIRE", "codeape": "1031Z", "cp": "62400" }, "geometry": { "type": "Point", "coordinates": [ 2.65173, 50.53178 ] } },
{ "type": "Feature", "properties": { "gml_id": "ETABLISSEMENTS_POLLUEURS.3092", "identifiant": "0007000998", "idetab": "3092", "nom": "DALKIA", "codeape": "3530Z", "cp": "62400" }, "geometry": { "type": "Point", "coordinates": [ 2.652223, 50.532679 ] } },
{ "type": "Feature", "properties": { "gml_id": "ETABLISSEMENTS_POLLUEURS.5249", "identifiant": "0007000473", "idetab": "5249", "nom": "BRIDGESTONE/FIRESTONE FRANCE SA", "codeape": "2211Z", "cp": "62400" }, "geometry": { "type": "Point", "coordinates": [ 2.659709, 50.539907 ] } },
{ "type": "Feature", "properties": { "gml_id": "ETABLISSEMENTS_POLLUEURS.11041", "identifiant": "0007004283", "idetab": "11041", "nom": "CENTRE DE TRI DU SMICTOM DES FLANDRES", "codeape": "3821Z", "cp": "59270" }, "geometry": { "type": "Point", "coordinates": [ 2.632323, 50.727264 ] } },
{ "type": "Feature", "properties": { "gml_id": "ETABLISSEMENTS_POLLUEURS.13263", "identifiant": "0007004339", "idetab": "13263", "nom": "SYNDICAT MIXTE DE COLLECTE ET DE TRAITEMENT DES ORDURES MENAGERES DANS LA REGION DES FLANDRES", "codeape": "3811Z", "cp": "59270" }, "geometry": { "type": "Point", "coordinates": [ 2.61356, 50.72207 ] } },
{ "type": "Feature", "properties": { "gml_id": "ETABLISSEMENTS_POLLUEURS.13693", "identifiant": "0007004514", "idetab": "13693", "nom": "AUCHAN FRANCE BETHUNE", "codeape": "4711F", "cp": "62400" }, "geometry": { "type": "Point", "coordinates": [ 2.642972, 50.528102 ] } },
{ "type": "Feature", "properties": { "gml_id": "ETABLISSEMENTS_POLLUEURS.12441", "identifiant": "0007004710", "idetab": "12441", "nom": "SOTRAVEER", "codeape": "8130Z", "cp": "59670" }, "geometry": { "type": "Point", "coordinates": [ 2.57217, 50.83984 ] } },
{ "type": "Feature", "properties": { "gml_id": "ETABLISSEMENTS_POLLUEURS.589331", "identifiant": "0028300022", "idetab": "589331", "nom": "BRASSERIE 3 MONTS", "codeape": "1105Z", "cp": "59114" }, "geometry": { "type": "Point", "coordinates": [ 2.55502, 50.77798 ] } },
{ "type": "Feature", "properties": { "gml_id": "ETABLISSEMENTS_POLLUEURS.589414", "identifiant": "0055900314", "idetab": "589414", "nom": "EARL HEYMAN", "codeape": "0150Z", "cp": "59190" }, "geometry": { "type": "Point", "coordinates": [ 2.603708, 50.758952 ] } },
{ "type": "Feature", "properties": { "gml_id": "ETABLISSEMENTS_POLLUEURS.599375", "identifiant": "0055900659", "idetab": "599375", "nom": "GAEC ASSEMAN FRÈRES", "codeape": "0150Z", "cp": "59270" }, "geometry": { "type": "Point", "coordinates": [ 2.62963, 50.74955 ] } },
{ "type": "Feature", "properties": { "gml_id": "ETABLISSEMENTS_POLLUEURS.598889", "identifiant": "0055900660", "idetab": "598889", "nom": "EARL MEULEN HOUCK", "codeape": "0146Z", "cp": "59270" }, "geometry": { "type": "Point", "coordinates": [ 2.6526, 50.74906 ] } },
{ "type": "Feature", "properties": { "gml_id": "ETABLISSEMENTS_POLLUEURS.591134", "identifiant": "0055901118", "idetab": "591134", "nom": "EARL DE LA WATERSTRAETE", "codeape": "0150Z", "cp": "59270" }, "geometry": { "type": "Point", "coordinates": [ 2.64096, 50.73537 ] } },
{ "type": "Feature", "properties": { "gml_id": "ETABLISSEMENTS_POLLUEURS.591838", "identifiant": "0055901313", "idetab": "591838", "nom": "DE LA LONGUE BECQUE", "codeape": "0146Z", "cp": "59190" }, "geometry": { "type": "Point", "coordinates": [ 2.59406, 50.74416 ] } },
{ "type": "Feature", "properties": { "gml_id": "ETABLISSEMENTS_POLLUEURS.599051", "identifiant": "0055901780", "idetab": "599051", "nom": "DEPUYDT MARIE JOSEE", "codeape": "0150Z", "cp": "59232" }, "geometry": { "type": "Point", "coordinates": [ 2.60861, 50.69381 ] } },
{ "type": "Feature", "properties": { "gml_id": "ETABLISSEMENTS_POLLUEURS.595676", "identifiant": "0056200755", "idetab": "595676", "nom": "EXPLOITATION AGRICOLE A RESPONSABILITE LIMITEE DU GAL", "codeape": "0150Z", "cp": "62150" }, "geometry": { "type": "Point", "coordinates": [ 2.58116, 50.41773 ] } },
{ "type": "Feature", "properties": { "gml_id": "ETABLISSEMENTS_POLLUEURS.589424", "identifiant": "0056201266", "idetab": "589424", "nom": "ELIVIA", "codeape": "1011Z", "cp": "62290" }, "geometry": { "type": "Point", "coordinates": [ 2.67052, 50.48778 ] } },
{ "type": "Feature", "properties": { "gml_id": "ETABLISSEMENTS_POLLUEURS.598418", "identifiant": "0056201524", "idetab": "598418", "nom": "LEBLOND LUCIEN", "codeape": "0147Z", "cp": "62620" }, "geometry": { "type": "Point", "coordinates": [ 2.58234, 50.46623 ] } },
{ "type": "Feature", "properties": { "gml_id": "ETABLISSEMENTS_POLLUEURS.598277", "identifiant": "0056202142", "idetab": "598277", "nom": "EARL AVIDEMILLY", "codeape": "0111Z", "cp": "62940" }, "geometry": { "type": "Point", "coordinates": [ 2.59494, 50.48422 ] } },
{ "type": "Feature", "properties": { "gml_id": "ETABLISSEMENTS_POLLUEURS.3564", "identifiant": "59237047", "idetab": "3564", "nom": "EARL DE LA COURTE CROIX", "codeape": "0150Z", "cp": "59270" }, "geometry": { "type": "Point", "coordinates": [ 2.650394, 50.761422 ] } },
{ "type": "Feature", "properties": { "gml_id": "ETABLISSEMENTS_POLLUEURS.12649", "identifiant": "59580536", "idetab": "12649", "nom": "EARL VANDENCASTEELE JOEL", "codeape": "0150Z", "cp": "59114" }, "geometry": { "type": "Point", "coordinates": [ 2.587129, 50.8174 ] } },
{ "type": "Feature", "properties": { "gml_id": "ETABLISSEMENTS_POLLUEURS.5775", "identifiant": "62366001", "idetab": "5775", "nom": "BAYART PHILIPPE (EARL DU GAL)", "codeape": "0146Z", "cp": "62150" }, "geometry": { "type": "Point", "coordinates": [ 2.586629, 50.423379 ] } },
{ "type": "Feature", "properties": { "gml_id": "ETABLISSEMENTS_POLLUEURS.5299", "identifiant": "0007001610", "idetab": "5299", "nom": "MAISON DEMARLE", "codeape": "2229B", "cp": "59136" }, "geometry": { "type": "Point", "coordinates": [ 2.93682, 50.55627 ] } },
{ "type": "Feature", "properties": { "gml_id": "ETABLISSEMENTS_POLLUEURS.589864", "identifiant": "0007004020", "idetab": "589864", "nom": "ETABLISSEMENTS GUY MARIN", "codeape": "4511Z", "cp": "59320" }, "geometry": { "type": "Point", "coordinates": [ 2.95182, 50.61965 ] } },
{ "type": "Feature", "properties": { "gml_id": "ETABLISSEMENTS_POLLUEURS.591319", "identifiant": "0003800584", "idetab": "591319", "nom": "RECYNOV", "codeape": "3811Z", "cp": "59211" }, "geometry": { "type": "Point", "coordinates": [ 2.955189, 50.59714 ] } },
{ "type": "Feature", "properties": { "gml_id": "ETABLISSEMENTS_POLLUEURS.13653", "identifiant": "0007000669", "idetab": "13653", "nom": "SYNDICAT C.G.T.AUCHAN ENGLOS", "codeape": "9420Z", "cp": "59320" }, "geometry": { "type": "Point", "coordinates": [ 2.9587, 50.62593 ] } },
{ "type": "Feature", "properties": { "gml_id": "ETABLISSEMENTS_POLLUEURS.10016", "identifiant": "0007000877", "idetab": "10016", "nom": "SHL", "codeape": "3822Z", "cp": "59147" }, "geometry": { "type": "Point", "coordinates": [ 2.96116, 50.56321 ] } },
{ "type": "Feature", "properties": { "gml_id": "ETABLISSEMENTS_POLLUEURS.10164", "identifiant": "0007002803", "idetab": "10164", "nom": "NORD ASPHALTE", "codeape": "4399A", "cp": "59147" }, "geometry": { "type": "Point", "coordinates": [ 2.96423, 50.56484 ] } },
{ "type": "Feature", "properties": { "gml_id": "ETABLISSEMENTS_POLLUEURS.10144", "identifiant": "0007002374", "idetab": "10144", "nom": "ESTERRA", "codeape": "3811Z", "cp": "59211" }, "geometry": { "type": "Point", "coordinates": [ 2.97496, 50.59308 ] } },
{ "type": "Feature", "properties": { "gml_id": "ETABLISSEMENTS_POLLUEURS.3064", "identifiant": "0007000905", "idetab": "3064", "nom": "XPO TANK CLEANING SUD FRANCE", "codeape": "6820B", "cp": "59211" }, "geometry": { "type": "Point", "coordinates": [ 2.97496, 50.59308 ] } },
{ "type": "Feature", "properties": { "gml_id": "ETABLISSEMENTS_POLLUEURS.3174", "identifiant": "0007002258", "idetab": "3174", "nom": "COLAS FRANCE", "codeape": "2399Z", "cp": "59211" }, "geometry": { "type": "Point", "coordinates": [ 2.97496, 50.59308 ] } },
{ "type": "Feature", "properties": { "gml_id": "ETABLISSEMENTS_POLLUEURS.598483", "identifiant": "0003802080", "idetab": "598483", "nom": "VERDIPOLE", "codeape": "3900Z", "cp": "59211" }, "geometry": { "type": "Point", "coordinates": [ 2.98071, 50.59704 ] } },
{ "type": "Feature", "properties": { "gml_id": "ETABLISSEMENTS_POLLUEURS.10087", "identifiant": "0007001642", "idetab": "10087", "nom": "STOCKMEIER FRANCE", "codeape": "4675Z", "cp": "59320" }, "geometry": { "type": "Point", "coordinates": [ 2.98078, 50.60177 ] } },
{ "type": "Feature", "properties": { "gml_id": "ETABLISSEMENTS_POLLUEURS.597918", "identifiant": "0007003098", "idetab": "597918", "nom": "ENTREPRISE VITSE", "codeape": "4312A", "cp": "59263" }, "geometry": { "type": "Point", "coordinates": [ 2.98286, 50.58151 ] } },
{ "type": "Feature", "properties": { "gml_id": "ETABLISSEMENTS_POLLUEURS.3201", "identifiant": "0007002805", "idetab": "3201", "nom": "NOVAWATT", "codeape": "3514Z", "cp": "59320" }, "geometry": { "type": "Point", "coordinates": [ 2.9833, 50.60603 ] } },
{ "type": "Feature", "properties": { "gml_id": "ETABLISSEMENTS_POLLUEURS.10982", "identifiant": "0007000933", "idetab": "10982", "nom": "TARNORD", "codeape": "4211Z", "cp": "59147" }, "geometry": { "type": "Point", "coordinates": [ 2.983882, 50.541328 ] } },
{ "type": "Feature", "properties": { "gml_id": "ETABLISSEMENTS_POLLUEURS.11905", "identifiant": "0007004228", "idetab": "11905", "nom": "REVIVAL", "codeape": "3831Z", "cp": "59320" }, "geometry": { "type": "Point", "coordinates": [ 2.98466, 50.62876 ] } },
{ "type": "Feature", "properties": { "gml_id": "ETABLISSEMENTS_POLLUEURS.5288", "identifiant": "0007001045", "idetab": "5288", "nom": "CARGILL HAUBOURDIN SAS", "codeape": "1062Z", "cp": "59320" }, "geometry": { "type": "Point", "coordinates": [ 2.9847, 50.60672 ] } },
{ "type": "Feature", "properties": { "gml_id": "ETABLISSEMENTS_POLLUEURS.2938", "identifiant": "0007000487", "idetab": "2938", "nom": "ACG INDUSTRIE", "codeape": "2030Z", "cp": "59147" }, "geometry": { "type": "Point", "coordinates": [ 2.98687, 50.54981 ] } },
{ "type": "Feature", "properties": { "gml_id": "ETABLISSEMENTS_POLLUEURS.11018", "identifiant": "0007003386", "idetab": "11018", "nom": "SEQUOIA", "codeape": "3821Z", "cp": "59320" }, "geometry": { "type": "Point", "coordinates": [ 2.98789, 50.62263 ] } },
{ "type": "Feature", "properties": { "gml_id": "ETABLISSEMENTS_POLLUEURS.13259", "identifiant": "0007003569", "idetab": "13259", "nom": "KEOLIS LILLE METROPOLE", "codeape": "4931Z", "cp": "59320" }, "geometry": { "type": "Point", "coordinates": [ 2.98789, 50.62263 ] } },
{ "type": "Feature", "properties": { "gml_id": "ETABLISSEMENTS_POLLUEURS.10003", "identifiant": "0007000734", "idetab": "10003", "nom": "SMRC AUTOMOTIVE MODULES FRANCE SAS", "codeape": "2229A", "cp": "59147" }, "geometry": { "type": "Point", "coordinates": [ 2.98829, 50.5379 ] } },
{ "type": "Feature", "properties": { "gml_id": "ETABLISSEMENTS_POLLUEURS.10112", "identifiant": "0007001922", "idetab": "10112", "nom": "SOCIETE LESAGE & FILS", "codeape": "1011Z", "cp": "59147" }, "geometry": { "type": "Point", "coordinates": [ 2.99053, 50.53028 ] } },
{ "type": "Feature", "properties": { "gml_id": "ETABLISSEMENTS_POLLUEURS.10978", "identifiant": "0007000653", "idetab": "10978", "nom": "SUEZ RV LILLE", "codeape": "7739Z", "cp": "59320" }, "geometry": { "type": "Point", "coordinates": [ 2.9987, 50.60713 ] } },
{ "type": "Feature", "properties": { "gml_id": "ETABLISSEMENTS_POLLUEURS.590589", "identifiant": "0007004766", "idetab": "590589", "nom": "VEOLIA EAU - COMPAGNIE GENERALE DES EAUX", "codeape": "3600Z", "cp": "62110" }, "geometry": { "type": "Point", "coordinates": [ 2.97345, 50.4465 ] } },
{ "type": "Feature", "properties": { "gml_id": "ETABLISSEMENTS_POLLUEURS.590594", "identifiant": "0007005848", "idetab": "590594", "nom": "SYNDICAT MIXTE ELIMINATION VALORISATION DECHETS COMMUNAUTES AGGLO DOUAISIS D'HENIN-CARVIN COMMUNAUTE COMMUNES OSARTIS", "codeape": "3821Z", "cp": "62110" }, "geometry": { "type": "Point", "coordinates": [ 2.97345, 50.4465 ] } },
{ "type": "Feature", "properties": { "gml_id": "ETABLISSEMENTS_POLLUEURS.589168", "identifiant": "0007005921", "idetab": "589168", "nom": "DÉCHÈTERIE D'ANNOEULLIN", "codeape": "3811Z", "cp": "59112" }, "geometry": { "type": "Point", "coordinates": [ 2.932324, 50.52796 ] } },
{ "type": "Feature", "properties": { "gml_id": "ETABLISSEMENTS_POLLUEURS.590596", "identifiant": "0007006390", "idetab": "590596", "nom": "ONTEX SANTE FRANCE", "codeape": "1722Z", "cp": "62119" }, "geometry": { "type": "Point", "coordinates": [ 2.9946, 50.42978 ] } },
{ "type": "Feature", "properties": { "gml_id": "ETABLISSEMENTS_POLLUEURS.599052", "identifiant": "0007006754", "idetab": "599052", "nom": "SECONDLY NORD", "codeape": "3832Z", "cp": "59211" }, "geometry": { "type": "Point", "coordinates": [ 2.97795, 50.59385 ] } },
{ "type": "Feature", "properties": { "gml_id": "ETABLISSEMENTS_POLLUEURS.595177", "identifiant": "0009075904", "idetab": "595177", "nom": "METROPOLE EUROPEENNE DE LILLE", "codeape": "3700Z", "cp": "59263" }, "geometry": { "type": "Point", "coordinates": [ 2.98975, 50.57745 ] } },
{ "type": "Feature", "properties": { "gml_id": "ETABLISSEMENTS_POLLUEURS.9524", "identifiant": "0075931600", "idetab": "9524", "nom": "STEP - LILLE-C.U.-HOUPLIN ANCOISNE", "codeape": "3700Z", "cp": "59263" }, "geometry": { "type": "Point", "coordinates": [ 2.98768, 50.580893 ] } },
{ "type": "Feature", "properties": { "gml_id": "ETABLISSEMENTS_POLLUEURS.591317", "identifiant": "0003800279", "idetab": "591317", "nom": "BIOGAZ DU HAUT PAYS", "codeape": "3821Z", "cp": "62560" }, "geometry": { "type": "Point", "coordinates": [ 2.05147, 50.61553 ] } },
{ "type": "Feature", "properties": { "gml_id": "ETABLISSEMENTS_POLLUEURS.591608", "identifiant": "0007000292", "idetab": "591608", "nom": "EQIOM", "codeape": "2351Z", "cp": "62380" }, "geometry": { "type": "Point", "coordinates": [ 2.10677, 50.69562 ] } },
{ "type": "Feature", "properties": { "gml_id": "ETABLISSEMENTS_POLLUEURS.3027", "identifiant": "0007000785", "idetab": "3027", "nom": "EQIOM", "codeape": "2351Z", "cp": "62380" }, "geometry": { "type": "Point", "coordinates": [ 2.11284, 50.699 ] } },
{ "type": "Feature", "properties": { "gml_id": "ETABLISSEMENTS_POLLUEURS.3101", "identifiant": "0007001030", "idetab": "3101", "nom": "SICAL", "codeape": "1721A", "cp": "62380" }, "geometry": { "type": "Point", "coordinates": [ 2.12273, 50.69616 ] } },
{ "type": "Feature", "properties": { "gml_id": "ETABLISSEMENTS_POLLUEURS.598181", "identifiant": "0003802643", "idetab": "598181", "nom": "QUELMES ENERGIE", "codeape": "3821Z", "cp": "62500" }, "geometry": { "type": "Point", "coordinates": [ 2.12767, 50.73574 ] } },
{ "type": "Feature", "properties": { "gml_id": "ETABLISSEMENTS_POLLUEURS.591612", "identifiant": "0007003268", "idetab": "591612", "nom": "CHASSAGRANDE DIDIER", "codeape": "3832Z", "cp": "62560" }, "geometry": { "type": "Point", "coordinates": [ 2.140508, 50.585862 ] } },
{ "type": "Feature", "properties": { "gml_id": "ETABLISSEMENTS_POLLUEURS.593214", "identifiant": "0007000360", "idetab": "593214", "nom": "GRES DE PERNES", "codeape": "0811Z", "cp": "62560" }, "geometry": { "type": "Point", "coordinates": [ 2.15606, 50.56311 ] } },
{ "type": "Feature", "properties": { "gml_id": "ETABLISSEMENTS_POLLUEURS.10129", "identifiant": "0007002196", "idetab": "10129", "nom": "LA LIANE CHARCUTERIE DU TERROIR", "codeape": "1013A", "cp": "62500" }, "geometry": { "type": "Point", "coordinates": [ 2.206846, 50.743457 ] } },
{ "type": "Feature", "properties": { "gml_id": "ETABLISSEMENTS_POLLUEURS.3147", "identifiant": "0007001304", "idetab": "3147", "nom": "WIZPAPER", "codeape": "1712Z", "cp": "62570" }, "geometry": { "type": "Point", "coordinates": [ 2.22308, 50.706199 ] } },
{ "type": "Feature", "properties": { "gml_id": "ETABLISSEMENTS_POLLUEURS.10133", "identifiant": "0007002245", "idetab": "10133", "nom": "PAPETERIES SILL", "codeape": "1723Z", "cp": "62570" }, "geometry": { "type": "Point", "coordinates": [ 2.23166, 50.70933 ] } },
{ "type": "Feature", "properties": { "gml_id": "ETABLISSEMENTS_POLLUEURS.2961", "identifiant": "0007000582", "idetab": "2961", "nom": "BRASSERIE DE SAINT-OMER", "codeape": "1105Z", "cp": "62504" }, "geometry": { "type": "Point", "coordinates": [ 2.25402, 50.75557 ] } },
{ "type": "Feature", "properties": { "gml_id": "ETABLISSEMENTS_POLLUEURS.8103", "identifiant": "0007000802", "idetab": "8103", "nom": "CHIMIREC-NOREC", "codeape": "3811Z", "cp": "62129" }, "geometry": { "type": "Point", "coordinates": [ 2.26088, 50.66576 ] } },
{ "type": "Feature", "properties": { "gml_id": "ETABLISSEMENTS_POLLUEURS.10069", "identifiant": "0007001247", "idetab": "10069", "nom": "ENVELNOR KUVERT", "codeape": "1723Z", "cp": "62120" }, "geometry": { "type": "Point", "coordinates": [ 2.26101, 50.665 ] } },
{ "type": "Feature", "properties": { "gml_id": "ETABLISSEMENTS_POLLUEURS.10070", "identifiant": "0007001248", "idetab": "10070", "nom": "ENVELNOR PACKAGING", "codeape": "1721C", "cp": "62120" }, "geometry": { "type": "Point", "coordinates": [ 2.26101, 50.665 ] } },
{ "type": "Feature", "properties": { "gml_id": "ETABLISSEMENTS_POLLUEURS.10067", "identifiant": "0007001239", "idetab": "10067", "nom": "CASTEL FRERES", "codeape": "4634Z", "cp": "62503" }, "geometry": { "type": "Point", "coordinates": [ 2.26173, 50.75738 ] } },
{ "type": "Feature", "properties": { "gml_id": "ETABLISSEMENTS_POLLUEURS.2939", "identifiant": "0007000489", "idetab": "2939", "nom": "NORPAPER AVOT VALLEE", "codeape": "1712Z", "cp": "62501" }, "geometry": { "type": "Point", "coordinates": [ 2.26197, 50.75064 ] } },
{ "type": "Feature", "properties": { "gml_id": "ETABLISSEMENTS_POLLUEURS.2940", "identifiant": "0007000490", "idetab": "2940", "nom": "RDM BLENDECQUES", "codeape": "1712Z", "cp": "62501" }, "geometry": { "type": "Point", "coordinates": [ 2.26633, 50.7126 ] } },
{ "type": "Feature", "properties": { "gml_id": "ETABLISSEMENTS_POLLUEURS.5313", "identifiant": "0007002964", "idetab": "5313", "nom": "NORENERGY", "codeape": "3530Z", "cp": "62575" }, "geometry": { "type": "Point", "coordinates": [ 2.27707, 50.71583 ] } },
{ "type": "Feature", "properties": { "gml_id": "ETABLISSEMENTS_POLLUEURS.13246", "identifiant": "0007001301", "idetab": "13246", "nom": "AUCHAN CARBURANT", "codeape": "4730Z", "cp": "62219" }, "geometry": { "type": "Point", "coordinates": [ 2.29408, 50.735016 ] } },
{ "type": "Feature", "properties": { "gml_id": "ETABLISSEMENTS_POLLUEURS.588119", "identifiant": "0007001240", "idetab": "588119", "nom": "SOCIETE SPECIALISTE DE L'ALIMENTATION POUR LE BETAIL", "codeape": "1091Z", "cp": "62510" }, "geometry": { "type": "Point", "coordinates": [ 2.29717, 50.74207 ] } },
{ "type": "Feature", "properties": { "gml_id": "ETABLISSEMENTS_POLLUEURS.2973", "identifiant": "0007000621", "idetab": "2973", "nom": "ARC FRANCE", "codeape": "2313Z", "cp": "62510" }, "geometry": { "type": "Point", "coordinates": [ 2.30179, 50.73032 ] } },
{ "type": "Feature", "properties": { "gml_id": "ETABLISSEMENTS_POLLUEURS.10989", "identifiant": "0007001238", "idetab": "10989", "nom": "EXPRESS PACKAGING", "codeape": "1721A", "cp": "62510" }, "geometry": { "type": "Point", "coordinates": [ 2.31476, 50.71791 ] } },
{ "type": "Feature", "properties": { "gml_id": "ETABLISSEMENTS_POLLUEURS.13671", "identifiant": "0007003109", "idetab": "13671", "nom": "AUCHAN HYPERMARCHE", "codeape": "4711F", "cp": "62510" }, "geometry": { "type": "Point", "coordinates": [ 2.31961, 50.74094 ] } },
{ "type": "Feature", "properties": { "gml_id": "ETABLISSEMENTS_POLLUEURS.591613", "identifiant": "0007003375", "idetab": "591613", "nom": "ASTRADEC", "codeape": "3811Z", "cp": "59143" }, "geometry": { "type": "Point", "coordinates": [ 2.28531, 50.78874 ] } },
{ "type": "Feature", "properties": { "gml_id": "ETABLISSEMENTS_POLLUEURS.13256", "identifiant": "0007003549", "idetab": "13256", "nom": "REVIVAL", "codeape": "3832Z", "cp": "62219" }, "geometry": { "type": "Point", "coordinates": [ 2.26572, 50.74667 ] } },
{ "type": "Feature", "properties": { "gml_id": "ETABLISSEMENTS_POLLUEURS.10214", "identifiant": "0007004138", "idetab": "10214", "nom": "ALPHAGLASS", "codeape": "2313Z", "cp": "62510" }, "geometry": { "type": "Point", "coordinates": [ 2.31476, 50.71791 ] } },
{ "type": "Feature", "properties": { "gml_id": "ETABLISSEMENTS_POLLUEURS.13689", "identifiant": "0007004343", "idetab": "13689", "nom": "SYNDICAT MIXTE LYS AUDOMAROIS", "codeape": "8413Z", "cp": "62510" }, "geometry": { "type": "Point", "coordinates": [ 2.295819, 50.734109 ] } },
{ "type": "Feature", "properties": { "gml_id": "ETABLISSEMENTS_POLLUEURS.13696", "identifiant": "0007004942", "idetab": "13696", "nom": "ARC PACKAGING (CARTONS ET PLASTIQUES)", "codeape": "1721A", "cp": "62510" }, "geometry": { "type": "Point", "coordinates": [ 2.295765, 50.726867 ] } },
{ "type": "Feature", "properties": { "gml_id": "ETABLISSEMENTS_POLLUEURS.588128", "identifiant": "0007005524", "idetab": "588128", "nom": "ALPHADEC", "codeape": "2313Z", "cp": "62510" }, "geometry": { "type": "Point", "coordinates": [ 2.31476, 50.71791 ] } },
{ "type": "Feature", "properties": { "gml_id": "ETABLISSEMENTS_POLLUEURS.598414", "identifiant": "0007006313", "idetab": "598414", "nom": "EARL BRIDAULT CHEVALIER", "codeape": "0146Z", "cp": "62575" }, "geometry": { "type": "Point", "coordinates": [ 2.29122, 50.69 ] } },
{ "type": "Feature", "properties": { "gml_id": "ETABLISSEMENTS_POLLUEURS.589176", "identifiant": "0007006606", "idetab": "589176", "nom": "HELFAUT TRAVAUX", "codeape": "4311Z", "cp": "62570" }, "geometry": { "type": "Point", "coordinates": [ 2.26099, 50.70173 ] } },
{ "type": "Feature", "properties": { "gml_id": "ETABLISSEMENTS_POLLUEURS.10376", "identifiant": "0028300009", "idetab": "10376", "nom": "WIZPAPER", "codeape": "1712Z", "cp": "62570" }, "geometry": { "type": "Point", "coordinates": [ 2.224, 50.70686 ] } },
{ "type": "Feature", "properties": { "gml_id": "ETABLISSEMENTS_POLLUEURS.598384", "identifiant": "0056200571", "idetab": "598384", "nom": "GAEC DE MAISNIL", "codeape": "0147Z", "cp": "62380" }, "geometry": { "type": "Point", "coordinates": [ 2.16435, 50.62117 ] } },
{ "type": "Feature", "properties": { "gml_id": "ETABLISSEMENTS_POLLUEURS.598803", "identifiant": "0056200749", "idetab": "598803", "nom": "SOCIETE D'ABATTAGE DES HAUTS PAYS", "codeape": "1011Z", "cp": "62310" }, "geometry": { "type": "Point", "coordinates": [ 2.12631, 50.49816 ] } },
{ "type": "Feature", "properties": { "gml_id": "ETABLISSEMENTS_POLLUEURS.598315", "identifiant": "0056200959", "idetab": "598315", "nom": "SCEA MONCHY", "codeape": "0150Z", "cp": "62129" }, "geometry": { "type": "Point", "coordinates": [ 2.23486, 50.66859 ] } },
{ "type": "Feature", "properties": { "gml_id": "ETABLISSEMENTS_POLLUEURS.598356", "identifiant": "0056201465", "idetab": "598356", "nom": "GAEC DU MONTIMET", "codeape": "0142Z", "cp": "62560" }, "geometry": { "type": "Point", "coordinates": [ 2.05707, 50.57715 ] } },
{ "type": "Feature", "properties": { "gml_id": "ETABLISSEMENTS_POLLUEURS.2934", "identifiant": "0007000471", "idetab": "2934", "nom": "FLANDRIA ALUMINIUM", "codeape": "2442Z", "cp": "59560" }, "geometry": { "type": "Point", "coordinates": [ 2.94594, 50.74455 ] } },
{ "type": "Feature", "properties": { "gml_id": "ETABLISSEMENTS_POLLUEURS.10085", "identifiant": "0007001614", "idetab": "10085", "nom": "DEMEYERE PERENCHIES", "codeape": "3109B", "cp": "59840" }, "geometry": { "type": "Point", "coordinates": [ 2.97299, 50.667018 ] } },
{ "type": "Feature", "properties": { "gml_id": "ETABLISSEMENTS_POLLUEURS.10018", "identifiant": "0007000888", "idetab": "10018", "nom": "TRAITEMENTS LAMBIN", "codeape": "2561Z", "cp": "59160" }, "geometry": { "type": "Point", "coordinates": [ 2.985768, 50.650034 ] } },
{ "type": "Feature", "properties": { "gml_id": "ETABLISSEMENTS_POLLUEURS.596823", "identifiant": "0007001560", "idetab": "596823", "nom": "GEODIS D&E LILLE EUROPE", "codeape": "4941B", "cp": "59000" }, "geometry": { "type": "Point", "coordinates": [ 2.98891, 50.63915 ] } },
{ "type": "Feature", "properties": { "gml_id": "ETABLISSEMENTS_POLLUEURS.598479", "identifiant": "0007001396", "idetab": "598479", "nom": "PAPREC NORD NORMANDIE", "codeape": "3832Z", "cp": "59890" }, "geometry": { "type": "Point", "coordinates": [ 2.99104, 50.70821 ] } },
{ "type": "Feature", "properties": { "gml_id": "ETABLISSEMENTS_POLLUEURS.591607", "identifiant": "0007000058", "idetab": "591607", "nom": "BRIQUETERIES DU NORD", "codeape": "2332Z", "cp": "59160" }, "geometry": { "type": "Point", "coordinates": [ 2.99638, 50.65528 ] } },
{ "type": "Feature", "properties": { "gml_id": "ETABLISSEMENTS_POLLUEURS.7027", "identifiant": "0007002457", "idetab": "7027", "nom": "SAS RICHARD COLORANTS", "codeape": "2030Z", "cp": "59160" }, "geometry": { "type": "Point", "coordinates": [ 2.985768, 50.650034 ] } },
{ "type": "Feature", "properties": { "gml_id": "ETABLISSEMENTS_POLLUEURS.10146", "identifiant": "0007002459", "idetab": "10146", "nom": "SICAD FRANCE", "codeape": "2229B", "cp": "59160" }, "geometry": { "type": "Point", "coordinates": [ 2.970603, 50.641517 ] } },
{ "type": "Feature", "properties": { "gml_id": "ETABLISSEMENTS_POLLUEURS.597470", "identifiant": "0007002642", "idetab": "597470", "nom": "INGRAM MICRO", "codeape": "4651Z", "cp": "59160" }, "geometry": { "type": "Point", "coordinates": [ 2.99869, 50.64186 ] } },
{ "type": "Feature", "properties": { "gml_id": "ETABLISSEMENTS_POLLUEURS.10170", "identifiant": "0007002909", "idetab": "10170", "nom": "WEB TECH", "codeape": "1812Z", "cp": "59557" }, "geometry": { "type": "Point", "coordinates": [ 2.99374, 50.75899 ] } },
{ "type": "Feature", "properties": { "gml_id": "ETABLISSEMENTS_POLLUEURS.10186", "identifiant": "0007003251", "idetab": "10186", "nom": "ONDUCLAIR", "codeape": "2221Z", "cp": "59560" }, "geometry": { "type": "Point", "coordinates": [ 2.993734, 50.751615 ] } },
{ "type": "Feature", "properties": { "gml_id": "ETABLISSEMENTS_POLLUEURS.11897", "identifiant": "0007004006", "idetab": "11897", "nom": "GALLOO FRANCE", "codeape": "3832Z", "cp": "59236" }, "geometry": { "type": "Point", "coordinates": [ 2.9304, 50.70847 ] } },
{ "type": "Feature", "properties": { "gml_id": "ETABLISSEMENTS_POLLUEURS.589160", "identifiant": "0007004265", "idetab": "589160", "nom": "REVIVAL", "codeape": "3831Z", "cp": "59560" }, "geometry": { "type": "Point", "coordinates": [ 2.99814, 50.76185 ] } },
{ "type": "Feature", "properties": { "gml_id": "ETABLISSEMENTS_POLLUEURS.591135", "identifiant": "0055901316", "idetab": "591135", "nom": "SARL DELOMMEZ", "codeape": "0147Z", "cp": "59840" }, "geometry": { "type": "Point", "coordinates": [ 2.94512, 50.66816 ] } },
{ "type": "Feature", "properties": { "gml_id": "ETABLISSEMENTS_POLLUEURS.3568", "identifiant": "59470500", "idetab": "3568", "nom": "SARL DELOMMEZ", "codeape": "0147Z", "cp": "59840" }, "geometry": { "type": "Point", "coordinates": [ 2.958621, 50.662629 ] } },
{ "type": "Feature", "properties": { "gml_id": "ETABLISSEMENTS_POLLUEURS.10413", "identifiant": "59611104", "idetab": "10413", "nom": "COMPOST DU MAZE", "codeape": "3821Z", "cp": "59237" }, "geometry": { "type": "Point", "coordinates": [ 2.9964, 50.689087 ] } },
{ "type": "Feature", "properties": { "gml_id": "ETABLISSEMENTS_POLLUEURS.11006", "identifiant": "0007002417", "idetab": "11006", "nom": "VANYWAEDE", "codeape": "2444Z", "cp": "59180" }, "geometry": { "type": "Point", "coordinates": [ 2.359034, 50.998094 ] } },
{ "type": "Feature", "properties": { "gml_id": "ETABLISSEMENTS_POLLUEURS.3051", "identifiant": "0007000866", "idetab": "3051", "nom": "LEROUX", "codeape": "1083Z", "cp": "62162" }, "geometry": { "type": "Point", "coordinates": [ 2.0833, 50.9333 ] } },
{ "type": "Feature", "properties": { "gml_id": "ETABLISSEMENTS_POLLUEURS.10043", "identifiant": "0007001116", "idetab": "10043", "nom": "SOLARCA FRANCE", "codeape": "8122Z", "cp": "59820" }, "geometry": { "type": "Point", "coordinates": [ 2.124835, 50.985919 ] } },
{ "type": "Feature", "properties": { "gml_id": "ETABLISSEMENTS_POLLUEURS.589178", "identifiant": "0007006634", "idetab": "589178", "nom": "EIFFAGE", "codeape": "4211Z", "cp": "59820" }, "geometry": { "type": "Point", "coordinates": [ 2.140529, 50.972887 ] } },
{ "type": "Feature", "properties": { "gml_id": "ETABLISSEMENTS_POLLUEURS.3123", "identifiant": "0007001117", "idetab": "3123", "nom": "BASF AGRI PRODUCTION SAS", "codeape": "2020Z", "cp": "59820" }, "geometry": { "type": "Point", "coordinates": [ 2.14784, 50.9813 ] } },
{ "type": "Feature", "properties": { "gml_id": "ETABLISSEMENTS_POLLUEURS.8105", "identifiant": "0007001115", "idetab": "8105", "nom": "BARRY CALLEBAUT NORD CACAO", "codeape": "1082Z", "cp": "59820" }, "geometry": { "type": "Point", "coordinates": [ 2.14784, 50.9813 ] } },
{ "type": "Feature", "properties": { "gml_id": "ETABLISSEMENTS_POLLUEURS.2936", "identifiant": "0007000481", "idetab": "2936", "nom": "HYET SWEET", "codeape": "2110Z", "cp": "59820" }, "geometry": { "type": "Point", "coordinates": [ 2.16033, 50.98826 ] } },
{ "type": "Feature", "properties": { "gml_id": "ETABLISSEMENTS_POLLUEURS.599371", "identifiant": "0003801297", "idetab": "599371", "nom": "FLOCRYL", "codeape": "2016Z", "cp": "59820" }, "geometry": { "type": "Point", "coordinates": [ 2.1686, 50.99096 ] } },
{ "type": "Feature", "properties": { "gml_id": "ETABLISSEMENTS_POLLUEURS.3184", "identifiant": "0007002413", "idetab": "3184", "nom": "OPALE ENVIRONNEMENT", "codeape": "3821Z", "cp": "62370" }, "geometry": { "type": "Point", "coordinates": [ 2.17273, 50.89792 ] } },
{ "type": "Feature", "properties": { "gml_id": "ETABLISSEMENTS_POLLUEURS.598450", "identifiant": "0003802000", "idetab": "598450", "nom": "CL DUNKERQUE", "codeape": "7010Z", "cp": "59630" }, "geometry": { "type": "Point", "coordinates": [ 2.17903, 50.9692 ] } },
{ "type": "Feature", "properties": { "gml_id": "ETABLISSEMENTS_POLLUEURS.10220", "identifiant": "0007004287", "idetab": "10220", "nom": "GALLOO LITTORAL", "codeape": "3832Z", "cp": "59630" }, "geometry": { "type": "Point", "coordinates": [ 2.18984, 50.95689 ] } },
{ "type": "Feature", "properties": { "gml_id": "ETABLISSEMENTS_POLLUEURS.3059", "identifiant": "0007000884", "idetab": "3059", "nom": "BETAFENCE", "codeape": "2593Z", "cp": "59630" }, "geometry": { "type": "Point", "coordinates": [ 2.196676, 50.946599 ] } },
{ "type": "Feature", "properties": { "gml_id": "ETABLISSEMENTS_POLLUEURS.10046", "identifiant": "0007001128", "idetab": "10046", "nom": "CEMOI CHOCOLATIER", "codeape": "1082Z", "cp": "59630" }, "geometry": { "type": "Point", "coordinates": [ 2.20264, 50.95172 ] } },
{ "type": "Feature", "properties": { "gml_id": "ETABLISSEMENTS_POLLUEURS.7031", "identifiant": "0007003322", "idetab": "7031", "nom": "RYSSEN ALCOOLS", "codeape": "1101Z", "cp": "59279" }, "geometry": { "type": "Point", "coordinates": [ 2.21861, 50.99239 ] } },
{ "type": "Feature", "properties": { "gml_id": "ETABLISSEMENTS_POLLUEURS.13694", "identifiant": "0007004595", "idetab": "13694", "nom": "DUNKERQUE LNG", "codeape": "4221Z", "cp": "59792" }, "geometry": { "type": "Point", "coordinates": [ 2.22705, 50.99393 ] } },
{ "type": "Feature", "properties": { "gml_id": "ETABLISSEMENTS_POLLUEURS.591615", "identifiant": "0007006063", "idetab": "591615", "nom": "SM SIROM FLANDRE NORD", "codeape": "3811Z", "cp": "59630" }, "geometry": { "type": "Point", "coordinates": [ 2.232037, 50.899206 ] } },
{ "type": "Feature", "properties": { "gml_id": "ETABLISSEMENTS_POLLUEURS.591267", "identifiant": "0069904001", "idetab": "591267", "nom": "EDF - CNPE DE GRAVELINES", "codeape": "3511Z", "cp": "59820" }, "geometry": { "type": "Point", "coordinates": [ 2.124835, 50.985919 ] } },
{ "type": "Feature", "properties": { "gml_id": "ETABLISSEMENTS_POLLUEURS.7451", "identifiant": "59130510", "idetab": "7451", "nom": "EARL VANDAELE", "codeape": "012E", "cp": "59630" }, "geometry": { "type": "Point", "coordinates": [ 2.228063, 50.909525 ] } },
{ "type": "Feature", "properties": { "gml_id": "ETABLISSEMENTS_POLLUEURS.9424", "identifiant": "59273101", "idetab": "9424", "nom": "AQUANORD (SA)", "codeape": "0321Z", "cp": "59820" }, "geometry": { "type": "Point", "coordinates": [ 2.124796, 50.994885 ] } },
{ "type": "Feature", "properties": { "gml_id": "ETABLISSEMENTS_POLLUEURS.9231", "identifiant": "0007002313", "idetab": "9231", "nom": "SIDEN-SIAN", "codeape": "3700Z", "cp": "59380" }, "geometry": { "type": "Point", "coordinates": [ 2.41255, 50.95397 ] } },
{ "type": "Feature", "properties": { "gml_id": "ETABLISSEMENTS_POLLUEURS.3049", "identifiant": "0007000854", "idetab": "3049", "nom": "BALL PACKAGING EUROPE FRANCE", "codeape": "2592Z", "cp": "59380" }, "geometry": { "type": "Point", "coordinates": [ 2.41847, 50.95545 ] } },
{ "type": "Feature", "properties": { "gml_id": "ETABLISSEMENTS_POLLUEURS.3124", "identifiant": "0007001124", "idetab": "3124", "nom": "COCA COLA PRODUCTION", "codeape": "1107B", "cp": "59380" }, "geometry": { "type": "Point", "coordinates": [ 2.41961, 50.95328 ] } },
{ "type": "Feature", "properties": { "gml_id": "ETABLISSEMENTS_POLLUEURS.10024", "identifiant": "0007000923", "idetab": "10024", "nom": "TIM SAS", "codeape": "2910Z", "cp": "59380" }, "geometry": { "type": "Point", "coordinates": [ 2.454785, 50.935407 ] } },
{ "type": "Feature", "properties": { "gml_id": "ETABLISSEMENTS_POLLUEURS.589167", "identifiant": "0007005385", "idetab": "589167", "nom": "BERGUES LIANTS", "codeape": "2016Z", "cp": "59492" }, "geometry": { "type": "Point", "coordinates": [ 2.46193, 50.97302 ] } },
{ "type": "Feature", "properties": { "gml_id": "ETABLISSEMENTS_POLLUEURS.598467", "identifiant": "0007001122", "idetab": "598467", "nom": "CORPLEX FRANCE WORMHOUT", "codeape": "2222Z", "cp": "59470" }, "geometry": { "type": "Point", "coordinates": [ 2.49129, 50.88527 ] } },
{ "type": "Feature", "properties": { "gml_id": "ETABLISSEMENTS_POLLUEURS.11893", "identifiant": "0007003771", "idetab": "11893", "nom": "CROMOLOGY RESEARCH & INDUSTRY NORD", "codeape": "2030Z", "cp": "59470" }, "geometry": { "type": "Point", "coordinates": [ 2.49231, 50.88198 ] } },
{ "type": "Feature", "properties": { "gml_id": "ETABLISSEMENTS_POLLUEURS.7620", "identifiant": "0000000001", "idetab": "7620", "nom": "SARL JEAN CARTON", "codeape": "0147Z", "cp": "59380" }, "geometry": { "type": "Point", "coordinates": [ 2.492857, 50.976482 ] } },
{ "type": "Feature", "properties": { "gml_id": "ETABLISSEMENTS_POLLUEURS.10219", "identifiant": "0007004279", "idetab": "10219", "nom": "GALLOO FRANCE", "codeape": "4672Z", "cp": "59122" }, "geometry": { "type": "Point", "coordinates": [ 2.5847, 50.92704 ] } },
{ "type": "Feature", "properties": { "gml_id": "ETABLISSEMENTS_POLLUEURS.11904", "identifiant": "0007004206", "idetab": "11904", "nom": "REVIVAL", "codeape": "3831Z", "cp": "59470" }, "geometry": { "type": "Point", "coordinates": [ 2.59317, 50.876459 ] } },
{ "type": "Feature", "properties": { "gml_id": "ETABLISSEMENTS_POLLUEURS.589174", "identifiant": "0007006264", "idetab": "589174", "nom": "KUBOTA FARM MACHINERY EUROPE SAS", "codeape": "2830Z", "cp": "59380" }, "geometry": { "type": "Point", "coordinates": [ 2.42143, 50.9665 ] } },
{ "type": "Feature", "properties": { "gml_id": "ETABLISSEMENTS_POLLUEURS.590225", "identifiant": "0007006641", "idetab": "590225", "nom": "LOC FLANDRE", "codeape": "7732Z", "cp": "59380" }, "geometry": { "type": "Point", "coordinates": [ 2.368227, 50.954305 ] } },
{ "type": "Feature", "properties": { "gml_id": "ETABLISSEMENTS_POLLUEURS.598164", "identifiant": "0007006713", "idetab": "598164", "nom": "DHOLLANDIA PRODUCTION SA", "codeape": "2822Z", "cp": "59470" }, "geometry": { "type": "Point", "coordinates": [ 2.48963, 50.88332 ] } },
{ "type": "Feature", "properties": { "gml_id": "ETABLISSEMENTS_POLLUEURS.599109", "identifiant": "0055900037", "idetab": "599109", "nom": "SARL DES TROIS CHENES", "codeape": "0146Z", "cp": "59285" }, "geometry": { "type": "Point", "coordinates": [ 2.42395, 50.82849 ] } },
{ "type": "Feature", "properties": { "gml_id": "ETABLISSEMENTS_POLLUEURS.591132", "identifiant": "0055900577", "idetab": "591132", "nom": "SOCIETE CIVILE D'EXPLOITATION AGRICOLE VERLEENE", "codeape": "0147Z", "cp": "59470" }, "geometry": { "type": "Point", "coordinates": [ 2.44041, 50.91064 ] } },
{ "type": "Feature", "properties": { "gml_id": "ETABLISSEMENTS_POLLUEURS.591133", "identifiant": "0055900840", "idetab": "591133", "nom": "SARL DES TROIS CHENES", "codeape": "0146Z", "cp": "59470" }, "geometry": { "type": "Point", "coordinates": [ 2.53409, 50.86178 ] } },
{ "type": "Feature", "properties": { "gml_id": "ETABLISSEMENTS_POLLUEURS.599046", "identifiant": "0055900841", "idetab": "599046", "nom": "EARL BAILLIE", "codeape": "0150Z", "cp": "59470" }, "geometry": { "type": "Point", "coordinates": [ 2.56581, 50.89488 ] } },
{ "type": "Feature", "properties": { "gml_id": "ETABLISSEMENTS_POLLUEURS.598887", "identifiant": "0055900909", "idetab": "598887", "nom": "EARL PEEL", "codeape": "0147Z", "cp": "59470" }, "geometry": { "type": "Point", "coordinates": [ 2.60255, 50.89477 ] } },
{ "type": "Feature", "properties": { "gml_id": "ETABLISSEMENTS_POLLUEURS.595454", "identifiant": "0055901933", "idetab": "595454", "nom": "VANPEENE", "codeape": "0147Z", "cp": "59670" }, "geometry": { "type": "Point", "coordinates": [ 2.55085, 50.85079 ] } },
{ "type": "Feature", "properties": { "gml_id": "ETABLISSEMENTS_POLLUEURS.599304", "identifiant": "0055901954", "idetab": "599304", "nom": "EARL FOORT", "codeape": "0146Z", "cp": "59470" }, "geometry": { "type": "Point", "coordinates": [ 2.49025, 50.87242 ] } },
{ "type": "Feature", "properties": { "gml_id": "ETABLISSEMENTS_POLLUEURS.13905", "identifiant": "0055901955", "idetab": "13905", "nom": "EXPLOITATION AGRICOLE A RESPONSABILITES LIMITEE BELLEVUE", "codeape": "0146Z", "cp": "59470" }, "geometry": { "type": "Point", "coordinates": [ 2.4498, 50.90885 ] } },
{ "type": "Feature", "properties": { "gml_id": "ETABLISSEMENTS_POLLUEURS.591136", "identifiant": "0055901967", "idetab": "591136", "nom": "EARL DE L'YSER", "codeape": "0150Z", "cp": "59380" }, "geometry": { "type": "Point", "coordinates": [ 2.484895, 50.905475 ] } },
{ "type": "Feature", "properties": { "gml_id": "ETABLISSEMENTS_POLLUEURS.591791", "identifiant": "0055901990", "idetab": "591791", "nom": "EARL DES SAPINS", "codeape": "0146Z", "cp": "59670" }, "geometry": { "type": "Point", "coordinates": [ 2.43462, 50.80047 ] } },
{ "type": "Feature", "properties": { "gml_id": "ETABLISSEMENTS_POLLUEURS.7453", "identifiant": "59210801", "idetab": "7453", "nom": "SARL VERLEENE", "codeape": "0147Z", "cp": "59470" }, "geometry": { "type": "Point", "coordinates": [ 2.436607, 50.893573 ] } },
{ "type": "Feature", "properties": { "gml_id": "ETABLISSEMENTS_POLLUEURS.3565", "identifiant": "59305516", "idetab": "3565", "nom": "SCEA DES TROIS CHÊNES", "codeape": "0146Z", "cp": "59470" }, "geometry": { "type": "Point", "coordinates": [ 2.536829, 50.893936 ] } },
{ "type": "Feature", "properties": { "gml_id": "ETABLISSEMENTS_POLLUEURS.7456", "identifiant": "59478508", "idetab": "7456", "nom": "EARL DETHOOR", "codeape": "013Z", "cp": "59380" }, "geometry": { "type": "Point", "coordinates": [ 2.460577, 50.943592 ] } },
{ "type": "Feature", "properties": { "gml_id": "ETABLISSEMENTS_POLLUEURS.13524", "identifiant": "59570510", "idetab": "13524", "nom": "GAEC LEY", "codeape": "0150Z", "cp": "59380" }, "geometry": { "type": "Point", "coordinates": [ 2.422336, 50.944668 ] } },
{ "type": "Feature", "properties": { "gml_id": "ETABLISSEMENTS_POLLUEURS.8378", "identifiant": "59579100", "idetab": "8378", "nom": "SCEA DU STEENBOURG", "codeape": "0150Z", "cp": "59380" }, "geometry": { "type": "Point", "coordinates": [ 2.386145, 50.943961 ] } },
{ "type": "Feature", "properties": { "gml_id": "ETABLISSEMENTS_POLLUEURS.3570", "identifiant": "59641066", "idetab": "3570", "nom": "SARL JEAN CARTON", "codeape": "0147Z", "cp": "59380" }, "geometry": { "type": "Point", "coordinates": [ 2.49866, 50.984665 ] } },
{ "type": "Feature", "properties": { "gml_id": "ETABLISSEMENTS_POLLUEURS.10414", "identifiant": "59662516", "idetab": "10414", "nom": "EARL THORIS LUC", "codeape": "0146Z", "cp": "59670" }, "geometry": { "type": "Point", "coordinates": [ 2.551061, 50.849638 ] } },
{ "type": "Feature", "properties": { "gml_id": "ETABLISSEMENTS_POLLUEURS.7460", "identifiant": "59665500", "idetab": "7460", "nom": "EARL DE L'YSER", "codeape": "0146Z", "cp": "59380" }, "geometry": { "type": "Point", "coordinates": [ 2.499338, 50.918541 ] } },
{ "type": "Feature", "properties": { "gml_id": "ETABLISSEMENTS_POLLUEURS.11236", "identifiant": "59669506", "idetab": "11236", "nom": "EARL DES SAPINS", "codeape": "0146Z", "cp": "59670" }, "geometry": { "type": "Point", "coordinates": [ 2.42907, 50.802475 ] } },
{ "type": "Feature", "properties": { "gml_id": "ETABLISSEMENTS_POLLUEURS.3080", "identifiant": "0007000962", "idetab": "3080", "nom": "IMERYS ALUMINATES", "codeape": "2351Z", "cp": "59279" }, "geometry": { "type": "Point", "coordinates": [ 2.25864, 50.99846 ] } },
{ "type": "Feature", "properties": { "gml_id": "ETABLISSEMENTS_POLLUEURS.3023", "identifiant": "0007000766", "idetab": "3023", "nom": "POLYCHIM INDUSTRIE", "codeape": "2016Z", "cp": "59279" }, "geometry": { "type": "Point", "coordinates": [ 2.25864, 50.99846 ] } },
{ "type": "Feature", "properties": { "gml_id": "ETABLISSEMENTS_POLLUEURS.3077", "identifiant": "0007000955", "idetab": "3077", "nom": "ARCELORMITTAL FRANCE", "codeape": "2410Z", "cp": "59792" }, "geometry": { "type": "Point", "coordinates": [ 2.29238, 50.99552 ] } },
{ "type": "Feature", "properties": { "gml_id": "ETABLISSEMENTS_POLLUEURS.597428", "identifiant": "0007003578", "idetab": "597428", "nom": "BOZEL EUROPE", "codeape": "2410Z", "cp": "59760" }, "geometry": { "type": "Point", "coordinates": [ 2.29734, 50.99648 ] } },
{ "type": "Feature", "properties": { "gml_id": "ETABLISSEMENTS_POLLUEURS.3054", "identifiant": "0007000870", "idetab": "3054", "nom": "NORD CHROME", "codeape": "2561Z", "cp": "59760" }, "geometry": { "type": "Point", "coordinates": [ 2.29738, 50.98667 ] } },
{ "type": "Feature", "properties": { "gml_id": "ETABLISSEMENTS_POLLUEURS.5306", "identifiant": "0007002309", "idetab": "5306", "nom": "NATRAN", "codeape": "4950Z", "cp": "59284" }, "geometry": { "type": "Point", "coordinates": [ 2.30609, 50.92697 ] } },
{ "type": "Feature", "properties": { "gml_id": "ETABLISSEMENTS_POLLUEURS.10103", "identifiant": "0007001856", "idetab": "10103", "nom": "ISOCAB FRANCE", "codeape": "2433Z", "cp": "59760" }, "geometry": { "type": "Point", "coordinates": [ 2.30953, 50.99503 ] } },
{ "type": "Feature", "properties": { "gml_id": "ETABLISSEMENTS_POLLUEURS.3158", "identifiant": "0007001787", "idetab": "3158", "nom": "LESIEUR GENERALE CONDIMENTAIRE", "codeape": "1084Z", "cp": "59760" }, "geometry": { "type": "Point", "coordinates": [ 2.30953, 50.99503 ] } },
{ "type": "Feature", "properties": { "gml_id": "ETABLISSEMENTS_POLLUEURS.590584", "identifiant": "0007003076", "idetab": "590584", "nom": "SOCIETE ARTESIENNE DE TRAVAUX ET CARRIERES -ETS DELANNOY SATC ETS DELANNOY", "codeape": "4211Z", "cp": "62330" }, "geometry": { "type": "Point", "coordinates": [ 2.49786, 50.61515 ] } },
{ "type": "Feature", "properties": { "gml_id": "ETABLISSEMENTS_POLLUEURS.10200", "identifiant": "0007003599", "idetab": "10200", "nom": "APERAM STAINLESS SERVICES & SOLUTIONS FRANCE", "codeape": "4672Z", "cp": "62330" }, "geometry": { "type": "Point", "coordinates": [ 2.47877, 50.61522 ] } },
{ "type": "Feature", "properties": { "gml_id": "ETABLISSEMENTS_POLLUEURS.13455", "identifiant": "0028200058", "idetab": "13455", "nom": "PEDALPOINT IGNEO FRANCE", "codeape": "3832Z", "cp": "62330" }, "geometry": { "type": "Point", "coordinates": [ 2.45552, 50.61664 ] } },
{ "type": "Feature", "properties": { "gml_id": "ETABLISSEMENTS_POLLUEURS.590070", "identifiant": "0028200003", "idetab": "590070", "nom": "MATERIAUX ROUTIERS DU LITTORAL", "codeape": "2399Z", "cp": "62330" }, "geometry": { "type": "Point", "coordinates": [ 2.49901, 50.61754 ] } },
{ "type": "Feature", "properties": { "gml_id": "ETABLISSEMENTS_POLLUEURS.592291", "identifiant": "0028200074", "idetab": "592291", "nom": "EUROFIELD", "codeape": "1393Z", "cp": "62330" }, "geometry": { "type": "Point", "coordinates": [ 2.47148, 50.61771 ] } },
{ "type": "Feature", "properties": { "gml_id": "ETABLISSEMENTS_POLLUEURS.13710", "identifiant": "0007006131", "idetab": "13710", "nom": "RECYCO", "codeape": "3811Z", "cp": "62330" }, "geometry": { "type": "Point", "coordinates": [ 2.47148, 50.61771 ] } },
{ "type": "Feature", "properties": { "gml_id": "ETABLISSEMENTS_POLLUEURS.3040", "identifiant": "0007000824", "idetab": "3040", "nom": "APERAM STAINLESS FRANCE", "codeape": "2410Z", "cp": "62330" }, "geometry": { "type": "Point", "coordinates": [ 2.47053, 50.61919 ] } },
{ "type": "Feature", "properties": { "gml_id": "ETABLISSEMENTS_POLLUEURS.3180", "identifiant": "0007002377", "idetab": "3180", "nom": "THYSSENKRUPP ELECTRICAL STEEL UGO", "codeape": "2410Z", "cp": "62330" }, "geometry": { "type": "Point", "coordinates": [ 2.47102, 50.61928 ] } },
{ "type": "Feature", "properties": { "gml_id": "ETABLISSEMENTS_POLLUEURS.13655", "identifiant": "0007001237", "idetab": "13655", "nom": "ARC FRANCE", "codeape": "2313Z", "cp": "62120" }, "geometry": { "type": "Point", "coordinates": [ 2.41545, 50.63895 ] } },
{ "type": "Feature", "properties": { "gml_id": "ETABLISSEMENTS_POLLUEURS.599315", "identifiant": "0055900803", "idetab": "599315", "nom": "EARL LE FOREST", "codeape": "0147Z", "cp": "59660" }, "geometry": { "type": "Point", "coordinates": [ 2.51078, 50.64081 ] } },
{ "type": "Feature", "properties": { "gml_id": "ETABLISSEMENTS_POLLUEURS.13257", "identifiant": "0007003551", "idetab": "13257", "nom": "UNEAL", "codeape": "4621Z", "cp": "62120" }, "geometry": { "type": "Point", "coordinates": [ 2.40545, 50.64087 ] } },
{ "type": "Feature", "properties": { "gml_id": "ETABLISSEMENTS_POLLUEURS.10068", "identifiant": "0007001242", "idetab": "10068", "nom": "MALTEUROP FRANCE", "codeape": "1106Z", "cp": "62120" }, "geometry": { "type": "Point", "coordinates": [ 2.43322, 50.64418 ] } },
{ "type": "Feature", "properties": { "gml_id": "ETABLISSEMENTS_POLLUEURS.588123", "identifiant": "0007002135", "idetab": "588123", "nom": "ASS RECUP'AIRE-EI", "codeape": "3832Z", "cp": "62120" }, "geometry": { "type": "Point", "coordinates": [ 2.41985, 50.65592 ] } },
{ "type": "Feature", "properties": { "gml_id": "ETABLISSEMENTS_POLLUEURS.10118", "identifiant": "0007002000", "idetab": "10118", "nom": "IMPRIMERIE MORDACQ", "codeape": "1812Z", "cp": "62120" }, "geometry": { "type": "Point", "coordinates": [ 2.39319, 50.66228 ] } },
{ "type": "Feature", "properties": { "gml_id": "ETABLISSEMENTS_POLLUEURS.9998", "identifiant": "0007000662", "idetab": "9998", "nom": "BAUDELET", "codeape": "3811Z", "cp": "59173" }, "geometry": { "type": "Point", "coordinates": [ 2.41212, 50.6777 ] } },
{ "type": "Feature", "properties": { "gml_id": "ETABLISSEMENTS_POLLUEURS.11882", "identifiant": "0007000627", "idetab": "11882", "nom": "STE LIONOR SA", "codeape": "1012Z", "cp": "59189" }, "geometry": { "type": "Point", "coordinates": [ 2.49899, 50.67834 ] } },
{ "type": "Feature", "properties": { "gml_id": "ETABLISSEMENTS_POLLUEURS.7458", "identifiant": "59578001", "idetab": "7458", "nom": "LIONOR SA", "codeape": "1012Z", "cp": "59189" }, "geometry": { "type": "Point", "coordinates": [ 2.490959, 50.679509 ] } },
{ "type": "Feature", "properties": { "gml_id": "ETABLISSEMENTS_POLLUEURS.596994", "identifiant": "0003802188", "idetab": "596994", "nom": "TRINATURE FRANCE", "codeape": "1039A", "cp": "59173" }, "geometry": { "type": "Point", "coordinates": [ 2.4097, 50.69183 ] } },
{ "type": "Feature", "properties": { "gml_id": "ETABLISSEMENTS_POLLUEURS.3144", "identifiant": "0007001236", "idetab": "3144", "nom": "ARC INTERNATIONAL FRANCE", "codeape": "2313Z", "cp": "59173" }, "geometry": { "type": "Point", "coordinates": [ 2.385098, 50.693556 ] } },
{ "type": "Feature", "properties": { "gml_id": "ETABLISSEMENTS_POLLUEURS.3203", "identifiant": "0007002969", "idetab": "3203", "nom": "EDILIANS", "codeape": "2332Z", "cp": "62120" }, "geometry": { "type": "Point", "coordinates": [ 2.3417, 50.69495 ] } },
{ "type": "Feature", "properties": { "gml_id": "ETABLISSEMENTS_POLLUEURS.599297", "identifiant": "0055901175", "idetab": "599297", "nom": "PHILIPPE HUCHETTE", "codeape": "0147Z", "cp": "59190" }, "geometry": { "type": "Point", "coordinates": [ 2.46931, 50.70137 ] } },
{ "type": "Feature", "properties": { "gml_id": "ETABLISSEMENTS_POLLUEURS.2941", "identifiant": "0007000492", "idetab": "2941", "nom": "CARTONNERIE GONDARDENNES", "codeape": "1721A", "cp": "62120" }, "geometry": { "type": "Point", "coordinates": [ 2.35009, 50.7017 ] } },
{ "type": "Feature", "properties": { "gml_id": "ETABLISSEMENTS_POLLUEURS.590247", "identifiant": "0003800395", "idetab": "590247", "nom": "SYNDICAT MIXTE DE COLLECTE ET DE TRAITEMENT DES ORDURES MENAGERES DANS LA REGION DES FLANDRES", "codeape": "3811Z", "cp": "59190" }, "geometry": { "type": "Point", "coordinates": [ 2.54903, 50.71334 ] } },
{ "type": "Feature", "properties": { "gml_id": "ETABLISSEMENTS_POLLUEURS.589875", "identifiant": "0007006642", "idetab": "589875", "nom": "RECYNOR", "codeape": "7010Z", "cp": "59190" }, "geometry": { "type": "Point", "coordinates": [ 2.52171, 50.71581 ] } },
{ "type": "Feature", "properties": { "gml_id": "ETABLISSEMENTS_POLLUEURS.589165", "identifiant": "0007004731", "idetab": "589165", "nom": "SARL MVU", "codeape": "4511Z", "cp": "59190" }, "geometry": { "type": "Point", "coordinates": [ 2.540632, 50.716482 ] } },
{ "type": "Feature", "properties": { "gml_id": "ETABLISSEMENTS_POLLUEURS.11035", "identifiant": "0007004124", "idetab": "11035", "nom": "SMICTOM DE LA RÉGION DES FLANDRES", "codeape": "3821Z", "cp": "59190" }, "geometry": { "type": "Point", "coordinates": [ 2.533158, 50.724249 ] } },
{ "type": "Feature", "properties": { "gml_id": "ETABLISSEMENTS_POLLUEURS.589865", "identifiant": "0007004280", "idetab": "589865", "nom": "BAUDELET METAUX", "codeape": "4672Z", "cp": "59190" }, "geometry": { "type": "Point", "coordinates": [ 2.52983, 50.72485 ] } },
{ "type": "Feature", "properties": { "gml_id": "ETABLISSEMENTS_POLLUEURS.590591", "identifiant": "0007005490", "idetab": "590591", "nom": "DECHETERIE EBBLINGHEM", "codeape": "3811Z", "cp": "59173" }, "geometry": { "type": "Point", "coordinates": [ 2.408545, 50.72964 ] } },
{ "type": "Feature", "properties": { "gml_id": "ETABLISSEMENTS_POLLUEURS.13258", "identifiant": "0007003558", "idetab": "13258", "nom": "SYNDICAT MIXTE FLANDRE MORINIE", "codeape": "3811Z", "cp": "62510" }, "geometry": { "type": "Point", "coordinates": [ 2.32984, 50.73003 ] } },
{ "type": "Feature", "properties": { "gml_id": "ETABLISSEMENTS_POLLUEURS.7454", "identifiant": "59295001", "idetab": "7454", "nom": "SOCIETE D'EXPLOITATION DE LA CHAINE D'ABATTAGE HAZEBROUCK (SARL)", "codeape": "1011Z", "cp": "59190" }, "geometry": { "type": "Point", "coordinates": [ 2.543683, 50.730234 ] } },
{ "type": "Feature", "properties": { "gml_id": "ETABLISSEMENTS_POLLUEURS.590597", "identifiant": "0007006604", "idetab": "590597", "nom": "BRASSERIE GOUDALE", "codeape": "1105Z", "cp": "62510" }, "geometry": { "type": "Point", "coordinates": [ 2.32918, 50.7303 ] } },
{ "type": "Feature", "properties": { "gml_id": "ETABLISSEMENTS_POLLUEURS.11411", "identifiant": "0007004289", "idetab": "11411", "nom": "SYNDICAT MIXTE LYS AUDOMAROIS", "codeape": "8413Z", "cp": "62510" }, "geometry": { "type": "Point", "coordinates": [ 2.32678, 50.73148 ] } },
{ "type": "Feature", "properties": { "gml_id": "ETABLISSEMENTS_POLLUEURS.599238", "identifiant": "0007005918", "idetab": "599238", "nom": "AGRI FLANDRES ENERGIE", "codeape": "3511Z", "cp": "59173" }, "geometry": { "type": "Point", "coordinates": [ 2.36076, 50.73675 ] } },
{ "type": "Feature", "properties": { "gml_id": "ETABLISSEMENTS_POLLUEURS.2979", "identifiant": "0007000646", "idetab": "2979", "nom": "BONDUELLE EUROPE LONG LIFE", "codeape": "1039A", "cp": "59173" }, "geometry": { "type": "Point", "coordinates": [ 2.37337, 50.74578 ] } },
{ "type": "Feature", "properties": { "gml_id": "ETABLISSEMENTS_POLLUEURS.3918", "identifiant": "0005102588", "idetab": "3918", "nom": "LE DOMAINE PICARD", "codeape": "1013A", "cp": "80260" }, "geometry": { "type": "Point", "coordinates": [ 2.31141, 50.00446 ] } },
{ "type": "Feature", "properties": { "gml_id": "ETABLISSEMENTS_POLLUEURS.159", "identifiant": "0005102328", "idetab": "159", "nom": "PROSPA", "codeape": "2030Z", "cp": "80510" }, "geometry": { "type": "Point", "coordinates": [ 2.00094, 50.01302 ] } },
{ "type": "Feature", "properties": { "gml_id": "ETABLISSEMENTS_POLLUEURS.597909", "identifiant": "0005103632", "idetab": "597909", "nom": "NORD COMPOSITES", "codeape": "2016Z", "cp": "80890" }, "geometry": { "type": "Point", "coordinates": [ 2.02251, 50.00681 ] } },
{ "type": "Feature", "properties": { "gml_id": "ETABLISSEMENTS_POLLUEURS.151", "identifiant": "0005102201", "idetab": "151", "nom": "SAINT FRERES", "codeape": "1396Z", "cp": "80420" }, "geometry": { "type": "Point", "coordinates": [ 2.08503, 50.02004 ] } },
{ "type": "Feature", "properties": { "gml_id": "ETABLISSEMENTS_POLLUEURS.3927", "identifiant": "0005104765", "idetab": "3927", "nom": "GROUPE BIGARD", "codeape": "1011Z", "cp": "80420" }, "geometry": { "type": "Point", "coordinates": [ 2.08586, 50.00837 ] } },
{ "type": "Feature", "properties": { "gml_id": "ETABLISSEMENTS_POLLUEURS.177", "identifiant": "0005102587", "idetab": "177", "nom": "RKW SAINT FRERES EMBALLAGE", "codeape": "2221Z", "cp": "80420" }, "geometry": { "type": "Point", "coordinates": [ 2.08668, 50.0207 ] } },
{ "type": "Feature", "properties": { "gml_id": "ETABLISSEMENTS_POLLUEURS.599206", "identifiant": "0005106320", "idetab": "599206", "nom": "EIFFAGE ROUTE NORD EST", "codeape": "4211Z", "cp": "80420" }, "geometry": { "type": "Point", "coordinates": [ 2.0759, 50.02571 ] } },
{ "type": "Feature", "properties": { "gml_id": "ETABLISSEMENTS_POLLUEURS.2923", "identifiant": "0007000437", "idetab": "2923", "nom": "HAAGEN DAZS ARRAS SNC", "codeape": "1052Z", "cp": "62217" }, "geometry": { "type": "Point", "coordinates": [ 2.82895, 50.27644 ] } },
{ "type": "Feature", "properties": { "gml_id": "ETABLISSEMENTS_POLLUEURS.597304", "identifiant": "0003802474", "idetab": "597304", "nom": "CERELIA", "codeape": "1072Z", "cp": "62223" }, "geometry": { "type": "Point", "coordinates": [ 2.829822, 50.322648 ] } },
{ "type": "Feature", "properties": { "gml_id": "ETABLISSEMENTS_POLLUEURS.10093", "identifiant": "0007001704", "idetab": "10093", "nom": "SARL FRANCIS PETIT", "codeape": "4677Z", "cp": "62121" }, "geometry": { "type": "Point", "coordinates": [ 2.83008, 50.1412 ] } },
{ "type": "Feature", "properties": { "gml_id": "ETABLISSEMENTS_POLLUEURS.589158", "identifiant": "0007003919", "idetab": "589158", "nom": "VANDEMOORTELE BAKERY PRODUCTS FRANCE", "codeape": "1071A", "cp": "62223" }, "geometry": { "type": "Point", "coordinates": [ 2.83882, 50.31849 ] } },
{ "type": "Feature", "properties": { "gml_id": "ETABLISSEMENTS_POLLUEURS.11023", "identifiant": "0007003737", "idetab": "11023", "nom": "DUO EMBALLAGES ARRAS", "codeape": "7010Z", "cp": "62580" }, "geometry": { "type": "Point", "coordinates": [ 2.84275, 50.32189 ] } },
{ "type": "Feature", "properties": { "gml_id": "ETABLISSEMENTS_POLLUEURS.10176", "identifiant": "0007003096", "idetab": "10176", "nom": "DELCROIX SASU", "codeape": "2920Z", "cp": "62450" }, "geometry": { "type": "Point", "coordinates": [ 2.851348, 50.102045 ] } },
{ "type": "Feature", "properties": { "gml_id": "ETABLISSEMENTS_POLLUEURS.3050", "identifiant": "0007000864", "idetab": "3050", "nom": "TECHNIQUES LEROY", "codeape": "2561Z", "cp": "62452" }, "geometry": { "type": "Point", "coordinates": [ 2.851348, 50.102045 ] } },
{ "type": "Feature", "properties": { "gml_id": "ETABLISSEMENTS_POLLUEURS.10119", "identifiant": "0007002018", "idetab": "10119", "nom": "NEGOCE AUTO", "codeape": "4511Z", "cp": "62128" }, "geometry": { "type": "Point", "coordinates": [ 2.85583, 50.25572 ] } },
{ "type": "Feature", "properties": { "gml_id": "ETABLISSEMENTS_POLLUEURS.3145", "identifiant": "0007001286", "idetab": "3145", "nom": "AKEBONO ARRAS SA", "codeape": "2932Z", "cp": "62118" }, "geometry": { "type": "Point", "coordinates": [ 2.85667, 50.270885 ] } },
{ "type": "Feature", "properties": { "gml_id": "ETABLISSEMENTS_POLLUEURS.598072", "identifiant": "0007003016", "idetab": "598072", "nom": "ALLOGA ARRAS WANCOURT", "codeape": "4646Z", "cp": "62128" }, "geometry": { "type": "Point", "coordinates": [ 2.85831, 50.25991 ] } },
{ "type": "Feature", "properties": { "gml_id": "ETABLISSEMENTS_POLLUEURS.589161", "identifiant": "0007004376", "idetab": "589161", "nom": "DAUNAT NORD", "codeape": "1089Z", "cp": "62118" }, "geometry": { "type": "Point", "coordinates": [ 2.86716, 50.2716 ] } },
{ "type": "Feature", "properties": { "gml_id": "ETABLISSEMENTS_POLLUEURS.11408", "identifiant": "0007004120", "idetab": "11408", "nom": "SYND MIXTE ARTOIS VALORISATION", "codeape": "3811Z", "cp": "62450" }, "geometry": { "type": "Point", "coordinates": [ 2.86885, 50.09036 ] } },
{ "type": "Feature", "properties": { "gml_id": "ETABLISSEMENTS_POLLUEURS.10082", "identifiant": "0007001553", "idetab": "10082", "nom": "VANDEMOORTELE BAKERY PRODUCTS FRANCE", "codeape": "1071A", "cp": "62118" }, "geometry": { "type": "Point", "coordinates": [ 2.86985, 50.27589 ] } },
{ "type": "Feature", "properties": { "gml_id": "ETABLISSEMENTS_POLLUEURS.597491", "identifiant": "0003801057", "idetab": "597491", "nom": "SYND MIXTE ARTOIS VALORISATION", "codeape": "3811Z", "cp": "62128" }, "geometry": { "type": "Point", "coordinates": [ 2.88831, 50.20549 ] } },
{ "type": "Feature", "properties": { "gml_id": "ETABLISSEMENTS_POLLUEURS.5274", "identifiant": "0007000855", "idetab": "5274", "nom": "BONDUELLE EUROPE LONG LIFE", "codeape": "1039A", "cp": "62159" }, "geometry": { "type": "Point", "coordinates": [ 2.89134, 50.15472 ] } },
{ "type": "Feature", "properties": { "gml_id": "ETABLISSEMENTS_POLLUEURS.10038", "identifiant": "0007001095", "idetab": "10038", "nom": "ONTEX HEALTH CARE FRANCE", "codeape": "1722Z", "cp": "62118" }, "geometry": { "type": "Point", "coordinates": [ 2.892365, 50.26994 ] } },
{ "type": "Feature", "properties": { "gml_id": "ETABLISSEMENTS_POLLUEURS.596623", "identifiant": "0003800473", "idetab": "596623", "nom": "ISDI GUINTOLI SAS", "codeape": "4312B", "cp": "62156" }, "geometry": { "type": "Point", "coordinates": [ 2.937216, 50.243378 ] } },
{ "type": "Feature", "properties": { "gml_id": "ETABLISSEMENTS_POLLUEURS.7015", "identifiant": "0007000474", "idetab": "7015", "nom": "PURMO GROUP FRANCE", "codeape": "2521Z", "cp": "62118" }, "geometry": { "type": "Point", "coordinates": [ 2.94502, 50.31506 ] } },
{ "type": "Feature", "properties": { "gml_id": "ETABLISSEMENTS_POLLUEURS.10189", "identifiant": "0007003311", "idetab": "10189", "nom": "UM CORPORATION", "codeape": "2550B", "cp": "62118" }, "geometry": { "type": "Point", "coordinates": [ 2.948527, 50.314809 ] } },
{ "type": "Feature", "properties": { "gml_id": "ETABLISSEMENTS_POLLUEURS.13268", "identifiant": "0007005156", "idetab": "13268", "nom": "SYND MIXTE ARTOIS VALORISATION", "codeape": "3811Z", "cp": "62450" }, "geometry": { "type": "Point", "coordinates": [ 2.85477, 50.10778 ] } },
{ "type": "Feature", "properties": { "gml_id": "ETABLISSEMENTS_POLLUEURS.598617", "identifiant": "0007006493", "idetab": "598617", "nom": "PORKETTO BY JB VIANDE", "codeape": "1011Z", "cp": "62128" }, "geometry": { "type": "Point", "coordinates": [ 2.86067, 50.26781 ] } },
{ "type": "Feature", "properties": { "gml_id": "ETABLISSEMENTS_POLLUEURS.9384", "identifiant": "0028200002", "idetab": "9384", "nom": "ILD", "codeape": "1812Z", "cp": "62128" }, "geometry": { "type": "Point", "coordinates": [ 2.86569, 50.24847 ] } },
{ "type": "Feature", "properties": { "gml_id": "ETABLISSEMENTS_POLLUEURS.10375", "identifiant": "0028200020", "idetab": "10375", "nom": "IMPRIMERIE LÉONCE DEPREZ", "codeape": "1812Z", "cp": "62128" }, "geometry": { "type": "Point", "coordinates": [ 2.871793, 50.2472 ] } },
{ "type": "Feature", "properties": { "gml_id": "ETABLISSEMENTS_POLLUEURS.598263", "identifiant": "0056200158", "idetab": "598263", "nom": "INTEROVO AVICOLES FRANCE", "codeape": "0147Z", "cp": "62450" }, "geometry": { "type": "Point", "coordinates": [ 2.86641, 50.10786 ] } },
{ "type": "Feature", "properties": { "gml_id": "ETABLISSEMENTS_POLLUEURS.598702", "identifiant": "0056200159", "idetab": "598702", "nom": "ATEMAX FRANCE", "codeape": "3821Z", "cp": "62450" }, "geometry": { "type": "Point", "coordinates": [ 2.855372, 50.09247 ] } },
{ "type": "Feature", "properties": { "gml_id": "ETABLISSEMENTS_POLLUEURS.598417", "identifiant": "0056200672", "idetab": "598417", "nom": "GROUPEMENT AGRICOLE D'EXPLOITATION EN COMMUN BARBET MADININA", "codeape": "0111Z", "cp": "62223" }, "geometry": { "type": "Point", "coordinates": [ 2.85199, 50.28829 ] } },
{ "type": "Feature", "properties": { "gml_id": "ETABLISSEMENTS_POLLUEURS.598216", "identifiant": "0056200792", "idetab": "598216", "nom": "LES AUBEPINES", "codeape": "0147Z", "cp": "62450" }, "geometry": { "type": "Point", "coordinates": [ 2.80275, 50.10277 ] } },
{ "type": "Feature", "properties": { "gml_id": "ETABLISSEMENTS_POLLUEURS.598217", "identifiant": "0056202073", "idetab": "598217", "nom": "LES AUBEPINES", "codeape": "0147Z", "cp": "62450" }, "geometry": { "type": "Point", "coordinates": [ 2.97303, 50.12445 ] } },
{ "type": "Feature", "properties": { "gml_id": "ETABLISSEMENTS_POLLUEURS.9531", "identifiant": "0076275300", "idetab": "9531", "nom": "STEP - ARRAS (ST LAURENT BLANGY)", "codeape": "3700Z", "cp": "62223" }, "geometry": { "type": "Point", "coordinates": [ 2.813826, 50.294737 ] } },
{ "type": "Feature", "properties": { "gml_id": "ETABLISSEMENTS_POLLUEURS.5774", "identifiant": "62080023", "idetab": "5774", "nom": "INTEROVO AVICOLE FRANCE", "codeape": "0147Z", "cp": "62450" }, "geometry": { "type": "Point", "coordinates": [ 2.857108, 50.110221 ] } },
{ "type": "Feature", "properties": { "gml_id": "ETABLISSEMENTS_POLLUEURS.7462", "identifiant": "62405012", "idetab": "7462", "nom": "TRANNIN", "codeape": "0146Z", "cp": "62118" }, "geometry": { "type": "Point", "coordinates": [ 2.967234, 50.302528 ] } },
{ "type": "Feature", "properties": { "gml_id": "ETABLISSEMENTS_POLLUEURS.11414", "identifiant": "0007004688", "idetab": "11414", "nom": "SUEZ ORGANIQUE", "codeape": "3821Z", "cp": "62158" }, "geometry": { "type": "Point", "coordinates": [ 2.55658, 50.21266 ] } },
{ "type": "Feature", "properties": { "gml_id": "ETABLISSEMENTS_POLLUEURS.598547", "identifiant": "0003802193", "idetab": "598547", "nom": "BIOGY", "codeape": "3521Z", "cp": "62161" }, "geometry": { "type": "Point", "coordinates": [ 2.68403, 50.31657 ] } },
{ "type": "Feature", "properties": { "gml_id": "ETABLISSEMENTS_POLLUEURS.9979", "identifiant": "0007000524", "idetab": "9979", "nom": "DUWIC SAS", "codeape": "2511Z", "cp": "62161" }, "geometry": { "type": "Point", "coordinates": [ 2.70417, 50.305693 ] } },
{ "type": "Feature", "properties": { "gml_id": "ETABLISSEMENTS_POLLUEURS.10010", "identifiant": "0007000793", "idetab": "10010", "nom": "MÄDER COLORS - ETABLISSEMENT DE MAROEUIL", "codeape": "2030Z", "cp": "62161" }, "geometry": { "type": "Point", "coordinates": [ 2.704398, 50.323423 ] } },
{ "type": "Feature", "properties": { "gml_id": "ETABLISSEMENTS_POLLUEURS.9225", "identifiant": "0007001041", "idetab": "9225", "nom": "LAFLUTTE", "codeape": "4941C", "cp": "62000" }, "geometry": { "type": "Point", "coordinates": [ 2.7155, 50.26985 ] } },
{ "type": "Feature", "properties": { "gml_id": "ETABLISSEMENTS_POLLUEURS.13661", "identifiant": "0007001632", "idetab": "13661", "nom": "DETOEUF RECYCLAGE", "codeape": "3831Z", "cp": "62000" }, "geometry": { "type": "Point", "coordinates": [ 2.717586, 50.282371 ] } },
{ "type": "Feature", "properties": { "gml_id": "ETABLISSEMENTS_POLLUEURS.13675", "identifiant": "0007003917", "idetab": "13675", "nom": "AUCHAN HYPERMARCHE", "codeape": "4711F", "cp": "62000" }, "geometry": { "type": "Point", "coordinates": [ 2.72823, 50.29993 ] } },
{ "type": "Feature", "properties": { "gml_id": "ETABLISSEMENTS_POLLUEURS.3118", "identifiant": "0007001092", "idetab": "3118", "nom": "PLASTIENVASE FRANCIA", "codeape": "2221Z", "cp": "62002" }, "geometry": { "type": "Point", "coordinates": [ 2.73751, 50.2988 ] } },
{ "type": "Feature", "properties": { "gml_id": "ETABLISSEMENTS_POLLUEURS.3022", "identifiant": "0007000759", "idetab": "3022", "nom": "PRIMAGAZ", "codeape": "4671Z", "cp": "62000" }, "geometry": { "type": "Point", "coordinates": [ 2.73983, 50.28751 ] } },
{ "type": "Feature", "properties": { "gml_id": "ETABLISSEMENTS_POLLUEURS.3107", "identifiant": "0007001051", "idetab": "3107", "nom": "TEREOS FRANCE", "codeape": "1081Z", "cp": "62175" }, "geometry": { "type": "Point", "coordinates": [ 2.74345, 50.19668 ] } },
{ "type": "Feature", "properties": { "gml_id": "ETABLISSEMENTS_POLLUEURS.3151", "identifiant": "0007001494", "idetab": "3151", "nom": "COGESTAR", "codeape": "3511Z", "cp": "62000" }, "geometry": { "type": "Point", "coordinates": [ 2.74935, 50.29841 ] } },
{ "type": "Feature", "properties": { "gml_id": "ETABLISSEMENTS_POLLUEURS.3081", "identifiant": "0007000966", "idetab": "3081", "nom": "FTS", "codeape": "285A", "cp": "62000" }, "geometry": { "type": "Point", "coordinates": [ 2.76029, 50.289115 ] } },
{ "type": "Feature", "properties": { "gml_id": "ETABLISSEMENTS_POLLUEURS.12435", "identifiant": "0007000572", "idetab": "12435", "nom": "CENTRE HOSPITALEIR", "codeape": "8610Z", "cp": "62022" }, "geometry": { "type": "Point", "coordinates": [ 2.76029, 50.289115 ] } },
{ "type": "Feature", "properties": { "gml_id": "ETABLISSEMENTS_POLLUEURS.3175", "identifiant": "0007002299", "idetab": "3175", "nom": "SA SOUP'IDEALE", "codeape": "1089Z", "cp": "62060" }, "geometry": { "type": "Point", "coordinates": [ 2.76642, 50.28992 ] } },
{ "type": "Feature", "properties": { "gml_id": "ETABLISSEMENTS_POLLUEURS.2982", "identifiant": "0007000656", "idetab": "2982", "nom": "TEREOS FRANCE", "codeape": "1081Z", "cp": "62175" }, "geometry": { "type": "Point", "coordinates": [ 2.76763, 50.20943 ] } },
{ "type": "Feature", "properties": { "gml_id": "ETABLISSEMENTS_POLLUEURS.13250", "identifiant": "0007001871", "idetab": "13250", "nom": "KNAUF INDUSTRIES NORD", "codeape": "2222Z", "cp": "62028" }, "geometry": { "type": "Point", "coordinates": [ 2.77855, 50.28837 ] } },
{ "type": "Feature", "properties": { "gml_id": "ETABLISSEMENTS_POLLUEURS.10000", "identifiant": "0007000712", "idetab": "10000", "nom": "INVEHO UAB", "codeape": "3020Z", "cp": "62121" }, "geometry": { "type": "Point", "coordinates": [ 2.78229, 50.12915 ] } },
{ "type": "Feature", "properties": { "gml_id": "ETABLISSEMENTS_POLLUEURS.11036", "identifiant": "0007004125", "idetab": "11036", "nom": "SYND MIXTE ARTOIS VALORISATION", "codeape": "3811Z", "cp": "62051" }, "geometry": { "type": "Point", "coordinates": [ 2.78989, 50.29603 ] } },
{ "type": "Feature", "properties": { "gml_id": "ETABLISSEMENTS_POLLUEURS.589159", "identifiant": "0007004126", "idetab": "589159", "nom": "SYND MIXTE ARTOIS VALORISATION", "codeape": "3811Z", "cp": "62223" }, "geometry": { "type": "Point", "coordinates": [ 2.78989, 50.29603 ] } },
{ "type": "Feature", "properties": { "gml_id": "ETABLISSEMENTS_POLLUEURS.2932", "identifiant": "0007000467", "idetab": "2932", "nom": "FONDERIE DE LA SCARPE SA", "codeape": "2451Z", "cp": "62051" }, "geometry": { "type": "Point", "coordinates": [ 2.79768, 50.29413 ] } },
{ "type": "Feature", "properties": { "gml_id": "ETABLISSEMENTS_POLLUEURS.3031", "identifiant": "0007000797", "idetab": "3031", "nom": "SOCIETE INDUSTRIELLE DES OLEAGINEUX", "codeape": "1041B", "cp": "62051" }, "geometry": { "type": "Point", "coordinates": [ 2.79933, 50.29698 ] } },
{ "type": "Feature", "properties": { "gml_id": "ETABLISSEMENTS_POLLUEURS.2937", "identifiant": "0007000483", "idetab": "2937", "nom": "ARKEMA FRANCE", "codeape": "2014Z", "cp": "62051" }, "geometry": { "type": "Point", "coordinates": [ 2.80106, 50.30257 ] } },