{
"type": "FeatureCollection",
"name": "ms:ETABLISSEMENTS_POLLUEURS",
"crs": { "type": "name", "properties": { "name": "urn:ogc:def:crs:OGC:1.3:CRS84" } },
"features": [
{ "type": "Feature", "properties": { "gml_id": "ETABLISSEMENTS_POLLUEURS.7901", "identifiant": "0006104784", "idetab": "7901", "nom": "PARK AUTOS", "codeape": "4677Z", "cp": "38360" }, "geometry": { "type": "Point", "coordinates": [ 5.62912, 45.25418 ] } },
{ "type": "Feature", "properties": { "gml_id": "ETABLISSEMENTS_POLLUEURS.12285", "identifiant": "0006102934", "idetab": "12285", "nom": "SAS ABAG", "codeape": "1011Z", "cp": "38120" }, "geometry": { "type": "Point", "coordinates": [ 5.66456, 45.255799 ] } },
{ "type": "Feature", "properties": { "gml_id": "ETABLISSEMENTS_POLLUEURS.590205", "identifiant": "0006114531", "idetab": "590205", "nom": "GCIA", "codeape": "0812Z", "cp": "38120" }, "geometry": { "type": "Point", "coordinates": [ 5.66456, 45.255799 ] } },
{ "type": "Feature", "properties": { "gml_id": "ETABLISSEMENTS_POLLUEURS.11672", "identifiant": "0006108142", "idetab": "11672", "nom": "ALFA LAVAL VICARB SAS", "codeape": "2825Z", "cp": "38120" }, "geometry": { "type": "Point", "coordinates": [ 5.66456, 45.255799 ] } },
{ "type": "Feature", "properties": { "gml_id": "ETABLISSEMENTS_POLLUEURS.11671", "identifiant": "0006108002", "idetab": "11671", "nom": "STE DAUPHINOISE D ASSAINISSEMENT", "codeape": "3700Z", "cp": "38120" }, "geometry": { "type": "Point", "coordinates": [ 5.65985, 45.2586 ] } },
{ "type": "Feature", "properties": { "gml_id": "ETABLISSEMENTS_POLLUEURS.4406", "identifiant": "0006102502", "idetab": "4406", "nom": "TMD - GALVANOPLAST", "codeape": "2561Z", "cp": "26300" }, "geometry": { "type": "Point", "coordinates": [ 5.037417, 45.016535 ] } },
{ "type": "Feature", "properties": { "gml_id": "ETABLISSEMENTS_POLLUEURS.592651", "identifiant": "0006107952", "idetab": "592651", "nom": "PODIS", "codeape": "1071A", "cp": "26300" }, "geometry": { "type": "Point", "coordinates": [ 5.03984, 45.01966 ] } },
{ "type": "Feature", "properties": { "gml_id": "ETABLISSEMENTS_POLLUEURS.587880", "identifiant": "0006103170", "idetab": "587880", "nom": "SDMS", "codeape": "2511Z", "cp": "38160" }, "geometry": { "type": "Point", "coordinates": [ 5.31978, 45.11371 ] } },
{ "type": "Feature", "properties": { "gml_id": "ETABLISSEMENTS_POLLUEURS.14095", "identifiant": "0006101092", "idetab": "14095", "nom": "BUDILLON RABATEL SA", "codeape": "0812Z", "cp": "38840" }, "geometry": { "type": "Point", "coordinates": [ 5.27833, 45.11729 ] } },
{ "type": "Feature", "properties": { "gml_id": "ETABLISSEMENTS_POLLUEURS.1377", "identifiant": "0006102863", "idetab": "1377", "nom": "BOURBON AUTOMOTIVE PLASTICS SAINT MARCELLIN - BOURBON AP SAINT MARCELLIN", "codeape": "2932Z", "cp": "38160" }, "geometry": { "type": "Point", "coordinates": [ 5.30026, 45.14116 ] } },
{ "type": "Feature", "properties": { "gml_id": "ETABLISSEMENTS_POLLUEURS.1437", "identifiant": "0006103136", "idetab": "1437", "nom": "BOURBON AUTOMOTIVE PLASTICS - SITE DE SAINT MARCELLIN", "codeape": "2229A", "cp": "38160" }, "geometry": { "type": "Point", "coordinates": [ 5.323156, 45.153627 ] } },
{ "type": "Feature", "properties": { "gml_id": "ETABLISSEMENTS_POLLUEURS.6602", "identifiant": "0006104524", "idetab": "6602", "nom": "SAS AIRPORC / ELEVAGE TECHE", "codeape": "0146Z", "cp": "38470" }, "geometry": { "type": "Point", "coordinates": [ 5.378572, 45.181236 ] } },
{ "type": "Feature", "properties": { "gml_id": "ETABLISSEMENTS_POLLUEURS.590408", "identifiant": "0006100960", "idetab": "590408", "nom": "CARRIERES ET CHAUX BALTHAZARD ET COTTE", "codeape": "2352Z", "cp": "38210" }, "geometry": { "type": "Point", "coordinates": [ 5.47029, 45.25659 ] } },
{ "type": "Feature", "properties": { "gml_id": "ETABLISSEMENTS_POLLUEURS.1441", "identifiant": "0006103167", "idetab": "1441", "nom": "LELY ENVIRONNEMENT", "codeape": "3811Z", "cp": "38210" }, "geometry": { "type": "Point", "coordinates": [ 5.53261, 45.2686 ] } },
{ "type": "Feature", "properties": { "gml_id": "ETABLISSEMENTS_POLLUEURS.4443", "identifiant": "0006103174", "idetab": "4443", "nom": "SCHAEFFLER CHAIN DRIVE SYSTEMS", "codeape": "2815Z", "cp": "38870" }, "geometry": { "type": "Point", "coordinates": [ 5.260123, 45.328411 ] } },
{ "type": "Feature", "properties": { "gml_id": "ETABLISSEMENTS_POLLUEURS.1403", "identifiant": "0006102988", "idetab": "1403", "nom": "TREDI", "codeape": "3822Z", "cp": "38140" }, "geometry": { "type": "Point", "coordinates": [ 5.423981, 45.334821 ] } },
{ "type": "Feature", "properties": { "gml_id": "ETABLISSEMENTS_POLLUEURS.598613", "identifiant": "0003203264", "idetab": "598613", "nom": "AGRI METHABIEVRE", "codeape": "7010Z", "cp": "38590" }, "geometry": { "type": "Point", "coordinates": [ 5.34526, 45.3391 ] } },
{ "type": "Feature", "properties": { "gml_id": "ETABLISSEMENTS_POLLUEURS.1406", "identifiant": "0006103001", "idetab": "1406", "nom": "FRANCE ALU COLOR", "codeape": "2561Z", "cp": "38260" }, "geometry": { "type": "Point", "coordinates": [ 5.19639, 45.34227 ] } },
{ "type": "Feature", "properties": { "gml_id": "ETABLISSEMENTS_POLLUEURS.6579", "identifiant": "0006102985", "idetab": "6579", "nom": "ARC EN CIEL RECYCLAGE", "codeape": "3832Z", "cp": "38140" }, "geometry": { "type": "Point", "coordinates": [ 5.42715, 45.34358 ] } },
{ "type": "Feature", "properties": { "gml_id": "ETABLISSEMENTS_POLLUEURS.14092", "identifiant": "0006100900", "idetab": "14092", "nom": "BUDILLON RABATEL SA", "codeape": "0812Z", "cp": "38140" }, "geometry": { "type": "Point", "coordinates": [ 5.43818, 45.34525 ] } },
{ "type": "Feature", "properties": { "gml_id": "ETABLISSEMENTS_POLLUEURS.598374", "identifiant": "0003201363", "idetab": "598374", "nom": "EARL BOUSSARD", "codeape": "0147Z", "cp": "38270" }, "geometry": { "type": "Point", "coordinates": [ 5.08139, 45.3465 ] } },
{ "type": "Feature", "properties": { "gml_id": "ETABLISSEMENTS_POLLUEURS.1422", "identifiant": "0006103075", "idetab": "1422", "nom": "USINE DE RIVES", "codeape": "1712Z", "cp": "38140" }, "geometry": { "type": "Point", "coordinates": [ 5.500148, 45.34979 ] } },
{ "type": "Feature", "properties": { "gml_id": "ETABLISSEMENTS_POLLUEURS.594623", "identifiant": "0006100884", "idetab": "594623", "nom": "ENTREPRISE GACHET", "codeape": "0812Z", "cp": "38260" }, "geometry": { "type": "Point", "coordinates": [ 5.28878, 45.35803 ] } },
{ "type": "Feature", "properties": { "gml_id": "ETABLISSEMENTS_POLLUEURS.14094", "identifiant": "0006101090", "idetab": "14094", "nom": "LAFARGE GRANULATS", "codeape": "0812Z", "cp": "38590" }, "geometry": { "type": "Point", "coordinates": [ 5.41027, 45.35901 ] } },
{ "type": "Feature", "properties": { "gml_id": "ETABLISSEMENTS_POLLUEURS.1423", "identifiant": "0006103078", "idetab": "1423", "nom": "ACIERIES ET LAMINOIRS DE RIVES", "codeape": "2410Z", "cp": "38140" }, "geometry": { "type": "Point", "coordinates": [ 5.490801, 45.362855 ] } },
{ "type": "Feature", "properties": { "gml_id": "ETABLISSEMENTS_POLLUEURS.589660", "identifiant": "0006100956", "idetab": "589660", "nom": "BUDILLON RABATEL SA", "codeape": "0812Z", "cp": "38260" }, "geometry": { "type": "Point", "coordinates": [ 5.18516, 45.36461 ] } },
{ "type": "Feature", "properties": { "gml_id": "ETABLISSEMENTS_POLLUEURS.588733", "identifiant": "0006100821", "idetab": "588733", "nom": "SOCIETE DES CARRIERS DE BEVENAIS", "codeape": "0812Z", "cp": "38690" }, "geometry": { "type": "Point", "coordinates": [ 5.40784, 45.37527 ] } },
{ "type": "Feature", "properties": { "gml_id": "ETABLISSEMENTS_POLLUEURS.1391", "identifiant": "0006102925", "idetab": "1391", "nom": "GILIBERT INDUSTRIES", "codeape": "2830Z", "cp": "38260" }, "geometry": { "type": "Point", "coordinates": [ 5.162564, 45.394337 ] } },
{ "type": "Feature", "properties": { "gml_id": "ETABLISSEMENTS_POLLUEURS.1396", "identifiant": "0006102944", "idetab": "1396", "nom": "SOC IMPRESSION ETOFFES DU GRAND LEMPS", "codeape": "1812Z", "cp": "38690" }, "geometry": { "type": "Point", "coordinates": [ 5.42157, 45.40741 ] } },
{ "type": "Feature", "properties": { "gml_id": "ETABLISSEMENTS_POLLUEURS.1373", "identifiant": "0006102850", "idetab": "1373", "nom": "FREGATA HYGIENE", "codeape": "1712Z", "cp": "38850" }, "geometry": { "type": "Point", "coordinates": [ 5.53188, 45.41143 ] } },
{ "type": "Feature", "properties": { "gml_id": "ETABLISSEMENTS_POLLUEURS.4436", "identifiant": "0006103030", "idetab": "4436", "nom": "ALUTEC", "codeape": "2453Z", "cp": "38260" }, "geometry": { "type": "Point", "coordinates": [ 5.270517, 45.434599 ] } },
{ "type": "Feature", "properties": { "gml_id": "ETABLISSEMENTS_POLLUEURS.6620", "identifiant": "0006107319", "idetab": "6620", "nom": "VALCREST", "codeape": "155C", "cp": "38470" }, "geometry": { "type": "Point", "coordinates": [ 5.402129, 45.20999 ] } },
{ "type": "Feature", "properties": { "gml_id": "ETABLISSEMENTS_POLLUEURS.591456", "identifiant": "0006107841", "idetab": "591456", "nom": "SOCIETE FROMAGERE DE SAINT JUST", "codeape": "1051C", "cp": "38680" }, "geometry": { "type": "Point", "coordinates": [ 5.27735, 45.09011 ] } },
{ "type": "Feature", "properties": { "gml_id": "ETABLISSEMENTS_POLLUEURS.587926", "identifiant": "0006114468", "idetab": "587926", "nom": "ISDI COMMUNAUTE DE COMMUNES BIEVRE EST", "codeape": "8411Z", "cp": "38690" }, "geometry": { "type": "Point", "coordinates": [ 5.42548, 45.442788 ] } },
{ "type": "Feature", "properties": { "gml_id": "ETABLISSEMENTS_POLLUEURS.1356", "identifiant": "0006102753", "idetab": "1356", "nom": "STORENGY FRANCE", "codeape": "5210B", "cp": "26390" }, "geometry": { "type": "Point", "coordinates": [ 5.00549, 45.20804 ] } },
{ "type": "Feature", "properties": { "gml_id": "ETABLISSEMENTS_POLLUEURS.4413", "identifiant": "0006102695", "idetab": "4413", "nom": "TANNERIES ROUX SA", "codeape": "1511Z", "cp": "26100" }, "geometry": { "type": "Point", "coordinates": [ 5.03856, 45.04902 ] } },
{ "type": "Feature", "properties": { "gml_id": "ETABLISSEMENTS_POLLUEURS.1363", "identifiant": "0006102810", "idetab": "1363", "nom": "COPAL", "codeape": "2442Z", "cp": "38270" }, "geometry": { "type": "Point", "coordinates": [ 5.05917, 45.3302 ] } },
{ "type": "Feature", "properties": { "gml_id": "ETABLISSEMENTS_POLLUEURS.591890", "identifiant": "0006106986", "idetab": "591890", "nom": "OXYANE", "codeape": "4621Z", "cp": "38270" }, "geometry": { "type": "Point", "coordinates": [ 5.0604, 45.33231 ] } },
{ "type": "Feature", "properties": { "gml_id": "ETABLISSEMENTS_POLLUEURS.1364", "identifiant": "0006102813", "idetab": "1364", "nom": "TRIVIUM ALUMINIUM PACKAGING FRANCE", "codeape": "2592Z", "cp": "38270" }, "geometry": { "type": "Point", "coordinates": [ 5.0609, 45.3307 ] } },
{ "type": "Feature", "properties": { "gml_id": "ETABLISSEMENTS_POLLUEURS.591448", "identifiant": "0006102485", "idetab": "591448", "nom": "SOCIETE D'ETUDES ET DE REALISATIONS THERMIQUES", "codeape": "2920Z", "cp": "26100" }, "geometry": { "type": "Point", "coordinates": [ 5.09005, 45.04995 ] } },
{ "type": "Feature", "properties": { "gml_id": "ETABLISSEMENTS_POLLUEURS.4551", "identifiant": "0006106990", "idetab": "4551", "nom": "ONYX AUVERGNE RHONE ALPES", "codeape": "3811Z", "cp": "26300" }, "geometry": { "type": "Point", "coordinates": [ 5.11812, 45.0309 ] } },
{ "type": "Feature", "properties": { "gml_id": "ETABLISSEMENTS_POLLUEURS.597750", "identifiant": "0003201220", "idetab": "597750", "nom": "EARL D'OCTAVEON", "codeape": "0111Z", "cp": "26750" }, "geometry": { "type": "Point", "coordinates": [ 5.11975, 45.07536 ] } },
{ "type": "Feature", "properties": { "gml_id": "ETABLISSEMENTS_POLLUEURS.1713", "identifiant": "0006107004", "idetab": "1713", "nom": "COURBIS SMART POLYMERS", "codeape": "2229A", "cp": "26100" }, "geometry": { "type": "Point", "coordinates": [ 5.08515, 45.04845 ] } },
{ "type": "Feature", "properties": { "gml_id": "ETABLISSEMENTS_POLLUEURS.594496", "identifiant": "0006107835", "idetab": "594496", "nom": "STORENGY FRANCE", "codeape": "5210B", "cp": "26390" }, "geometry": { "type": "Point", "coordinates": [ 5.04776, 45.24659 ] } },
{ "type": "Feature", "properties": { "gml_id": "ETABLISSEMENTS_POLLUEURS.12921", "identifiant": "0006112235", "idetab": "12921", "nom": "EXSTO", "codeape": "2229A", "cp": "26100" }, "geometry": { "type": "Point", "coordinates": [ 5.09704, 45.05341 ] } },
{ "type": "Feature", "properties": { "gml_id": "ETABLISSEMENTS_POLLUEURS.588792", "identifiant": "0006114605", "idetab": "588792", "nom": "NEGOMETAL ISDI (EX SARL VESCOVI JB TP)", "codeape": "3832Z", "cp": "26300" }, "geometry": { "type": "Point", "coordinates": [ 5.1441, 45.047416 ] } },
{ "type": "Feature", "properties": { "gml_id": "ETABLISSEMENTS_POLLUEURS.4428", "identifiant": "0006102911", "idetab": "4428", "nom": "CATERPILLAR FRANCE SAS", "codeape": "2892Z", "cp": "38130" }, "geometry": { "type": "Point", "coordinates": [ 5.70687, 45.1454 ] } },
{ "type": "Feature", "properties": { "gml_id": "ETABLISSEMENTS_POLLUEURS.1390", "identifiant": "0006102923", "idetab": "1390", "nom": "COMPAGNIE DE CHAUFFAGE INTERCOMMUNALE DE L'AGGLOMERATION GRENOBLOISE CC", "codeape": "3530Z", "cp": "38320" }, "geometry": { "type": "Point", "coordinates": [ 5.73586, 45.1533 ] } },
{ "type": "Feature", "properties": { "gml_id": "ETABLISSEMENTS_POLLUEURS.4432", "identifiant": "0006102968", "idetab": "4432", "nom": "CATERPILLAR FRANCE SAS", "codeape": "2892Z", "cp": "38100" }, "geometry": { "type": "Point", "coordinates": [ 5.71832, 45.16711 ] } },
{ "type": "Feature", "properties": { "gml_id": "ETABLISSEMENTS_POLLUEURS.1399", "identifiant": "0006102957", "idetab": "1399", "nom": "COMPAGNIE DE CHAUFFAGE INTERCOMMUNALE DE L'AGGLOMERATION GRENOBLOISE CC", "codeape": "3530Z", "cp": "38100" }, "geometry": { "type": "Point", "coordinates": [ 5.75137, 45.17312 ] } },
{ "type": "Feature", "properties": { "gml_id": "ETABLISSEMENTS_POLLUEURS.1400", "identifiant": "0006102962", "idetab": "1400", "nom": "UMICORE SPECIALTY POWDERS FRANCE", "codeape": "2445Z", "cp": "38100" }, "geometry": { "type": "Point", "coordinates": [ 5.70409, 45.17394 ] } },
{ "type": "Feature", "properties": { "gml_id": "ETABLISSEMENTS_POLLUEURS.587879", "identifiant": "0006103143", "idetab": "587879", "nom": "PURFER", "codeape": "3832Z", "cp": "38400" }, "geometry": { "type": "Point", "coordinates": [ 5.77749, 45.18421 ] } },
{ "type": "Feature", "properties": { "gml_id": "ETABLISSEMENTS_POLLUEURS.1397", "identifiant": "0006102945", "idetab": "1397", "nom": "SIEMENS SAS GRENOBLE", "codeape": "2712Z", "cp": "38004" }, "geometry": { "type": "Point", "coordinates": [ 5.731414, 45.185411 ] } },
{ "type": "Feature", "properties": { "gml_id": "ETABLISSEMENTS_POLLUEURS.4433", "identifiant": "0006102972", "idetab": "4433", "nom": "USINE H", "codeape": "286D", "cp": "38050" }, "geometry": { "type": "Point", "coordinates": [ 5.731414, 45.185411 ] } },
{ "type": "Feature", "properties": { "gml_id": "ETABLISSEMENTS_POLLUEURS.9750", "identifiant": "0006102971", "idetab": "9750", "nom": "SCHNEIDER ELECTRIC 38TEC", "codeape": "2712Z", "cp": "38000" }, "geometry": { "type": "Point", "coordinates": [ 5.731414, 45.185411 ] } },
{ "type": "Feature", "properties": { "gml_id": "ETABLISSEMENTS_POLLUEURS.1401", "identifiant": "0006102963", "idetab": "1401", "nom": "A.RAYMOND", "codeape": "2229A", "cp": "38019" }, "geometry": { "type": "Point", "coordinates": [ 5.731414, 45.185411 ] } },
{ "type": "Feature", "properties": { "gml_id": "ETABLISSEMENTS_POLLUEURS.6577", "identifiant": "0006102961", "idetab": "6577", "nom": "GE FRANCE ETB GRENOBLE", "codeape": "2811Z", "cp": "38041" }, "geometry": { "type": "Point", "coordinates": [ 5.731414, 45.185411 ] } },
{ "type": "Feature", "properties": { "gml_id": "ETABLISSEMENTS_POLLUEURS.1402", "identifiant": "0006102970", "idetab": "1402", "nom": "COMPAGNIE DE CHAUFFAGE INTERCOMMUNALE DE L'AGGLOMERATION GRENOBLOISE CC", "codeape": "3530Z", "cp": "38000" }, "geometry": { "type": "Point", "coordinates": [ 5.72347, 45.1865 ] } },
{ "type": "Feature", "properties": { "gml_id": "ETABLISSEMENTS_POLLUEURS.591450", "identifiant": "0006103029", "idetab": "591450", "nom": "METROPOLE GRENOBLE-ALPES-METROPOLE (METRO)", "codeape": "8411Z", "cp": "38420" }, "geometry": { "type": "Point", "coordinates": [ 5.81411, 45.18893 ] } },
{ "type": "Feature", "properties": { "gml_id": "ETABLISSEMENTS_POLLUEURS.4430", "identifiant": "0006102955", "idetab": "4430", "nom": "HYPERION MATERIALS & TECHNOLOGIES (FRANCE) S.A.S", "codeape": "2445Z", "cp": "38000" }, "geometry": { "type": "Point", "coordinates": [ 5.71629, 45.19068 ] } },
{ "type": "Feature", "properties": { "gml_id": "ETABLISSEMENTS_POLLUEURS.598932", "identifiant": "0006102897", "idetab": "598932", "nom": "ARC EN CIEL RECYCLAGE", "codeape": "3832Z", "cp": "38420" }, "geometry": { "type": "Point", "coordinates": [ 5.82476, 45.19976 ] } },
{ "type": "Feature", "properties": { "gml_id": "ETABLISSEMENTS_POLLUEURS.587877", "identifiant": "0006102903", "idetab": "587877", "nom": "PURFER", "codeape": "3832Z", "cp": "38420" }, "geometry": { "type": "Point", "coordinates": [ 5.82188, 45.19998 ] } },
{ "type": "Feature", "properties": { "gml_id": "ETABLISSEMENTS_POLLUEURS.1385", "identifiant": "0006102893", "idetab": "1385", "nom": "IMPACT ENVIRONNEMENT SERVICES", "codeape": "3812Z", "cp": "38420" }, "geometry": { "type": "Point", "coordinates": [ 5.82188, 45.19998 ] } },
{ "type": "Feature", "properties": { "gml_id": "ETABLISSEMENTS_POLLUEURS.1388", "identifiant": "0006102900", "idetab": "1388", "nom": "PAPETERIES DES ALPES", "codeape": "211C", "cp": "38420" }, "geometry": { "type": "Point", "coordinates": [ 5.83674, 45.199989 ] } },
{ "type": "Feature", "properties": { "gml_id": "ETABLISSEMENTS_POLLUEURS.1387", "identifiant": "0006102899", "idetab": "1387", "nom": "PAPETERIES DE LA GORGE", "codeape": "211C", "cp": "38420" }, "geometry": { "type": "Point", "coordinates": [ 5.83674, 45.199989 ] } },
{ "type": "Feature", "properties": { "gml_id": "ETABLISSEMENTS_POLLUEURS.1386", "identifiant": "0006102894", "idetab": "1386", "nom": "RECUPYL S.A", "codeape": "7112B", "cp": "38420" }, "geometry": { "type": "Point", "coordinates": [ 5.83674, 45.199989 ] } },
{ "type": "Feature", "properties": { "gml_id": "ETABLISSEMENTS_POLLUEURS.598895", "identifiant": "0003205137", "idetab": "598895", "nom": "VERKOR", "codeape": "2720Z", "cp": "38000" }, "geometry": { "type": "Point", "coordinates": [ 5.71028, 45.20061 ] } },
{ "type": "Feature", "properties": { "gml_id": "ETABLISSEMENTS_POLLUEURS.4431", "identifiant": "0006102965", "idetab": "4431", "nom": "COMMISSARIAT A L' ENERGIE ATOMIQUE ET AUX ENERGIES ALTERNATIVES", "codeape": "7219Z", "cp": "38000" }, "geometry": { "type": "Point", "coordinates": [ 5.7029, 45.20394 ] } },
{ "type": "Feature", "properties": { "gml_id": "ETABLISSEMENTS_POLLUEURS.597063", "identifiant": "0003201516", "idetab": "597063", "nom": "COMPAGNIE DE CHAUFFAGE INTERCOMMUNALE DE L'AGGLOMERATION GRENOBLOISE CC", "codeape": "3530Z", "cp": "38000" }, "geometry": { "type": "Point", "coordinates": [ 5.7029, 45.20394 ] } },
{ "type": "Feature", "properties": { "gml_id": "ETABLISSEMENTS_POLLUEURS.1383", "identifiant": "0006102886", "idetab": "1383", "nom": "NALCO FRANCE SAS", "codeape": "2059Z", "cp": "38920" }, "geometry": { "type": "Point", "coordinates": [ 5.88504, 45.204202 ] } },
{ "type": "Feature", "properties": { "gml_id": "ETABLISSEMENTS_POLLUEURS.597965", "identifiant": "0006102949", "idetab": "597965", "nom": "STMICROELECTRONICS (GRENOBLE 2) SAS", "codeape": "7219Z", "cp": "38000" }, "geometry": { "type": "Point", "coordinates": [ 5.69922, 45.20528 ] } },
{ "type": "Feature", "properties": { "gml_id": "ETABLISSEMENTS_POLLUEURS.1408", "identifiant": "0006103031", "idetab": "1408", "nom": "TRANSPORTS GOUBET SAS", "codeape": "4941A", "cp": "38360" }, "geometry": { "type": "Point", "coordinates": [ 5.662666, 45.206767 ] } },
{ "type": "Feature", "properties": { "gml_id": "ETABLISSEMENTS_POLLUEURS.588736", "identifiant": "0006101019", "idetab": "588736", "nom": "SOCAFI", "codeape": "0812Z", "cp": "38330" }, "geometry": { "type": "Point", "coordinates": [ 5.83194, 45.21567 ] } },
{ "type": "Feature", "properties": { "gml_id": "ETABLISSEMENTS_POLLUEURS.589662", "identifiant": "0006101083", "idetab": "589662", "nom": "SOCIETE ANONYME DE TUYAUX DE MATERIAUX ET D'AGGLOMERES", "codeape": "0811Z", "cp": "38360" }, "geometry": { "type": "Point", "coordinates": [ 5.64615, 45.22142 ] } },
{ "type": "Feature", "properties": { "gml_id": "ETABLISSEMENTS_POLLUEURS.590407", "identifiant": "0006100930", "idetab": "590407", "nom": "SOCAFI", "codeape": "0812Z", "cp": "38330" }, "geometry": { "type": "Point", "coordinates": [ 5.82755, 45.2241 ] } },
{ "type": "Feature", "properties": { "gml_id": "ETABLISSEMENTS_POLLUEURS.594421", "identifiant": "0006101084", "idetab": "594421", "nom": "CARRIERES ET CHAUX BALTHAZARD ET COTTE", "codeape": "2352Z", "cp": "38360" }, "geometry": { "type": "Point", "coordinates": [ 5.64262, 45.22988 ] } },
{ "type": "Feature", "properties": { "gml_id": "ETABLISSEMENTS_POLLUEURS.592285", "identifiant": "0003201386", "idetab": "592285", "nom": "MGC METAL GLOBAL CONCEPT", "codeape": "2550B", "cp": "38420" }, "geometry": { "type": "Point", "coordinates": [ 5.85777, 45.23007 ] } },
{ "type": "Feature", "properties": { "gml_id": "ETABLISSEMENTS_POLLUEURS.1430", "identifiant": "0006103108", "idetab": "1430", "nom": "VICAT", "codeape": "2351Z", "cp": "38120" }, "geometry": { "type": "Point", "coordinates": [ 5.66991, 45.2344 ] } },
{ "type": "Feature", "properties": { "gml_id": "ETABLISSEMENTS_POLLUEURS.1429", "identifiant": "0006103105", "idetab": "1429", "nom": "SICO", "codeape": "8292Z", "cp": "38120" }, "geometry": { "type": "Point", "coordinates": [ 5.677793, 45.240856 ] } },
{ "type": "Feature", "properties": { "gml_id": "ETABLISSEMENTS_POLLUEURS.7887", "identifiant": "0006102931", "idetab": "7887", "nom": "RAYPRINT", "codeape": "222C", "cp": "38120" }, "geometry": { "type": "Point", "coordinates": [ 5.658372, 45.245439 ] } },
{ "type": "Feature", "properties": { "gml_id": "ETABLISSEMENTS_POLLUEURS.1438", "identifiant": "0006103146", "idetab": "1438", "nom": "AD PLATING GRENOBLE", "codeape": "2561Z", "cp": "38400" }, "geometry": { "type": "Point", "coordinates": [ 5.77706, 45.1774 ] } },
{ "type": "Feature", "properties": { "gml_id": "ETABLISSEMENTS_POLLUEURS.12878", "identifiant": "0006103148", "idetab": "12878", "nom": "SEVIA", "codeape": "3812Z", "cp": "38950" }, "geometry": { "type": "Point", "coordinates": [ 5.716259, 45.208382 ] } },
{ "type": "Feature", "properties": { "gml_id": "ETABLISSEMENTS_POLLUEURS.4445", "identifiant": "0006103192", "idetab": "4445", "nom": "AIR LIQUIDE ADVANCED TECHNOLOGIES", "codeape": "2825Z", "cp": "38360" }, "geometry": { "type": "Point", "coordinates": [ 5.66392, 45.22058 ] } },
{ "type": "Feature", "properties": { "gml_id": "ETABLISSEMENTS_POLLUEURS.4446", "identifiant": "0006103194", "idetab": "4446", "nom": "CARRIERES ET CHAUX BALTHAZARD ET COTTE", "codeape": "2352Z", "cp": "38360" }, "geometry": { "type": "Point", "coordinates": [ 5.65159, 45.2294 ] } },
{ "type": "Feature", "properties": { "gml_id": "ETABLISSEMENTS_POLLUEURS.4447", "identifiant": "0006103195", "idetab": "4447", "nom": "TECSAS", "codeape": "285A", "cp": "38360" }, "geometry": { "type": "Point", "coordinates": [ 5.662666, 45.206767 ] } },
{ "type": "Feature", "properties": { "gml_id": "ETABLISSEMENTS_POLLUEURS.1448", "identifiant": "0006103222", "idetab": "1448", "nom": "COMPAGNIE DE CHAUFFAGE INTERCOMMUNALE DE L'AGGLOMERATION GRENOBLOISE CC", "codeape": "3530Z", "cp": "38700" }, "geometry": { "type": "Point", "coordinates": [ 5.75783, 45.19777 ] } },
{ "type": "Feature", "properties": { "gml_id": "ETABLISSEMENTS_POLLUEURS.1449", "identifiant": "0006103223", "idetab": "1449", "nom": "METROPOLE GRENOBLE-ALPES-METROPOLE (METRO)", "codeape": "3821Z", "cp": "38700" }, "geometry": { "type": "Point", "coordinates": [ 5.7488, 45.22186 ] } },
{ "type": "Feature", "properties": { "gml_id": "ETABLISSEMENTS_POLLUEURS.8522", "identifiant": "0006103249", "idetab": "8522", "nom": "SUEZ ORGANIQUE", "codeape": "3821Z", "cp": "38190" }, "geometry": { "type": "Point", "coordinates": [ 5.86075, 45.23626 ] } },
{ "type": "Feature", "properties": { "gml_id": "ETABLISSEMENTS_POLLUEURS.4452", "identifiant": "0006103255", "idetab": "4452", "nom": "ARKEMA (USINE DE BRIGNOUD)", "codeape": "241L", "cp": "38190" }, "geometry": { "type": "Point", "coordinates": [ 5.881857, 45.234371 ] } },
{ "type": "Feature", "properties": { "gml_id": "ETABLISSEMENTS_POLLUEURS.1689", "identifiant": "0006104781", "idetab": "1689", "nom": "MAJ", "codeape": "7729Z", "cp": "38100" }, "geometry": { "type": "Point", "coordinates": [ 5.7498, 45.17896 ] } },
{ "type": "Feature", "properties": { "gml_id": "ETABLISSEMENTS_POLLUEURS.599141", "identifiant": "0006112458", "idetab": "599141", "nom": "PHOTOWEB", "codeape": "7420Z", "cp": "38120" }, "geometry": { "type": "Point", "coordinates": [ 5.67063, 45.22741 ] } },
{ "type": "Feature", "properties": { "gml_id": "ETABLISSEMENTS_POLLUEURS.588775", "identifiant": "0006114059", "idetab": "588775", "nom": "CEA EX COMPAGNIE DE CHAUFFAGE CCIAG", "codeape": "3530Z", "cp": "38100" }, "geometry": { "type": "Point", "coordinates": [ 5.699865, 45.199701 ] } },
{ "type": "Feature", "properties": { "gml_id": "ETABLISSEMENTS_POLLUEURS.587927", "identifiant": "0006114479", "idetab": "587927", "nom": "ISDI SYMBHI PACIFIC", "codeape": "8413Z", "cp": "38000" }, "geometry": { "type": "Point", "coordinates": [ 5.810726, 45.225946 ] } },
{ "type": "Feature", "properties": { "gml_id": "ETABLISSEMENTS_POLLUEURS.587928", "identifiant": "0006114500", "idetab": "587928", "nom": "SOCAFI", "codeape": "0812Z", "cp": "38330" }, "geometry": { "type": "Point", "coordinates": [ 5.8009, 45.2279 ] } },
{ "type": "Feature", "properties": { "gml_id": "ETABLISSEMENTS_POLLUEURS.590202", "identifiant": "0006114516", "idetab": "590202", "nom": "ISDI EDF GAVET AVAL", "codeape": "3511Z", "cp": "38220" }, "geometry": { "type": "Point", "coordinates": [ 5.731414, 45.185411 ] } },
{ "type": "Feature", "properties": { "gml_id": "ETABLISSEMENTS_POLLUEURS.592009", "identifiant": "0006114913", "idetab": "592009", "nom": "SOCAFI", "codeape": "0812Z", "cp": "38330" }, "geometry": { "type": "Point", "coordinates": [ 5.79549, 45.22718 ] } },
{ "type": "Feature", "properties": { "gml_id": "ETABLISSEMENTS_POLLUEURS.4451", "identifiant": "0006103253", "idetab": "4451", "nom": "AHLSTROM BRIGNOUD", "codeape": "1712Z", "cp": "38190" }, "geometry": { "type": "Point", "coordinates": [ 5.91039, 45.25767 ] } },
{ "type": "Feature", "properties": { "gml_id": "ETABLISSEMENTS_POLLUEURS.1382", "identifiant": "0006102885", "idetab": "1382", "nom": "STMICROELECTRONICS FRANCE", "codeape": "2611Z", "cp": "38920" }, "geometry": { "type": "Point", "coordinates": [ 5.88449, 45.2671 ] } },
{ "type": "Feature", "properties": { "gml_id": "ETABLISSEMENTS_POLLUEURS.1393", "identifiant": "0006102938", "idetab": "1393", "nom": "LAMINOIRS ALUMINIUM FROGES 'LAF' SAS", "codeape": "274D", "cp": "38190" }, "geometry": { "type": "Point", "coordinates": [ 5.91608, 45.269601 ] } },
{ "type": "Feature", "properties": { "gml_id": "ETABLISSEMENTS_POLLUEURS.1394", "identifiant": "0006102939", "idetab": "1394", "nom": "AMCOR FLEXIBLES PACKAGING FRANCE SAS", "codeape": "2592Z", "cp": "38190" }, "geometry": { "type": "Point", "coordinates": [ 5.92171, 45.26989 ] } },
{ "type": "Feature", "properties": { "gml_id": "ETABLISSEMENTS_POLLUEURS.1384", "identifiant": "0006102887", "idetab": "1384", "nom": "USINE DE CROLLES", "codeape": "1107B", "cp": "38926" }, "geometry": { "type": "Point", "coordinates": [ 5.884559, 45.286216 ] } },
{ "type": "Feature", "properties": { "gml_id": "ETABLISSEMENTS_POLLUEURS.588748", "identifiant": "0006102942", "idetab": "588748", "nom": "MULTISERVICES SARL", "codeape": "4677Z", "cp": "38570" }, "geometry": { "type": "Point", "coordinates": [ 5.96897, 45.32421 ] } },
{ "type": "Feature", "properties": { "gml_id": "ETABLISSEMENTS_POLLUEURS.1395", "identifiant": "0006102943", "idetab": "1395", "nom": "SATMA INDUSTRIES", "codeape": "2790Z", "cp": "38570" }, "geometry": { "type": "Point", "coordinates": [ 5.96993, 45.3262 ] } },
{ "type": "Feature", "properties": { "gml_id": "ETABLISSEMENTS_POLLUEURS.1380", "identifiant": "0006102871", "idetab": "1380", "nom": "ASCOMETAL USINE D' ALLEVARD", "codeape": "2410Z", "cp": "38570" }, "geometry": { "type": "Point", "coordinates": [ 5.991966, 45.371661 ] } },
{ "type": "Feature", "properties": { "gml_id": "ETABLISSEMENTS_POLLUEURS.1379", "identifiant": "0006102870", "idetab": "1379", "nom": "WINOA", "codeape": "2410Z", "cp": "38570" }, "geometry": { "type": "Point", "coordinates": [ 5.99851, 45.3858 ] } },
{ "type": "Feature", "properties": { "gml_id": "ETABLISSEMENTS_POLLUEURS.1361", "identifiant": "0006102805", "idetab": "1361", "nom": "FONDERIE GIROUD INDUSTRIE", "codeape": "2451Z", "cp": "38530" }, "geometry": { "type": "Point", "coordinates": [ 5.99711, 45.4293 ] } },
{ "type": "Feature", "properties": { "gml_id": "ETABLISSEMENTS_POLLUEURS.14091", "identifiant": "0006100812", "idetab": "14091", "nom": "GRANULATS VICAT", "codeape": "0812Z", "cp": "38530" }, "geometry": { "type": "Point", "coordinates": [ 5.99753, 45.44383 ] } },
{ "type": "Feature", "properties": { "gml_id": "ETABLISSEMENTS_POLLUEURS.588734", "identifiant": "0006100848", "idetab": "588734", "nom": "GRANULATS VICAT", "codeape": "0811Z", "cp": "38530" }, "geometry": { "type": "Point", "coordinates": [ 5.99719, 45.45103 ] } },
{ "type": "Feature", "properties": { "gml_id": "ETABLISSEMENTS_POLLUEURS.4425", "identifiant": "0006102848", "idetab": "4425", "nom": "TYCO ELECTRONICS FRANCE SAS", "codeape": "312A", "cp": "38530" }, "geometry": { "type": "Point", "coordinates": [ 5.988426, 45.465033 ] } },
{ "type": "Feature", "properties": { "gml_id": "ETABLISSEMENTS_POLLUEURS.587929", "identifiant": "0006114505", "idetab": "587929", "nom": "RAVIX ENVIRONNEMENT", "codeape": "3821Z", "cp": "38660" }, "geometry": { "type": "Point", "coordinates": [ 5.91979, 45.3273 ] } },
{ "type": "Feature", "properties": { "gml_id": "ETABLISSEMENTS_POLLUEURS.588778", "identifiant": "0006114508", "idetab": "588778", "nom": "ISDI SYMBHI (GRAVIÈRE DE BOIS CLARET À BERNIN)", "codeape": "8413Z", "cp": "38190" }, "geometry": { "type": "Point", "coordinates": [ 5.868059, 45.272099 ] } },
{ "type": "Feature", "properties": { "gml_id": "ETABLISSEMENTS_POLLUEURS.596864", "identifiant": "0003201463", "idetab": "596864", "nom": "SOCIETE NOUVELLE CLEAN 38", "codeape": "8129B", "cp": "38113" }, "geometry": { "type": "Point", "coordinates": [ 5.6215, 45.26331 ] } },
{ "type": "Feature", "properties": { "gml_id": "ETABLISSEMENTS_POLLUEURS.12899", "identifiant": "0006104795", "idetab": "12899", "nom": "PURFER", "codeape": "3832Z", "cp": "38113" }, "geometry": { "type": "Point", "coordinates": [ 5.61835, 45.26698 ] } },
{ "type": "Feature", "properties": { "gml_id": "ETABLISSEMENTS_POLLUEURS.1451", "identifiant": "0006103235", "idetab": "1451", "nom": "SINTERTECH", "codeape": "2550A", "cp": "38113" }, "geometry": { "type": "Point", "coordinates": [ 5.614376, 45.273351 ] } },
{ "type": "Feature", "properties": { "gml_id": "ETABLISSEMENTS_POLLUEURS.4442", "identifiant": "0006103168", "idetab": "4442", "nom": "C.S.D.U DE ST QUENTIN SUR ISERE", "codeape": "7490B", "cp": "38210" }, "geometry": { "type": "Point", "coordinates": [ 5.545958, 45.280954 ] } },
{ "type": "Feature", "properties": { "gml_id": "ETABLISSEMENTS_POLLUEURS.587881", "identifiant": "0006103279", "idetab": "587881", "nom": "SUEZ RV CENTRE EST", "codeape": "3821Z", "cp": "38340" }, "geometry": { "type": "Point", "coordinates": [ 5.62274, 45.28999 ] } },
{ "type": "Feature", "properties": { "gml_id": "ETABLISSEMENTS_POLLUEURS.1459", "identifiant": "0006103282", "idetab": "1459", "nom": "STEPAN EUROPE SA", "codeape": "2041Z", "cp": "38340" }, "geometry": { "type": "Point", "coordinates": [ 5.625045, 45.292515 ] } },
{ "type": "Feature", "properties": { "gml_id": "ETABLISSEMENTS_POLLUEURS.598529", "identifiant": "0006103169", "idetab": "598529", "nom": "TITANOBEL", "codeape": "5210B", "cp": "38210" }, "geometry": { "type": "Point", "coordinates": [ 5.61364, 45.2943 ] } },
{ "type": "Feature", "properties": { "gml_id": "ETABLISSEMENTS_POLLUEURS.11680", "identifiant": "0006110030", "idetab": "11680", "nom": "VERTARIS", "codeape": "1712Z", "cp": "38340" }, "geometry": { "type": "Point", "coordinates": [ 5.637079, 45.296792 ] } },
{ "type": "Feature", "properties": { "gml_id": "ETABLISSEMENTS_POLLUEURS.1460", "identifiant": "0006103283", "idetab": "1460", "nom": "PAPETERIES DE VOIRON ET DE LANCEY SITE DE VOREPPE", "codeape": "211C", "cp": "38343" }, "geometry": { "type": "Point", "coordinates": [ 5.637079, 45.296792 ] } },
{ "type": "Feature", "properties": { "gml_id": "ETABLISSEMENTS_POLLUEURS.1458", "identifiant": "0006103280", "idetab": "1458", "nom": "HERCULES SA", "codeape": "2059Z", "cp": "38340" }, "geometry": { "type": "Point", "coordinates": [ 5.614895, 45.306946 ] } },
{ "type": "Feature", "properties": { "gml_id": "ETABLISSEMENTS_POLLUEURS.1461", "identifiant": "0006103288", "idetab": "1461", "nom": "RADIALL", "codeape": "2733Z", "cp": "38340" }, "geometry": { "type": "Point", "coordinates": [ 5.61772, 45.30738 ] } },
{ "type": "Feature", "properties": { "gml_id": "ETABLISSEMENTS_POLLUEURS.6582", "identifiant": "0006103287", "idetab": "6582", "nom": "C-TEC CONSTELLIUM TECHNOLOGY CENTER", "codeape": "7219Z", "cp": "38340" }, "geometry": { "type": "Point", "coordinates": [ 5.60722, 45.31339 ] } },
{ "type": "Feature", "properties": { "gml_id": "ETABLISSEMENTS_POLLUEURS.1407", "identifiant": "0006103014", "idetab": "1407", "nom": "THALES AVS MOIRANS RAD", "codeape": "2611Z", "cp": "38430" }, "geometry": { "type": "Point", "coordinates": [ 5.594804, 45.316285 ] } },
{ "type": "Feature", "properties": { "gml_id": "ETABLISSEMENTS_POLLUEURS.6580", "identifiant": "0006103008", "idetab": "6580", "nom": "CHIMIMECA", "codeape": "2561Z", "cp": "38430" }, "geometry": { "type": "Point", "coordinates": [ 5.59188, 45.3179 ] } },
{ "type": "Feature", "properties": { "gml_id": "ETABLISSEMENTS_POLLUEURS.4435", "identifiant": "0006103013", "idetab": "4435", "nom": "BATH TOILETTES ET ACCESSOIRES ALLIBERT TS", "codeape": "1629Z", "cp": "38430" }, "geometry": { "type": "Point", "coordinates": [ 5.566504, 45.327178 ] } },
{ "type": "Feature", "properties": { "gml_id": "ETABLISSEMENTS_POLLUEURS.1368", "identifiant": "0006102832", "idetab": "1368", "nom": "CARRIERES ET CHAUX BALTHAZARD ET COTTE", "codeape": "2352Z", "cp": "38500" }, "geometry": { "type": "Point", "coordinates": [ 5.62254, 45.3353 ] } },
{ "type": "Feature", "properties": { "gml_id": "ETABLISSEMENTS_POLLUEURS.4440", "identifiant": "0006103126", "idetab": "4440", "nom": "SOCIÉTÉ C B C", "codeape": "2561Z", "cp": "38430" }, "geometry": { "type": "Point", "coordinates": [ 5.580088, 45.341189 ] } },
{ "type": "Feature", "properties": { "gml_id": "ETABLISSEMENTS_POLLUEURS.1457", "identifiant": "0006103270", "idetab": "1457", "nom": "DREVET FERRURES S.A.S.", "codeape": "2572Z", "cp": "38500" }, "geometry": { "type": "Point", "coordinates": [ 5.577761, 45.347244 ] } },
{ "type": "Feature", "properties": { "gml_id": "ETABLISSEMENTS_POLLUEURS.1456", "identifiant": "0006103268", "idetab": "1456", "nom": "S A FONDERIE BOT", "codeape": "2451Z", "cp": "38500" }, "geometry": { "type": "Point", "coordinates": [ 5.59735, 45.36087 ] } },
{ "type": "Feature", "properties": { "gml_id": "ETABLISSEMENTS_POLLUEURS.591443", "identifiant": "0006101027", "idetab": "591443", "nom": "VICAT", "codeape": "2351Z", "cp": "38380" }, "geometry": { "type": "Point", "coordinates": [ 5.75414, 45.36387 ] } },
{ "type": "Feature", "properties": { "gml_id": "ETABLISSEMENTS_POLLUEURS.1435", "identifiant": "0006103134", "idetab": "1435", "nom": "VICAT", "codeape": "2351Z", "cp": "38380" }, "geometry": { "type": "Point", "coordinates": [ 5.74986, 45.37179 ] } },
{ "type": "Feature", "properties": { "gml_id": "ETABLISSEMENTS_POLLUEURS.1431", "identifiant": "0006103110", "idetab": "1431", "nom": "SKIS ROSSIGNOL", "codeape": "3230Z", "cp": "38960" }, "geometry": { "type": "Point", "coordinates": [ 5.64302, 45.381459 ] } },
{ "type": "Feature", "properties": { "gml_id": "ETABLISSEMENTS_POLLUEURS.1436", "identifiant": "0006103135", "idetab": "1436", "nom": "PATURLE ACIERS", "codeape": "2432Z", "cp": "38380" }, "geometry": { "type": "Point", "coordinates": [ 5.7351, 45.39462 ] } },
{ "type": "Feature", "properties": { "gml_id": "ETABLISSEMENTS_POLLUEURS.7886", "identifiant": "0006102913", "idetab": "7886", "nom": "MULTIBASE", "codeape": "2016Z", "cp": "38380" }, "geometry": { "type": "Point", "coordinates": [ 5.74665, 45.4125 ] } },
{ "type": "Feature", "properties": { "gml_id": "ETABLISSEMENTS_POLLUEURS.1389", "identifiant": "0006102920", "idetab": "1389", "nom": "PAPETERIE DES DEUX GUIERS", "codeape": "211C", "cp": "38380" }, "geometry": { "type": "Point", "coordinates": [ 5.752319, 45.43329 ] } },
{ "type": "Feature", "properties": { "gml_id": "ETABLISSEMENTS_POLLUEURS.4429", "identifiant": "0006102915", "idetab": "4429", "nom": "GRTGAZ - STATION DE COMPRESSION D'ENTRE-DEUX-GUIERS", "codeape": "4950Z", "cp": "38380" }, "geometry": { "type": "Point", "coordinates": [ 5.752319, 45.43329 ] } },
{ "type": "Feature", "properties": { "gml_id": "ETABLISSEMENTS_POLLUEURS.1409", "identifiant": "0006103032", "idetab": "1409", "nom": "REXOR SAS", "codeape": "2221Z", "cp": "38850" }, "geometry": { "type": "Point", "coordinates": [ 5.55546, 45.47683 ] } },
{ "type": "Feature", "properties": { "gml_id": "ETABLISSEMENTS_POLLUEURS.1628", "identifiant": "0006104454", "idetab": "1628", "nom": "TECHCI RHÔNE ALPES", "codeape": "321A", "cp": "73520" }, "geometry": { "type": "Point", "coordinates": [ 5.740149, 45.524844 ] } },
{ "type": "Feature", "properties": { "gml_id": "ETABLISSEMENTS_POLLUEURS.588755", "identifiant": "0006104387", "idetab": "588755", "nom": "GPA 26", "codeape": "3831Z", "cp": "73330" }, "geometry": { "type": "Point", "coordinates": [ 5.69392, 45.52638 ] } },
{ "type": "Feature", "properties": { "gml_id": "ETABLISSEMENTS_POLLUEURS.1612", "identifiant": "0006104350", "idetab": "1612", "nom": "AGRATI VAL GUIERS", "codeape": "2594Z", "cp": "73520" }, "geometry": { "type": "Point", "coordinates": [ 5.7419, 45.5294 ] } },
{ "type": "Feature", "properties": { "gml_id": "ETABLISSEMENTS_POLLUEURS.1613", "identifiant": "0006104351", "idetab": "1613", "nom": "CROMOLOGY RESEARCH & INDUSTRY SAVOIE", "codeape": "2030Z", "cp": "73520" }, "geometry": { "type": "Point", "coordinates": [ 5.72359, 45.53079 ] } },
{ "type": "Feature", "properties": { "gml_id": "ETABLISSEMENTS_POLLUEURS.590206", "identifiant": "0006114532", "idetab": "590206", "nom": "ENTREPRISE GIRARD ET RIVOIRE", "codeape": "4312A", "cp": "38490" }, "geometry": { "type": "Point", "coordinates": [ 5.5842, 45.53243 ] } },
{ "type": "Feature", "properties": { "gml_id": "ETABLISSEMENTS_POLLUEURS.4421", "identifiant": "0006102791", "idetab": "4421", "nom": "BOURGEAT", "codeape": "2599A", "cp": "38490" }, "geometry": { "type": "Point", "coordinates": [ 5.586735, 45.533229 ] } },
{ "type": "Feature", "properties": { "gml_id": "ETABLISSEMENTS_POLLUEURS.588779", "identifiant": "0006114509", "idetab": "588779", "nom": "SICTOM DU GUIERS", "codeape": "3811Z", "cp": "38480" }, "geometry": { "type": "Point", "coordinates": [ 5.669936, 45.536306 ] } },
{ "type": "Feature", "properties": { "gml_id": "ETABLISSEMENTS_POLLUEURS.1621", "identifiant": "0006104388", "idetab": "1621", "nom": "BLANCHON", "codeape": "2030Z", "cp": "73330" }, "geometry": { "type": "Point", "coordinates": [ 5.69645, 45.55043 ] } },
{ "type": "Feature", "properties": { "gml_id": "ETABLISSEMENTS_POLLUEURS.1455", "identifiant": "0006103265", "idetab": "1455", "nom": "VICAT", "codeape": "1712Z", "cp": "38220" }, "geometry": { "type": "Point", "coordinates": [ 5.76869, 45.06618 ] } },
{ "type": "Feature", "properties": { "gml_id": "ETABLISSEMENTS_POLLUEURS.1371", "identifiant": "0006102843", "idetab": "1371", "nom": "AVERY DENNISON MATERIALS FRANCE", "codeape": "1712Z", "cp": "38560" }, "geometry": { "type": "Point", "coordinates": [ 5.72455, 45.06707 ] } },
{ "type": "Feature", "properties": { "gml_id": "ETABLISSEMENTS_POLLUEURS.4434", "identifiant": "0006102997", "idetab": "4434", "nom": "FERROGLOBE FRANCE", "codeape": "2410Z", "cp": "38220" }, "geometry": { "type": "Point", "coordinates": [ 5.87595, 45.0727 ] } },
{ "type": "Feature", "properties": { "gml_id": "ETABLISSEMENTS_POLLUEURS.1404", "identifiant": "0006102993", "idetab": "1404", "nom": "ARKEMA FRANCE", "codeape": "2013B", "cp": "38560" }, "geometry": { "type": "Point", "coordinates": [ 5.74159, 45.0844 ] } },
{ "type": "Feature", "properties": { "gml_id": "ETABLISSEMENTS_POLLUEURS.12911", "identifiant": "0006108357", "idetab": "12911", "nom": "SCHNEIDER- ELECTRIC", "codeape": "2733Z", "cp": "38760" }, "geometry": { "type": "Point", "coordinates": [ 5.682938, 45.086834 ] } },
{ "type": "Feature", "properties": { "gml_id": "ETABLISSEMENTS_POLLUEURS.591888", "identifiant": "0003201408", "idetab": "591888", "nom": "ENGIE ENERGIE SERVICES", "codeape": "3511Z", "cp": "38560" }, "geometry": { "type": "Point", "coordinates": [ 5.74391, 45.08773 ] } },
{ "type": "Feature", "properties": { "gml_id": "ETABLISSEMENTS_POLLUEURS.12877", "identifiant": "0006102992", "idetab": "12877", "nom": "SOGIF", "codeape": "2011Z", "cp": "38560" }, "geometry": { "type": "Point", "coordinates": [ 5.735832, 45.09273 ] } },
{ "type": "Feature", "properties": { "gml_id": "ETABLISSEMENTS_POLLUEURS.1405", "identifiant": "0006102995", "idetab": "1405", "nom": "FRAMATOME", "codeape": "2445Z", "cp": "38560" }, "geometry": { "type": "Point", "coordinates": [ 5.73344, 45.09298 ] } },
{ "type": "Feature", "properties": { "gml_id": "ETABLISSEMENTS_POLLUEURS.1370", "identifiant": "0006102839", "idetab": "1370", "nom": "POLIMERI EUROPA ELASTOMERES FRANCE", "codeape": "241N", "cp": "38800" }, "geometry": { "type": "Point", "coordinates": [ 5.7218, 45.096792 ] } },
{ "type": "Feature", "properties": { "gml_id": "ETABLISSEMENTS_POLLUEURS.14141", "identifiant": "0006111003", "idetab": "14141", "nom": "SEVIA", "codeape": "3812Z", "cp": "38760" }, "geometry": { "type": "Point", "coordinates": [ 5.68567, 45.10752 ] } },
{ "type": "Feature", "properties": { "gml_id": "ETABLISSEMENTS_POLLUEURS.590204", "identifiant": "0006114518", "idetab": "590204", "nom": "ISDI EDF GAVET AMONT", "codeape": "3511Z", "cp": "38220" }, "geometry": { "type": "Point", "coordinates": [ 5.933943, 45.107898 ] } },
{ "type": "Feature", "properties": { "gml_id": "ETABLISSEMENTS_POLLUEURS.590203", "identifiant": "0006114517", "idetab": "590203", "nom": "ISDI EDF LIVET", "codeape": "3511Z", "cp": "38220" }, "geometry": { "type": "Point", "coordinates": [ 5.933943, 45.107898 ] } },
{ "type": "Feature", "properties": { "gml_id": "ETABLISSEMENTS_POLLUEURS.590201", "identifiant": "0006114511", "idetab": "590201", "nom": "ISDI EDF LES PONANTS", "codeape": "3511Z", "cp": "38220" }, "geometry": { "type": "Point", "coordinates": [ 5.933943, 45.107898 ] } },
{ "type": "Feature", "properties": { "gml_id": "ETABLISSEMENTS_POLLUEURS.591307", "identifiant": "0003202504", "idetab": "591307", "nom": "EXTRACTHIVE CHEMICAL PRODUCTS-EX ISOCHEM", "codeape": "4675Z", "cp": "38800" }, "geometry": { "type": "Point", "coordinates": [ 5.706009, 45.120909 ] } },
{ "type": "Feature", "properties": { "gml_id": "ETABLISSEMENTS_POLLUEURS.1413", "identifiant": "0006103048", "idetab": "1413", "nom": "RHODIA OPERATIONS", "codeape": "3530Z", "cp": "38800" }, "geometry": { "type": "Point", "coordinates": [ 5.70912, 45.12131 ] } },
{ "type": "Feature", "properties": { "gml_id": "ETABLISSEMENTS_POLLUEURS.1416", "identifiant": "0006103051", "idetab": "1416", "nom": "RHODIA PLATE-FORME CHIMIQUE DU PONT DE CLAIX", "codeape": "2013B", "cp": "38800" }, "geometry": { "type": "Point", "coordinates": [ 5.707499, 45.122738 ] } },
{ "type": "Feature", "properties": { "gml_id": "ETABLISSEMENTS_POLLUEURS.1414", "identifiant": "0006103049", "idetab": "1414", "nom": "CHLORALP", "codeape": "241E", "cp": "38800" }, "geometry": { "type": "Point", "coordinates": [ 5.69869, 45.128782 ] } },
{ "type": "Feature", "properties": { "gml_id": "ETABLISSEMENTS_POLLUEURS.1415", "identifiant": "0006103050", "idetab": "1415", "nom": "SINTERTECH", "codeape": "2550A", "cp": "38800" }, "geometry": { "type": "Point", "coordinates": [ 5.69869, 45.128782 ] } },
{ "type": "Feature", "properties": { "gml_id": "ETABLISSEMENTS_POLLUEURS.1417", "identifiant": "0006103052", "idetab": "1417", "nom": "PAPETERIES DU PONT DE CLAIX", "codeape": "211C", "cp": "38800" }, "geometry": { "type": "Point", "coordinates": [ 5.69869, 45.128782 ] } },
{ "type": "Feature", "properties": { "gml_id": "ETABLISSEMENTS_POLLUEURS.4437", "identifiant": "0006103054", "idetab": "4437", "nom": "BECKER INDUSTRIE ACTIVITÉ SPECIAL COATINGS", "codeape": "2030Z", "cp": "38800" }, "geometry": { "type": "Point", "coordinates": [ 5.69869, 45.128782 ] } },
{ "type": "Feature", "properties": { "gml_id": "ETABLISSEMENTS_POLLUEURS.1705", "identifiant": "0006105220", "idetab": "1705", "nom": "ISOCHEM SAS", "codeape": "4675Z", "cp": "38801" }, "geometry": { "type": "Point", "coordinates": [ 5.69869, 45.128782 ] } },
{ "type": "Feature", "properties": { "gml_id": "ETABLISSEMENTS_POLLUEURS.9768", "identifiant": "0006108011", "idetab": "9768", "nom": "NOVACID", "codeape": "2013B", "cp": "38800" }, "geometry": { "type": "Point", "coordinates": [ 5.70565, 45.13401 ] } },
{ "type": "Feature", "properties": { "gml_id": "ETABLISSEMENTS_POLLUEURS.7907", "identifiant": "0006107527", "idetab": "7907", "nom": "VENCOREX FRANCE", "codeape": "2013B", "cp": "38800" }, "geometry": { "type": "Point", "coordinates": [ 5.70682, 45.13475 ] } },
{ "type": "Feature", "properties": { "gml_id": "ETABLISSEMENTS_POLLUEURS.10658", "identifiant": "0006104785", "idetab": "10658", "nom": "BECTON DICKINSON FRANCE", "codeape": "3250A", "cp": "38800" }, "geometry": { "type": "Point", "coordinates": [ 5.69297, 45.13517 ] } },
{ "type": "Feature", "properties": { "gml_id": "ETABLISSEMENTS_POLLUEURS.1711", "identifiant": "0006106947", "idetab": "1711", "nom": "SUEZ RR IWS CHEMICALS FRANCE", "codeape": "3822Z", "cp": "38801" }, "geometry": { "type": "Point", "coordinates": [ 5.70701, 45.13621 ] } },
{ "type": "Feature", "properties": { "gml_id": "ETABLISSEMENTS_POLLUEURS.591303", "identifiant": "0003200037", "idetab": "591303", "nom": "KENSINGTON FRANCE LOGISTICS PROPCO II", "codeape": "6820B", "cp": "38070" }, "geometry": { "type": "Point", "coordinates": [ 5.113412, 45.44059 ] } },
{ "type": "Feature", "properties": { "gml_id": "ETABLISSEMENTS_POLLUEURS.589671", "identifiant": "0006103124", "idetab": "589671", "nom": "CALOR SITE DE ST JEAN DE BOURNAY", "codeape": "2751Z", "cp": "38440" }, "geometry": { "type": "Point", "coordinates": [ 5.130854, 45.501045 ] } },
{ "type": "Feature", "properties": { "gml_id": "ETABLISSEMENTS_POLLUEURS.1432", "identifiant": "0006103116", "idetab": "1432", "nom": "PIOLAT ROTARY", "codeape": "1813Z", "cp": "38790" }, "geometry": { "type": "Point", "coordinates": [ 5.085074, 45.557407 ] } },
{ "type": "Feature", "properties": { "gml_id": "ETABLISSEMENTS_POLLUEURS.14093", "identifiant": "0006100944", "idetab": "14093", "nom": "CEMEX GRANULATS RHONE MEDITERRANEE", "codeape": "0812Z", "cp": "38780" }, "geometry": { "type": "Point", "coordinates": [ 5.03436, 45.57728 ] } },
{ "type": "Feature", "properties": { "gml_id": "ETABLISSEMENTS_POLLUEURS.6576", "identifiant": "0006102889", "idetab": "6576", "nom": "PAPREC CRV", "codeape": "3811Z", "cp": "38790" }, "geometry": { "type": "Point", "coordinates": [ 5.08199, 45.58848 ] } },
{ "type": "Feature", "properties": { "gml_id": "ETABLISSEMENTS_POLLUEURS.591444", "identifiant": "0006101107", "idetab": "591444", "nom": "PHV CARRIERES ET MATERIAUX", "codeape": "6820B", "cp": "38540" }, "geometry": { "type": "Point", "coordinates": [ 5.04923, 45.59169 ] } },
{ "type": "Feature", "properties": { "gml_id": "ETABLISSEMENTS_POLLUEURS.1439", "identifiant": "0006103164", "idetab": "1439", "nom": "VALEO", "codeape": "2931Z", "cp": "38291" }, "geometry": { "type": "Point", "coordinates": [ 5.111315, 45.632906 ] } },
{ "type": "Feature", "properties": { "gml_id": "ETABLISSEMENTS_POLLUEURS.4448", "identifiant": "0006103232", "idetab": "4448", "nom": "TECUMSEH EUROPE", "codeape": "2813Z", "cp": "38290" }, "geometry": { "type": "Point", "coordinates": [ 5.146854, 45.63382 ] } },
{ "type": "Feature", "properties": { "gml_id": "ETABLISSEMENTS_POLLUEURS.598591", "identifiant": "0006103162", "idetab": "598591", "nom": "AIR PRODUCTS", "codeape": "2011Z", "cp": "38070" }, "geometry": { "type": "Point", "coordinates": [ 5.12414, 45.64212 ] } },
{ "type": "Feature", "properties": { "gml_id": "ETABLISSEMENTS_POLLUEURS.7888", "identifiant": "0006103159", "idetab": "7888", "nom": "SIGMA ALDRICH CHIMIE", "codeape": "4675Z", "cp": "38070" }, "geometry": { "type": "Point", "coordinates": [ 5.09406, 45.64335 ] } },
{ "type": "Feature", "properties": { "gml_id": "ETABLISSEMENTS_POLLUEURS.590410", "identifiant": "0006101469", "idetab": "590410", "nom": "SORETEL - ISDI", "codeape": "4312A", "cp": "69780" }, "geometry": { "type": "Point", "coordinates": [ 5.01011, 45.645269 ] } },
{ "type": "Feature", "properties": { "gml_id": "ETABLISSEMENTS_POLLUEURS.587919", "identifiant": "0006112123", "idetab": "587919", "nom": "CARRIERES JEAN ROMERO", "codeape": "0811Z", "cp": "69780" }, "geometry": { "type": "Point", "coordinates": [ 5.02257, 45.64543 ] } },
{ "type": "Feature", "properties": { "gml_id": "ETABLISSEMENTS_POLLUEURS.1440", "identifiant": "0006103165", "idetab": "1440", "nom": "SOC NOUVELLE D'AFFINAGE DES METAUX", "codeape": "2445Z", "cp": "38070" }, "geometry": { "type": "Point", "coordinates": [ 5.10627, 45.64688 ] } },
{ "type": "Feature", "properties": { "gml_id": "ETABLISSEMENTS_POLLUEURS.587892", "identifiant": "0006104072", "idetab": "587892", "nom": "PURFER", "codeape": "3832Z", "cp": "69780" }, "geometry": { "type": "Point", "coordinates": [ 5.00572, 45.64964 ] } },
{ "type": "Feature", "properties": { "gml_id": "ETABLISSEMENTS_POLLUEURS.590236", "identifiant": "0003200087", "idetab": "590236", "nom": "CHROMELEC GROUPE & INDUSTRIES", "codeape": "2561Z", "cp": "38290" }, "geometry": { "type": "Point", "coordinates": [ 5.17176, 45.65348 ] } },
{ "type": "Feature", "properties": { "gml_id": "ETABLISSEMENTS_POLLUEURS.590416", "identifiant": "0006108082", "idetab": "590416", "nom": "KUEHNE+NAGEL", "codeape": "6820A", "cp": "38070" }, "geometry": { "type": "Point", "coordinates": [ 5.1237, 45.65486 ] } },
{ "type": "Feature", "properties": { "gml_id": "ETABLISSEMENTS_POLLUEURS.587901", "identifiant": "0006107508", "idetab": "587901", "nom": "DG RECYCLAGE GUELLA DAVID", "codeape": "4941B", "cp": "69780" }, "geometry": { "type": "Point", "coordinates": [ 5.008057, 45.660281 ] } },
{ "type": "Feature", "properties": { "gml_id": "ETABLISSEMENTS_POLLUEURS.588782", "identifiant": "0006114534", "idetab": "588782", "nom": "ISDI CHATONNAY", "codeape": "3811Z", "cp": "38440" }, "geometry": { "type": "Point", "coordinates": [ 5.205713, 45.486327 ] } },
{ "type": "Feature", "properties": { "gml_id": "ETABLISSEMENTS_POLLUEURS.594858", "identifiant": "0009073803", "idetab": "594858", "nom": "SOCIETE D'EXPLOITATION MUTUALISEE ISEROISE DE DISTRIBUTION D'EAU, D'ASSAINISSEMENT ET D'ORDURES MENAGERES", "codeape": "3700Z", "cp": "38070" }, "geometry": { "type": "Point", "coordinates": [ 5.13796, 45.65851 ] } },
{ "type": "Feature", "properties": { "gml_id": "ETABLISSEMENTS_POLLUEURS.7249", "identifiant": "0010400049", "idetab": "7249", "nom": "MARTINET", "codeape": "1085Z", "cp": "38297" }, "geometry": { "type": "Point", "coordinates": [ 5.111315, 45.632906 ] } },
{ "type": "Feature", "properties": { "gml_id": "ETABLISSEMENTS_POLLUEURS.594813", "identifiant": "0010400070", "idetab": "594813", "nom": "DS SMITH PACKAGING SUD-EST", "codeape": "1721A", "cp": "38440" }, "geometry": { "type": "Point", "coordinates": [ 5.150324, 45.500298 ] } },
{ "type": "Feature", "properties": { "gml_id": "ETABLISSEMENTS_POLLUEURS.9327", "identifiant": "0010400080", "idetab": "9327", "nom": "DECOMATIC", "codeape": "2222Z", "cp": "38290" }, "geometry": { "type": "Point", "coordinates": [ 5.13897, 45.64638 ] } },
{ "type": "Feature", "properties": { "gml_id": "ETABLISSEMENTS_POLLUEURS.9328", "identifiant": "0010400121", "idetab": "9328", "nom": "NEMERA LA VERPILLIERE", "codeape": "2229A", "cp": "38292" }, "geometry": { "type": "Point", "coordinates": [ 5.14747, 45.63162 ] } },
{ "type": "Feature", "properties": { "gml_id": "ETABLISSEMENTS_POLLUEURS.597371", "identifiant": "0010400214", "idetab": "597371", "nom": "C PLUS SAINT-QUENTIN-FALLAVIER", "codeape": "4110A", "cp": "38070" }, "geometry": { "type": "Point", "coordinates": [ 5.10154, 45.64745 ] } },
{ "type": "Feature", "properties": { "gml_id": "ETABLISSEMENTS_POLLUEURS.591684", "identifiant": "0010400222", "idetab": "591684", "nom": "ARROW FRANCE ISLE D'ABEAU", "codeape": "6832A", "cp": "38090" }, "geometry": { "type": "Point", "coordinates": [ 5.174874, 45.620859 ] } },
{ "type": "Feature", "properties": { "gml_id": "ETABLISSEMENTS_POLLUEURS.588219", "identifiant": "0010400236", "idetab": "588219", "nom": "TABARD AUTOS DEMOLITION TAD", "codeape": "4511Z", "cp": "38290" }, "geometry": { "type": "Point", "coordinates": [ 5.13897, 45.64638 ] } },
{ "type": "Feature", "properties": { "gml_id": "ETABLISSEMENTS_POLLUEURS.12493", "identifiant": "0010400263", "idetab": "12493", "nom": "POPY", "codeape": "1013A", "cp": "38070" }, "geometry": { "type": "Point", "coordinates": [ 5.111315, 45.632906 ] } },
{ "type": "Feature", "properties": { "gml_id": "ETABLISSEMENTS_POLLUEURS.591686", "identifiant": "0010400363", "idetab": "591686", "nom": "LES CARRIERES D'EYZIN PINET", "codeape": "6820B", "cp": "38780" }, "geometry": { "type": "Point", "coordinates": [ 5.01224, 45.49449 ] } },
{ "type": "Feature", "properties": { "gml_id": "ETABLISSEMENTS_POLLUEURS.11144", "identifiant": "0010600236", "idetab": "11144", "nom": "INTERNATIONAL METAL SUPPLY", "codeape": "4677Z", "cp": "69780" }, "geometry": { "type": "Point", "coordinates": [ 5.00911, 45.64522 ] } },
{ "type": "Feature", "properties": { "gml_id": "ETABLISSEMENTS_POLLUEURS.592231", "identifiant": "0053800504", "idetab": "592231", "nom": "MARTINET", "codeape": "1085Z", "cp": "38070" }, "geometry": { "type": "Point", "coordinates": [ 5.11163, 45.6393 ] } },
{ "type": "Feature", "properties": { "gml_id": "ETABLISSEMENTS_POLLUEURS.591892", "identifiant": "0053800505", "idetab": "591892", "nom": "POPY", "codeape": "1013A", "cp": "38070" }, "geometry": { "type": "Point", "coordinates": [ 5.11944, 45.64281 ] } },
{ "type": "Feature", "properties": { "gml_id": "ETABLISSEMENTS_POLLUEURS.588278", "identifiant": "0053800506", "idetab": "588278", "nom": "KUEHNE+NAGEL", "codeape": "4941B", "cp": "38070" }, "geometry": { "type": "Point", "coordinates": [ 5.12177, 45.64699 ] } },
{ "type": "Feature", "properties": { "gml_id": "ETABLISSEMENTS_POLLUEURS.11448", "identifiant": "0053800509", "idetab": "11448", "nom": "SOCIETE D'EXPLOITATION MUTUALISEE ISEROISE DE DISTRIBUTION D'EAU, D'ASSAINISSEMENT ET D'ORDURES MENAGERES", "codeape": "3700Z", "cp": "38070" }, "geometry": { "type": "Point", "coordinates": [ 5.10569, 45.63168 ] } },
{ "type": "Feature", "properties": { "gml_id": "ETABLISSEMENTS_POLLUEURS.591806", "identifiant": "0073844901", "idetab": "591806", "nom": "STEP VILLEFONTAINE/TRAFFEYERE", "codeape": "3700Z", "cp": "38070" }, "geometry": { "type": "Point", "coordinates": [ 5.1377, 45.658263 ] } },
{ "type": "Feature", "properties": { "gml_id": "ETABLISSEMENTS_POLLUEURS.3487", "identifiant": "0010700011", "idetab": "3487", "nom": "BOLLHOFF OTALU", "codeape": "2594Z", "cp": "73490" }, "geometry": { "type": "Point", "coordinates": [ 5.96049, 45.54172 ] } },
{ "type": "Feature", "properties": { "gml_id": "ETABLISSEMENTS_POLLUEURS.7898", "identifiant": "0006104421", "idetab": "7898", "nom": "VICAT USINE DE MONTAGNOLE", "codeape": "2351Z", "cp": "73000" }, "geometry": { "type": "Point", "coordinates": [ 5.919967, 45.542403 ] } },
{ "type": "Feature", "properties": { "gml_id": "ETABLISSEMENTS_POLLUEURS.1614", "identifiant": "0006104357", "idetab": "1614", "nom": "RUBANOX CHAMBERY", "codeape": "274D", "cp": "73004" }, "geometry": { "type": "Point", "coordinates": [ 5.920787, 45.566287 ] } },
{ "type": "Feature", "properties": { "gml_id": "ETABLISSEMENTS_POLLUEURS.3491", "identifiant": "0010700152", "idetab": "3491", "nom": "SAINT-GOBAIN VETROTEX FRANCE ETABLISSEMENT TEXTILE", "codeape": "261G", "cp": "73000" }, "geometry": { "type": "Point", "coordinates": [ 5.9166, 45.569528 ] } },
{ "type": "Feature", "properties": { "gml_id": "ETABLISSEMENTS_POLLUEURS.5594", "identifiant": "0010700145", "idetab": "5594", "nom": "VALDELEC SAS", "codeape": "372Z", "cp": "73000" }, "geometry": { "type": "Point", "coordinates": [ 5.9166, 45.569528 ] } },
{ "type": "Feature", "properties": { "gml_id": "ETABLISSEMENTS_POLLUEURS.11665", "identifiant": "0006104356", "idetab": "11665", "nom": "SUEZ RV CENTRE EST", "codeape": "3821Z", "cp": "73000" }, "geometry": { "type": "Point", "coordinates": [ 5.90329, 45.57003 ] } },
{ "type": "Feature", "properties": { "gml_id": "ETABLISSEMENTS_POLLUEURS.598708", "identifiant": "0003200726", "idetab": "598708", "nom": "EXCOFFIER RECYCLAGE", "codeape": "3832Z", "cp": "73230" }, "geometry": { "type": "Point", "coordinates": [ 5.95966, 45.57391 ] } },
{ "type": "Feature", "properties": { "gml_id": "ETABLISSEMENTS_POLLUEURS.591942", "identifiant": "0006104337", "idetab": "591942", "nom": "RESEAU DE CHALEUR DE LA CLUSE DE CHAMBERY R3C", "codeape": "3511Z", "cp": "73000" }, "geometry": { "type": "Point", "coordinates": [ 5.9358, 45.57403 ] } },
{ "type": "Feature", "properties": { "gml_id": "ETABLISSEMENTS_POLLUEURS.589237", "identifiant": "0009000309", "idetab": "589237", "nom": "13IÈME BATAILLON DE CHASSEURS ALPINS", "codeape": "8422Z", "cp": "73230" }, "geometry": { "type": "Point", "coordinates": [ 5.98131, 45.57478 ] } },
{ "type": "Feature", "properties": { "gml_id": "ETABLISSEMENTS_POLLUEURS.4524", "identifiant": "0006104363", "idetab": "4524", "nom": "OCV CHAMBERY INTERNATIONAL", "codeape": "7219Z", "cp": "73009" }, "geometry": { "type": "Point", "coordinates": [ 5.91449, 45.57652 ] } },
{ "type": "Feature", "properties": { "gml_id": "ETABLISSEMENTS_POLLUEURS.592074", "identifiant": "0010700135", "idetab": "592074", "nom": "INITIAL", "codeape": "9601A", "cp": "73000" }, "geometry": { "type": "Point", "coordinates": [ 5.91477, 45.57875 ] } },
{ "type": "Feature", "properties": { "gml_id": "ETABLISSEMENTS_POLLUEURS.1616", "identifiant": "0006104364", "idetab": "1616", "nom": "OCV CHAMBERY (USINE C)", "codeape": "2314Z", "cp": "73009" }, "geometry": { "type": "Point", "coordinates": [ 5.904191, 45.579687 ] } },
{ "type": "Feature", "properties": { "gml_id": "ETABLISSEMENTS_POLLUEURS.3489", "identifiant": "0010700129", "idetab": "3489", "nom": "IVECO CAMIVA", "codeape": "2910Z", "cp": "73231" }, "geometry": { "type": "Point", "coordinates": [ 5.956739, 45.580557 ] } },
{ "type": "Feature", "properties": { "gml_id": "ETABLISSEMENTS_POLLUEURS.3490", "identifiant": "0010700150", "idetab": "3490", "nom": "OCV CHAMBERY(USINE B)", "codeape": "2314Z", "cp": "73000" }, "geometry": { "type": "Point", "coordinates": [ 5.909005, 45.58274 ] } },
{ "type": "Feature", "properties": { "gml_id": "ETABLISSEMENTS_POLLUEURS.11678", "identifiant": "0006109146", "idetab": "11678", "nom": "FYSOL SAS", "codeape": "2314Z", "cp": "73000" }, "geometry": { "type": "Point", "coordinates": [ 5.90196, 45.5831 ] } },
{ "type": "Feature", "properties": { "gml_id": "ETABLISSEMENTS_POLLUEURS.4525", "identifiant": "0006104367", "idetab": "4525", "nom": "PLACOPLATRE", "codeape": "2351Z", "cp": "73000" }, "geometry": { "type": "Point", "coordinates": [ 5.89007, 45.5834 ] } },
{ "type": "Feature", "properties": { "gml_id": "ETABLISSEMENTS_POLLUEURS.14123", "identifiant": "0006104355", "idetab": "14123", "nom": "TRIALP", "codeape": "3832Z", "cp": "73000" }, "geometry": { "type": "Point", "coordinates": [ 5.89393, 45.58455 ] } },
{ "type": "Feature", "properties": { "gml_id": "ETABLISSEMENTS_POLLUEURS.591306", "identifiant": "0003201890", "idetab": "591306", "nom": "SAVOIE DECHETS", "codeape": "3821Z", "cp": "73000" }, "geometry": { "type": "Point", "coordinates": [ 5.89393, 45.58455 ] } },
{ "type": "Feature", "properties": { "gml_id": "ETABLISSEMENTS_POLLUEURS.1618", "identifiant": "0006104373", "idetab": "1618", "nom": "RESEAU DE CHALEUR DE LA CLUSE DE CHAMBERY R3C", "codeape": "3530Z", "cp": "73000" }, "geometry": { "type": "Point", "coordinates": [ 5.8959, 45.58739 ] } },
{ "type": "Feature", "properties": { "gml_id": "ETABLISSEMENTS_POLLUEURS.595132", "identifiant": "0009077301", "idetab": "595132", "nom": "GRAND CHAMBERY", "codeape": "8411Z", "cp": "73000" }, "geometry": { "type": "Point", "coordinates": [ 5.89957, 45.58819 ] } },
{ "type": "Feature", "properties": { "gml_id": "ETABLISSEMENTS_POLLUEURS.1617", "identifiant": "0006104372", "idetab": "1617", "nom": "RESEAU DE CHALEUR DE LA CLUSE DE CHAMBERY R3C", "codeape": "3511Z", "cp": "73000" }, "geometry": { "type": "Point", "coordinates": [ 5.9226, 45.58963 ] } },
{ "type": "Feature", "properties": { "gml_id": "ETABLISSEMENTS_POLLUEURS.1615", "identifiant": "0006104358", "idetab": "1615", "nom": "SAVOIE DECHETS", "codeape": "3821Z", "cp": "73000" }, "geometry": { "type": "Point", "coordinates": [ 5.89551, 45.59021 ] } },
{ "type": "Feature", "properties": { "gml_id": "ETABLISSEMENTS_POLLUEURS.3486", "identifiant": "0010700009", "idetab": "3486", "nom": "EWELLIX FRANCE", "codeape": "2815Z", "cp": "73000" }, "geometry": { "type": "Point", "coordinates": [ 5.89251, 45.59074 ] } },
{ "type": "Feature", "properties": { "gml_id": "ETABLISSEMENTS_POLLUEURS.3492", "identifiant": "0010700258", "idetab": "3492", "nom": "HEF-DURFERRIT", "codeape": "2562B", "cp": "73290" }, "geometry": { "type": "Point", "coordinates": [ 5.88674, 45.5961 ] } },
{ "type": "Feature", "properties": { "gml_id": "ETABLISSEMENTS_POLLUEURS.3488", "identifiant": "0010700012", "idetab": "3488", "nom": "ROUTIN", "codeape": "1107B", "cp": "73290" }, "geometry": { "type": "Point", "coordinates": [ 5.88053, 45.60173 ] } },
{ "type": "Feature", "properties": { "gml_id": "ETABLISSEMENTS_POLLUEURS.11677", "identifiant": "0006108960", "idetab": "11677", "nom": "CHAMBERY METROPOLE (COMPOSTAGE)", "codeape": "3821Z", "cp": "73000" }, "geometry": { "type": "Point", "coordinates": [ 5.89543, 45.614522 ] } },
{ "type": "Feature", "properties": { "gml_id": "ETABLISSEMENTS_POLLUEURS.1619", "identifiant": "0006104374", "idetab": "1619", "nom": "MITHIEUX", "codeape": "2561Z", "cp": "73000" }, "geometry": { "type": "Point", "coordinates": [ 5.88662, 45.6146 ] } },
{ "type": "Feature", "properties": { "gml_id": "ETABLISSEMENTS_POLLUEURS.12893", "identifiant": "0006104514", "idetab": "12893", "nom": "ENROBES ALPINS", "codeape": "2399Z", "cp": "73420" }, "geometry": { "type": "Point", "coordinates": [ 5.89587, 45.63075 ] } },
{ "type": "Feature", "properties": { "gml_id": "ETABLISSEMENTS_POLLUEURS.14136", "identifiant": "0006109053", "idetab": "14136", "nom": "COMMISSARIAT A L' ENERGIE ATOMIQUE ET AUX ENERGIES ALTERNATIVES", "codeape": "7219Z", "cp": "73370" }, "geometry": { "type": "Point", "coordinates": [ 5.87551, 45.64282 ] } },
{ "type": "Feature", "properties": { "gml_id": "ETABLISSEMENTS_POLLUEURS.12497", "identifiant": "0010700539", "idetab": "12497", "nom": "CEMOI CONFISEUR", "codeape": "1082Z", "cp": "73000" }, "geometry": { "type": "Point", "coordinates": [ 5.89383, 45.59204 ] } },
{ "type": "Feature", "properties": { "gml_id": "ETABLISSEMENTS_POLLUEURS.595039", "identifiant": "0010700582", "idetab": "595039", "nom": "AXIA POUGET", "codeape": "3832Z", "cp": "73800" }, "geometry": { "type": "Point", "coordinates": [ 5.97825, 45.49898 ] } },
{ "type": "Feature", "properties": { "gml_id": "ETABLISSEMENTS_POLLUEURS.595820", "identifiant": "0057300361", "idetab": "595820", "nom": "SAVOIE OEUF", "codeape": "0147Z", "cp": "73000" }, "geometry": { "type": "Point", "coordinates": [ 5.91867, 45.62284 ] } },
{ "type": "Feature", "properties": { "gml_id": "ETABLISSEMENTS_POLLUEURS.5779", "identifiant": "73288010", "idetab": "5779", "nom": "SCEA DES 3B", "codeape": "012G", "cp": "73000" }, "geometry": { "type": "Point", "coordinates": [ 5.917944, 45.624075 ] } },
{ "type": "Feature", "properties": { "gml_id": "ETABLISSEMENTS_POLLUEURS.591685", "identifiant": "0010400253", "idetab": "591685", "nom": "DISTRIBUTION SERVICES IKEA FRANCE", "codeape": "5210B", "cp": "38070" }, "geometry": { "type": "Point", "coordinates": [ 5.09689, 45.66449 ] } },
{ "type": "Feature", "properties": { "gml_id": "ETABLISSEMENTS_POLLUEURS.598144", "identifiant": "0010400357", "idetab": "598144", "nom": "SCI PROLOGIS FRANCE CXXXI ( A )", "codeape": "6820B", "cp": "38070" }, "geometry": { "type": "Point", "coordinates": [ 5.1121, 45.66279 ] } },
{ "type": "Feature", "properties": { "gml_id": "ETABLISSEMENTS_POLLUEURS.598180", "identifiant": "0003202977", "idetab": "598180", "nom": "DU PARADIS", "codeape": "6820B", "cp": "38290" }, "geometry": { "type": "Point", "coordinates": [ 5.14382, 45.64471 ] } },
{ "type": "Feature", "properties": { "gml_id": "ETABLISSEMENTS_POLLUEURS.11437", "identifiant": "0010400250", "idetab": "11437", "nom": "AGRONATURE", "codeape": "2015Z", "cp": "38460" }, "geometry": { "type": "Point", "coordinates": [ 5.206488, 45.678491 ] } },
{ "type": "Feature", "properties": { "gml_id": "ETABLISSEMENTS_POLLUEURS.592683", "identifiant": "0009073801", "idetab": "592683", "nom": "SOCIETE D'EXPLOITATION MUTUALISEE ISEROISE DE DISTRIBUTION D'EAU, D'ASSAINISSEMENT ET D'ORDURES MENAGERES", "codeape": "3700Z", "cp": "38300" }, "geometry": { "type": "Point", "coordinates": [ 5.25186, 45.60321 ] } },
{ "type": "Feature", "properties": { "gml_id": "ETABLISSEMENTS_POLLUEURS.1381", "identifiant": "0006102880", "idetab": "1381", "nom": "EZT", "codeape": "2825Z", "cp": "38460" }, "geometry": { "type": "Point", "coordinates": [ 5.253394, 45.723429 ] } },
{ "type": "Feature", "properties": { "gml_id": "ETABLISSEMENTS_POLLUEURS.587908", "identifiant": "0006108765", "idetab": "587908", "nom": "ARC EN CIEL RECYCLAGE", "codeape": "3832Z", "cp": "38300" }, "geometry": { "type": "Point", "coordinates": [ 5.2537, 45.59895 ] } },
{ "type": "Feature", "properties": { "gml_id": "ETABLISSEMENTS_POLLUEURS.9329", "identifiant": "0010400392", "idetab": "9329", "nom": "SI TRAITEMENT ORDURE MENAGERE NORD-ISERE", "codeape": "3821Z", "cp": "38300" }, "geometry": { "type": "Point", "coordinates": [ 5.26072, 45.59613 ] } },
{ "type": "Feature", "properties": { "gml_id": "ETABLISSEMENTS_POLLUEURS.12912", "identifiant": "0006108404", "idetab": "12912", "nom": "SUEZ RV CENTRE EST VALORISATION", "codeape": "3832Z", "cp": "38300" }, "geometry": { "type": "Point", "coordinates": [ 5.2608, 45.59753 ] } },
{ "type": "Feature", "properties": { "gml_id": "ETABLISSEMENTS_POLLUEURS.4423", "identifiant": "0006102822", "idetab": "4423", "nom": "PCAS", "codeape": "2014Z", "cp": "38300" }, "geometry": { "type": "Point", "coordinates": [ 5.26168, 45.59513 ] } },
{ "type": "Feature", "properties": { "gml_id": "ETABLISSEMENTS_POLLUEURS.9325", "identifiant": "0010400068", "idetab": "9325", "nom": "EDF ENR PWT", "codeape": "2611Z", "cp": "38307" }, "geometry": { "type": "Point", "coordinates": [ 5.2636, 45.60745 ] } },
{ "type": "Feature", "properties": { "gml_id": "ETABLISSEMENTS_POLLUEURS.589661", "identifiant": "0006101060", "idetab": "589661", "nom": "XELLA THERMOPIERRE", "codeape": "2361Z", "cp": "38300" }, "geometry": { "type": "Point", "coordinates": [ 5.27836, 45.63923 ] } },
{ "type": "Feature", "properties": { "gml_id": "ETABLISSEMENTS_POLLUEURS.1365", "identifiant": "0006102817", "idetab": "1365", "nom": "BALAY SA", "codeape": "172G", "cp": "38300" }, "geometry": { "type": "Point", "coordinates": [ 5.278933, 45.589484 ] } },
{ "type": "Feature", "properties": { "gml_id": "ETABLISSEMENTS_POLLUEURS.3466", "identifiant": "0010400110", "idetab": "3466", "nom": "USINE D'INCINÉRATION DES ORDURES MÉNAGÈRES AU SITOM NORD ISÈRE", "codeape": "900B", "cp": "38314" }, "geometry": { "type": "Point", "coordinates": [ 5.278933, 45.589484 ] } },
{ "type": "Feature", "properties": { "gml_id": "ETABLISSEMENTS_POLLUEURS.1366", "identifiant": "0006102819", "idetab": "1366", "nom": "GAUDIN TEINTURES ET APPRETS GTA", "codeape": "1330Z", "cp": "38300" }, "geometry": { "type": "Point", "coordinates": [ 5.2873, 45.58634 ] } },
{ "type": "Feature", "properties": { "gml_id": "ETABLISSEMENTS_POLLUEURS.4422", "identifiant": "0006102818", "idetab": "4422", "nom": "PATHEON FRANCE", "codeape": "2120Z", "cp": "38307" }, "geometry": { "type": "Point", "coordinates": [ 5.2926, 45.58769 ] } },
{ "type": "Feature", "properties": { "gml_id": "ETABLISSEMENTS_POLLUEURS.599265", "identifiant": "0006103172", "idetab": "599265", "nom": "XELLA THERMOPIERRE", "codeape": "2361Z", "cp": "38300" }, "geometry": { "type": "Point", "coordinates": [ 5.29664, 45.63289 ] } },
{ "type": "Feature", "properties": { "gml_id": "ETABLISSEMENTS_POLLUEURS.10424", "identifiant": "0073805301", "idetab": "10424", "nom": "STATION D'ÉPURATION", "codeape": "3700Z", "cp": "38300" }, "geometry": { "type": "Point", "coordinates": [ 5.251862, 45.603215 ] } },
{ "type": "Feature", "properties": { "gml_id": "ETABLISSEMENTS_POLLUEURS.7884", "identifiant": "0006102795", "idetab": "7884", "nom": "AOSTE", "codeape": "1013A", "cp": "38490" }, "geometry": { "type": "Point", "coordinates": [ 5.606866, 45.587458 ] } },
{ "type": "Feature", "properties": { "gml_id": "ETABLISSEMENTS_POLLUEURS.1629", "identifiant": "0006104459", "idetab": "1629", "nom": "TECHCI RHONES ALPES", "codeape": "2611Z", "cp": "73240" }, "geometry": { "type": "Point", "coordinates": [ 5.65669, 45.59569 ] } },
{ "type": "Feature", "properties": { "gml_id": "ETABLISSEMENTS_POLLUEURS.1450", "identifiant": "0006103224", "idetab": "1450", "nom": "PAPETERIE DE FURES", "codeape": "1712Z", "cp": "38210" }, "geometry": { "type": "Point", "coordinates": [ 5.601133, 45.600683 ] } },
{ "type": "Feature", "properties": { "gml_id": "ETABLISSEMENTS_POLLUEURS.4528", "identifiant": "0006104405", "idetab": "4528", "nom": "R.E.S.", "codeape": "2561Z", "cp": "73240" }, "geometry": { "type": "Point", "coordinates": [ 5.685458, 45.61013 ] } },
{ "type": "Feature", "properties": { "gml_id": "ETABLISSEMENTS_POLLUEURS.588743", "identifiant": "0006101577", "idetab": "588743", "nom": "GAVEND CARRIERES", "codeape": "7010Z", "cp": "73470" }, "geometry": { "type": "Point", "coordinates": [ 5.76894, 45.62448 ] } },
{ "type": "Feature", "properties": { "gml_id": "ETABLISSEMENTS_POLLUEURS.6601", "identifiant": "0006104381", "idetab": "6601", "nom": "BLANCHIN", "codeape": "172J", "cp": "73240" }, "geometry": { "type": "Point", "coordinates": [ 5.67, 45.630002 ] } },
{ "type": "Feature", "properties": { "gml_id": "ETABLISSEMENTS_POLLUEURS.1301", "identifiant": "0006102217", "idetab": "1301", "nom": "PLANTIN SAS", "codeape": "2611Z", "cp": "01300" }, "geometry": { "type": "Point", "coordinates": [ 5.591886, 45.691779 ] } },
{ "type": "Feature", "properties": { "gml_id": "ETABLISSEMENTS_POLLUEURS.591991", "identifiant": "0006102195", "idetab": "591991", "nom": "OXYANE", "codeape": "4621Z", "cp": "01300" }, "geometry": { "type": "Point", "coordinates": [ 5.68711, 45.69188 ] } },
{ "type": "Feature", "properties": { "gml_id": "ETABLISSEMENTS_POLLUEURS.593860", "identifiant": "0006100040", "idetab": "593860", "nom": "GRACE & PICCINO", "codeape": "0812Z", "cp": "01300" }, "geometry": { "type": "Point", "coordinates": [ 5.67416, 45.69857 ] } },
{ "type": "Feature", "properties": { "gml_id": "ETABLISSEMENTS_POLLUEURS.4374", "identifiant": "0006102007", "idetab": "4374", "nom": "VOLVO COMPACT EQUIPMENT SA", "codeape": "2892Z", "cp": "01300" }, "geometry": { "type": "Point", "coordinates": [ 5.69881, 45.75532 ] } },
{ "type": "Feature", "properties": { "gml_id": "ETABLISSEMENTS_POLLUEURS.1273", "identifiant": "0006102009", "idetab": "1273", "nom": "UGIVIS", "codeape": "2594Z", "cp": "01301" }, "geometry": { "type": "Point", "coordinates": [ 5.686557, 45.761053 ] } },
{ "type": "Feature", "properties": { "gml_id": "ETABLISSEMENTS_POLLUEURS.1274", "identifiant": "0006102010", "idetab": "1274", "nom": "CIAT ECHANGEURS", "codeape": "2825Z", "cp": "01300" }, "geometry": { "type": "Point", "coordinates": [ 5.686557, 45.761053 ] } },
{ "type": "Feature", "properties": { "gml_id": "ETABLISSEMENTS_POLLUEURS.4378", "identifiant": "0006102073", "idetab": "4378", "nom": "SOCIETE METALLURGIQUE D'EPERNAY", "codeape": "3832Z", "cp": "01350" }, "geometry": { "type": "Point", "coordinates": [ 5.78009, 45.84521 ] } },
{ "type": "Feature", "properties": { "gml_id": "ETABLISSEMENTS_POLLUEURS.1286", "identifiant": "0006102074", "idetab": "1286", "nom": "CARRIER CULOZ SA", "codeape": "2825Z", "cp": "01350" }, "geometry": { "type": "Point", "coordinates": [ 5.78551, 45.84895 ] } },
{ "type": "Feature", "properties": { "gml_id": "ETABLISSEMENTS_POLLUEURS.591455", "identifiant": "0006107033", "idetab": "591455", "nom": "CONDITIONNEMENT DECHETS BETON", "codeape": "2361Z", "cp": "01260" }, "geometry": { "type": "Point", "coordinates": [ 5.670264, 45.866887 ] } },
{ "type": "Feature", "properties": { "gml_id": "ETABLISSEMENTS_POLLUEURS.597326", "identifiant": "0003201548", "idetab": "597326", "nom": "VALROMETHA", "codeape": "3511Z", "cp": "01260" }, "geometry": { "type": "Point", "coordinates": [ 5.67785, 45.90379 ] } },
{ "type": "Feature", "properties": { "gml_id": "ETABLISSEMENTS_POLLUEURS.1266", "identifiant": "0006101980", "idetab": "1266", "nom": "FERROGLOBE FRANCE", "codeape": "2410Z", "cp": "01350" }, "geometry": { "type": "Point", "coordinates": [ 5.81144, 45.9061 ] } },
{ "type": "Feature", "properties": { "gml_id": "ETABLISSEMENTS_POLLUEURS.588828", "identifiant": "0006114882", "idetab": "588828", "nom": "COMMUNE DE MOTZ", "codeape": "8411Z", "cp": "73310" }, "geometry": { "type": "Point", "coordinates": [ 5.84479, 45.91913 ] } },
{ "type": "Feature", "properties": { "gml_id": "ETABLISSEMENTS_POLLUEURS.588830", "identifiant": "0006114911", "idetab": "588830", "nom": "GAVEND T.P.", "codeape": "4312A", "cp": "73240" }, "geometry": { "type": "Point", "coordinates": [ 5.72549, 45.58052 ] } },
{ "type": "Feature", "properties": { "gml_id": "ETABLISSEMENTS_POLLUEURS.588832", "identifiant": "0006114916", "idetab": "588832", "nom": "SOCIETE DE RECYCLAGE DES MATERIAUX DE SAVOIE", "codeape": "3832Z", "cp": "73370" }, "geometry": { "type": "Point", "coordinates": [ 5.85111, 45.65619 ] } },
{ "type": "Feature", "properties": { "gml_id": "ETABLISSEMENTS_POLLUEURS.588835", "identifiant": "0006114940", "idetab": "588835", "nom": "SOCIETE DE RECYCLAGE DES MATERIAUX DE SAVOIE", "codeape": "3832Z", "cp": "73290" }, "geometry": { "type": "Point", "coordinates": [ 5.85439, 45.60112 ] } },
{ "type": "Feature", "properties": { "gml_id": "ETABLISSEMENTS_POLLUEURS.7246", "identifiant": "0010100075", "idetab": "7246", "nom": "GRINAND", "codeape": "2932Z", "cp": "01300" }, "geometry": { "type": "Point", "coordinates": [ 5.686557, 45.761053 ] } },
{ "type": "Feature", "properties": { "gml_id": "ETABLISSEMENTS_POLLUEURS.10306", "identifiant": "0010100214", "idetab": "10306", "nom": "UGIVIS", "codeape": "2594Z", "cp": "01300" }, "geometry": { "type": "Point", "coordinates": [ 5.70584, 45.76068 ] } },
{ "type": "Feature", "properties": { "gml_id": "ETABLISSEMENTS_POLLUEURS.13791", "identifiant": "0010100233", "idetab": "13791", "nom": "SME-ENVIRONNEMENT", "codeape": "3811Z", "cp": "01300" }, "geometry": { "type": "Point", "coordinates": [ 5.69217, 45.77591 ] } },
{ "type": "Feature", "properties": { "gml_id": "ETABLISSEMENTS_POLLUEURS.3459", "identifiant": "0010400051", "idetab": "3459", "nom": "HEXCEL REINFORCEMENTS", "codeape": "1320Z", "cp": "38630" }, "geometry": { "type": "Point", "coordinates": [ 5.57465, 45.64675 ] } },
{ "type": "Feature", "properties": { "gml_id": "ETABLISSEMENTS_POLLUEURS.11149", "identifiant": "0010700681", "idetab": "11149", "nom": "ONDEO INDUSTRIAL SOLUTIONS", "codeape": "3700Z", "cp": "73240" }, "geometry": { "type": "Point", "coordinates": [ 5.667948, 45.623556 ] } },
{ "type": "Feature", "properties": { "gml_id": "ETABLISSEMENTS_POLLUEURS.591998", "identifiant": "0050100066", "idetab": "591998", "nom": "FROMAGERIE GUILLOTEAU", "codeape": "1051C", "cp": "01300" }, "geometry": { "type": "Point", "coordinates": [ 5.694, 45.75 ] } },
{ "type": "Feature", "properties": { "gml_id": "ETABLISSEMENTS_POLLUEURS.589354", "identifiant": "0050100530", "idetab": "589354", "nom": "ALAIN MALOD", "codeape": "0147Z", "cp": "01300" }, "geometry": { "type": "Point", "coordinates": [ 5.6702, 45.64128 ] } },
{ "type": "Feature", "properties": { "gml_id": "ETABLISSEMENTS_POLLUEURS.595819", "identifiant": "0050100929", "idetab": "595819", "nom": "BELL FRANCE", "codeape": "1013A", "cp": "01510" }, "geometry": { "type": "Point", "coordinates": [ 5.66168, 45.83752 ] } },
{ "type": "Feature", "properties": { "gml_id": "ETABLISSEMENTS_POLLUEURS.594933", "identifiant": "0053800011", "idetab": "594933", "nom": "AOSTE SNC OU A SNC", "codeape": "1013A", "cp": "38490" }, "geometry": { "type": "Point", "coordinates": [ 5.62068, 45.60537 ] } },
{ "type": "Feature", "properties": { "gml_id": "ETABLISSEMENTS_POLLUEURS.14099", "identifiant": "0006101476", "idetab": "14099", "nom": "CEMEX GRANULATS RHONE MEDITERRANEE", "codeape": "0812Z", "cp": "69780" }, "geometry": { "type": "Point", "coordinates": [ 5.02561, 45.66678 ] } },
{ "type": "Feature", "properties": { "gml_id": "ETABLISSEMENTS_POLLUEURS.10315", "identifiant": "0010600343", "idetab": "10315", "nom": "SARPI THINKTECH", "codeape": "3900Z", "cp": "69780" }, "geometry": { "type": "Point", "coordinates": [ 5.01067, 45.66689 ] } },
{ "type": "Feature", "properties": { "gml_id": "ETABLISSEMENTS_POLLUEURS.589286", "identifiant": "0010600333", "idetab": "589286", "nom": "KUEHNE+NAGEL", "codeape": "4941B", "cp": "69780" }, "geometry": { "type": "Point", "coordinates": [ 5.01702, 45.66728 ] } },
{ "type": "Feature", "properties": { "gml_id": "ETABLISSEMENTS_POLLUEURS.591447", "identifiant": "0006101477", "idetab": "591447", "nom": "LES CARRIERES DU CHEVAL BLANC", "codeape": "0812Z", "cp": "69780" }, "geometry": { "type": "Point", "coordinates": [ 5.01912, 45.66745 ] } },
{ "type": "Feature", "properties": { "gml_id": "ETABLISSEMENTS_POLLUEURS.598474", "identifiant": "0010400081", "idetab": "598474", "nom": "PROLOGIS FRANCE LXXX EURL", "codeape": "6820B", "cp": "38070" }, "geometry": { "type": "Point", "coordinates": [ 5.10449, 45.6677 ] } },
{ "type": "Feature", "properties": { "gml_id": "ETABLISSEMENTS_POLLUEURS.598143", "identifiant": "0010400082", "idetab": "598143", "nom": "PROLOGIS FRANCE II EURL", "codeape": "6820B", "cp": "38070" }, "geometry": { "type": "Point", "coordinates": [ 5.10201, 45.66787 ] } },
{ "type": "Feature", "properties": { "gml_id": "ETABLISSEMENTS_POLLUEURS.587920", "identifiant": "0006112256", "idetab": "587920", "nom": "SIKA FRANCE", "codeape": "3320C", "cp": "69780" }, "geometry": { "type": "Point", "coordinates": [ 5.00667, 45.66801 ] } },
{ "type": "Feature", "properties": { "gml_id": "ETABLISSEMENTS_POLLUEURS.589675", "identifiant": "0006104066", "idetab": "589675", "nom": "EU.REC ENVIRONNEMENT", "codeape": "3832Z", "cp": "69780" }, "geometry": { "type": "Point", "coordinates": [ 5.01017, 45.6701 ] } },
{ "type": "Feature", "properties": { "gml_id": "ETABLISSEMENTS_POLLUEURS.597887", "identifiant": "0010400126", "idetab": "597887", "nom": "PROLOGIS FRANCE XII EURL", "codeape": "6831Z", "cp": "38290" }, "geometry": { "type": "Point", "coordinates": [ 5.10724, 45.67067 ] } },
{ "type": "Feature", "properties": { "gml_id": "ETABLISSEMENTS_POLLUEURS.598145", "identifiant": "0010400216", "idetab": "598145", "nom": "PROLOGIS FRANCE XLI EURL", "codeape": "6810Z", "cp": "38290" }, "geometry": { "type": "Point", "coordinates": [ 5.12533, 45.67125 ] } },
{ "type": "Feature", "properties": { "gml_id": "ETABLISSEMENTS_POLLUEURS.598051", "identifiant": "0010400720", "idetab": "598051", "nom": "PROLOGIS CHESNES NORD", "codeape": "6820B", "cp": "38290" }, "geometry": { "type": "Point", "coordinates": [ 5.10812, 45.67355 ] } },
{ "type": "Feature", "properties": { "gml_id": "ETABLISSEMENTS_POLLUEURS.10647", "identifiant": "0006101466", "idetab": "10647", "nom": "CARRIERES DE SAINT LAURENT", "codeape": "0812Z", "cp": "69720" }, "geometry": { "type": "Point", "coordinates": [ 5.02855, 45.67371 ] } },
{ "type": "Feature", "properties": { "gml_id": "ETABLISSEMENTS_POLLUEURS.588761", "identifiant": "0006107947", "idetab": "588761", "nom": "SOC D'EXPLOITATION DES ETS MARTEL", "codeape": "4312A", "cp": "69720" }, "geometry": { "type": "Point", "coordinates": [ 5.01494, 45.67383 ] } },
{ "type": "Feature", "properties": { "gml_id": "ETABLISSEMENTS_POLLUEURS.14098", "identifiant": "0006101473", "idetab": "14098", "nom": "CARRIERES DU BASSIN RHONALPIN", "codeape": "0812Z", "cp": "69720" }, "geometry": { "type": "Point", "coordinates": [ 5.00295, 45.67573 ] } },
{ "type": "Feature", "properties": { "gml_id": "ETABLISSEMENTS_POLLUEURS.598146", "identifiant": "0010400125", "idetab": "598146", "nom": "PROLOGIS FRANCE CLXVII EURL", "codeape": "6420Z", "cp": "38290" }, "geometry": { "type": "Point", "coordinates": [ 5.10493, 45.67757 ] } },
{ "type": "Feature", "properties": { "gml_id": "ETABLISSEMENTS_POLLUEURS.587872", "identifiant": "0006101463", "idetab": "587872", "nom": "LAFARGE GRANULATS", "codeape": "0812Z", "cp": "69720" }, "geometry": { "type": "Point", "coordinates": [ 5.01582, 45.67848 ] } },
{ "type": "Feature", "properties": { "gml_id": "ETABLISSEMENTS_POLLUEURS.589284", "identifiant": "0010600216", "idetab": "589284", "nom": "EASYDIS SLM1 - ENTREPÔT A", "codeape": "5210B", "cp": "69720" }, "geometry": { "type": "Point", "coordinates": [ 5.043591, 45.684406 ] } },
{ "type": "Feature", "properties": { "gml_id": "ETABLISSEMENTS_POLLUEURS.13402", "identifiant": "0010600136", "idetab": "13402", "nom": "JPR METAL COMPANY", "codeape": "3832Z", "cp": "69720" }, "geometry": { "type": "Point", "coordinates": [ 5.063113, 45.68539 ] } },
{ "type": "Feature", "properties": { "gml_id": "ETABLISSEMENTS_POLLUEURS.14140", "identifiant": "0006110435", "idetab": "14140", "nom": "MERSEN FRANCE SB", "codeape": "2712Z", "cp": "69720" }, "geometry": { "type": "Point", "coordinates": [ 5.02499, 45.687221 ] } },
{ "type": "Feature", "properties": { "gml_id": "ETABLISSEMENTS_POLLUEURS.1445", "identifiant": "0006103196", "idetab": "1445", "nom": "SUEZ RV CENTRE EST", "codeape": "3821Z", "cp": "38290" }, "geometry": { "type": "Point", "coordinates": [ 5.13546, 45.69273 ] } },
{ "type": "Feature", "properties": { "gml_id": "ETABLISSEMENTS_POLLUEURS.10648", "identifiant": "0006101492", "idetab": "10648", "nom": "CARRIERES & MATERIAUX SUD-EST - CMSE", "codeape": "0812Z", "cp": "69124" }, "geometry": { "type": "Point", "coordinates": [ 5.081346, 45.699279 ] } },
{ "type": "Feature", "properties": { "gml_id": "ETABLISSEMENTS_POLLUEURS.588235", "identifiant": "0010600428", "idetab": "588235", "nom": "ABS-AUTOPIECES", "codeape": "3831Z", "cp": "69720" }, "geometry": { "type": "Point", "coordinates": [ 5.00571, 45.700946 ] } },
{ "type": "Feature", "properties": { "gml_id": "ETABLISSEMENTS_POLLUEURS.589676", "identifiant": "0006104123", "idetab": "589676", "nom": "ECO METAL RECYCLAGE INDUSTRIE", "codeape": "3832Z", "cp": "69124" }, "geometry": { "type": "Point", "coordinates": [ 5.1187, 45.70483 ] } },
{ "type": "Feature", "properties": { "gml_id": "ETABLISSEMENTS_POLLUEURS.1594", "identifiant": "0006104126", "idetab": "1594", "nom": "GRAVCO", "codeape": "0812Z", "cp": "69124" }, "geometry": { "type": "Point", "coordinates": [ 5.111061, 45.713031 ] } },
{ "type": "Feature", "properties": { "gml_id": "ETABLISSEMENTS_POLLUEURS.6597", "identifiant": "0006104127", "idetab": "6597", "nom": "STOCKAGE CARBURANT AVIATION LYON", "codeape": "5210B", "cp": "69125" }, "geometry": { "type": "Point", "coordinates": [ 5.0725, 45.71928 ] } },
{ "type": "Feature", "properties": { "gml_id": "ETABLISSEMENTS_POLLUEURS.591453", "identifiant": "0006104055", "idetab": "591453", "nom": "S.A.S. HENRI BOUCHAUD", "codeape": "3832Z", "cp": "69720" }, "geometry": { "type": "Point", "coordinates": [ 5.05388, 45.71976 ] } },
{ "type": "Feature", "properties": { "gml_id": "ETABLISSEMENTS_POLLUEURS.1595", "identifiant": "0006104128", "idetab": "1595", "nom": "AEROPORTS DE LYON", "codeape": "5223Z", "cp": "69125" }, "geometry": { "type": "Point", "coordinates": [ 5.08588, 45.72306 ] } },
{ "type": "Feature", "properties": { "gml_id": "ETABLISSEMENTS_POLLUEURS.596560", "identifiant": "0053800646", "idetab": "596560", "nom": "PROFIL EXPORT", "codeape": "4632A", "cp": "38230" }, "geometry": { "type": "Point", "coordinates": [ 5.154913, 45.734469 ] } },
{ "type": "Feature", "properties": { "gml_id": "ETABLISSEMENTS_POLLUEURS.1411", "identifiant": "0006103044", "idetab": "1411", "nom": "TEXTILES DE BELMONT.", "codeape": "1396Z", "cp": "38230" }, "geometry": { "type": "Point", "coordinates": [ 5.171553, 45.777246 ] } },
{ "type": "Feature", "properties": { "gml_id": "ETABLISSEMENTS_POLLUEURS.594741", "identifiant": "0006100245", "idetab": "594741", "nom": "GRANULATS VICAT", "codeape": "0812Z", "cp": "01800" }, "geometry": { "type": "Point", "coordinates": [ 5.17637, 45.85806 ] } },
{ "type": "Feature", "properties": { "gml_id": "ETABLISSEMENTS_POLLUEURS.13790", "identifiant": "0010100142", "idetab": "13790", "nom": "GRANULATS VICAT", "codeape": "0812Z", "cp": "01800" }, "geometry": { "type": "Point", "coordinates": [ 5.17662, 45.85105 ] } },
{ "type": "Feature", "properties": { "gml_id": "ETABLISSEMENTS_POLLUEURS.599105", "identifiant": "0006103047", "idetab": "599105", "nom": "ETABLISSEMENTS GINDRE DUCHAVANY", "codeape": "2444Z", "cp": "38230" }, "geometry": { "type": "Point", "coordinates": [ 5.18151, 45.75322 ] } },
{ "type": "Feature", "properties": { "gml_id": "ETABLISSEMENTS_POLLUEURS.1412", "identifiant": "0006103045", "idetab": "1412", "nom": "FSP - ONE", "codeape": "2444Z", "cp": "38230" }, "geometry": { "type": "Point", "coordinates": [ 5.18168, 45.75347 ] } },
{ "type": "Feature", "properties": { "gml_id": "ETABLISSEMENTS_POLLUEURS.3456", "identifiant": "0010400025", "idetab": "3456", "nom": "PRYSMIAN CABLES ET SYSTEMES FRANCE", "codeape": "2732Z", "cp": "38230" }, "geometry": { "type": "Point", "coordinates": [ 5.18547, 45.76267 ] } },
{ "type": "Feature", "properties": { "gml_id": "ETABLISSEMENTS_POLLUEURS.1378", "identifiant": "0006102866", "idetab": "1378", "nom": "ERARD INDUSTRIE", "codeape": "3109B", "cp": "38230" }, "geometry": { "type": "Point", "coordinates": [ 5.18556, 45.76455 ] } },
{ "type": "Feature", "properties": { "gml_id": "ETABLISSEMENTS_POLLUEURS.593747", "identifiant": "0003201199", "idetab": "593747", "nom": "GRANULATS VICAT", "codeape": "0811Z", "cp": "01800" }, "geometry": { "type": "Point", "coordinates": [ 5.18646, 45.85672 ] } },
{ "type": "Feature", "properties": { "gml_id": "ETABLISSEMENTS_POLLUEURS.594801", "identifiant": "0006101099", "idetab": "594801", "nom": "CARRIERE DE TIGNIEU", "codeape": "4221Z", "cp": "38230" }, "geometry": { "type": "Point", "coordinates": [ 5.19674, 45.76007 ] } },
{ "type": "Feature", "properties": { "gml_id": "ETABLISSEMENTS_POLLUEURS.594736", "identifiant": "0006101054", "idetab": "594736", "nom": "DECHANOZ", "codeape": "0812Z", "cp": "38460" }, "geometry": { "type": "Point", "coordinates": [ 5.20216, 45.76723 ] } },
{ "type": "Feature", "properties": { "gml_id": "ETABLISSEMENTS_POLLUEURS.587932", "identifiant": "0006114530", "idetab": "587932", "nom": "PERRIER", "codeape": "4211Z", "cp": "38460" }, "geometry": { "type": "Point", "coordinates": [ 5.20603, 45.76226 ] } },
{ "type": "Feature", "properties": { "gml_id": "ETABLISSEMENTS_POLLUEURS.598579", "identifiant": "0010100162", "idetab": "598579", "nom": "DRUCK CHEMIE", "codeape": "4675Z", "cp": "01800" }, "geometry": { "type": "Point", "coordinates": [ 5.2204, 45.87646 ] } },
{ "type": "Feature", "properties": { "gml_id": "ETABLISSEMENTS_POLLUEURS.590037", "identifiant": "0010100104", "idetab": "590037", "nom": "CARRIERES ET MATERIAUX DU GRAND OUEST", "codeape": "0812Z", "cp": "01360" }, "geometry": { "type": "Point", "coordinates": [ 5.24542, 45.79039 ] } },
{ "type": "Feature", "properties": { "gml_id": "ETABLISSEMENTS_POLLUEURS.1275", "identifiant": "0006102020", "idetab": "1275", "nom": "MAIRE SOLUTIONS TEXTILES", "codeape": "1330Z", "cp": "01150" }, "geometry": { "type": "Point", "coordinates": [ 5.249158, 45.845708 ] } },
{ "type": "Feature", "properties": { "gml_id": "ETABLISSEMENTS_POLLUEURS.588766", "identifiant": "0006110065", "idetab": "588766", "nom": "SOC INDUSTRIEL CONDITIONNEMENT OPTIMISE", "codeape": "8292Z", "cp": "01150" }, "geometry": { "type": "Point", "coordinates": [ 5.25973, 45.83853 ] } },
{ "type": "Feature", "properties": { "gml_id": "ETABLISSEMENTS_POLLUEURS.1276", "identifiant": "0006102021", "idetab": "1276", "nom": "TPA ENNOBLISSEMENT", "codeape": "173Z", "cp": "01150" }, "geometry": { "type": "Point", "coordinates": [ 5.260251, 45.841135 ] } },
{ "type": "Feature", "properties": { "gml_id": "ETABLISSEMENTS_POLLUEURS.1309", "identifiant": "0006102269", "idetab": "1309", "nom": "SPEICHIM PROCESSING", "codeape": "2014Z", "cp": "01150" }, "geometry": { "type": "Point", "coordinates": [ 5.26421, 45.83589 ] } },
{ "type": "Feature", "properties": { "gml_id": "ETABLISSEMENTS_POLLUEURS.4375", "identifiant": "0006102022", "idetab": "4375", "nom": "R PLUS R RECUPERATION ET RENOVATION", "codeape": "2222Z", "cp": "01150" }, "geometry": { "type": "Point", "coordinates": [ 5.26523, 45.83888 ] } },
{ "type": "Feature", "properties": { "gml_id": "ETABLISSEMENTS_POLLUEURS.1308", "identifiant": "0006102267", "idetab": "1308", "nom": "SIEGFRIED ST. VULBAS SAS", "codeape": "2014Z", "cp": "01150" }, "geometry": { "type": "Point", "coordinates": [ 5.266501, 45.834672 ] } },
{ "type": "Feature", "properties": { "gml_id": "ETABLISSEMENTS_POLLUEURS.594967", "identifiant": "0009069913", "idetab": "594967", "nom": "ELECTRICITE DE FRANCE", "codeape": "3511Z", "cp": "01155" }, "geometry": { "type": "Point", "coordinates": [ 5.26829, 45.79961 ] } },
{ "type": "Feature", "properties": { "gml_id": "ETABLISSEMENTS_POLLUEURS.14106", "identifiant": "0006102266", "idetab": "14106", "nom": "MONNET SEVE SA", "codeape": "1610A", "cp": "01150" }, "geometry": { "type": "Point", "coordinates": [ 5.26909, 45.840908 ] } },
{ "type": "Feature", "properties": { "gml_id": "ETABLISSEMENTS_POLLUEURS.10645", "identifiant": "0006100312", "idetab": "10645", "nom": "CARRIERES DE SAINT LAURENT", "codeape": "0812Z", "cp": "01150" }, "geometry": { "type": "Point", "coordinates": [ 5.26984, 45.87132 ] } },
{ "type": "Feature", "properties": { "gml_id": "ETABLISSEMENTS_POLLUEURS.1311", "identifiant": "0006102272", "idetab": "1311", "nom": "TREDI", "codeape": "3822Z", "cp": "01150" }, "geometry": { "type": "Point", "coordinates": [ 5.27294, 45.83858 ] } },
{ "type": "Feature", "properties": { "gml_id": "ETABLISSEMENTS_POLLUEURS.12873", "identifiant": "0006102261", "idetab": "12873", "nom": "GXO LOGISTICS FRANCE", "codeape": "4941B", "cp": "01150" }, "geometry": { "type": "Point", "coordinates": [ 5.2748, 45.85109 ] } },
{ "type": "Feature", "properties": { "gml_id": "ETABLISSEMENTS_POLLUEURS.13834", "identifiant": "0050100431", "idetab": "13834", "nom": "SIBERT ET FILS", "codeape": "1013A", "cp": "01360" }, "geometry": { "type": "Point", "coordinates": [ 5.21391, 45.79539 ] } },
{ "type": "Feature", "properties": { "gml_id": "ETABLISSEMENTS_POLLUEURS.592984", "identifiant": "0050100608", "idetab": "592984", "nom": "J.M.C", "codeape": "7010Z", "cp": "01800" }, "geometry": { "type": "Point", "coordinates": [ 5.18242, 45.94156 ] } },
{ "type": "Feature", "properties": { "gml_id": "ETABLISSEMENTS_POLLUEURS.11210", "identifiant": "0053800010", "idetab": "11210", "nom": "CONFLUENCE AMENDEMENTS", "codeape": "0161Z", "cp": "38280" }, "geometry": { "type": "Point", "coordinates": [ 5.173766, 45.791955 ] } },
{ "type": "Feature", "properties": { "gml_id": "ETABLISSEMENTS_POLLUEURS.7392", "identifiant": "38210020", "idetab": "7392", "nom": "SARL DES EQUETS", "codeape": "012E", "cp": "38460" }, "geometry": { "type": "Point", "coordinates": [ 5.260155, 45.767282 ] } },
{ "type": "Feature", "properties": { "gml_id": "ETABLISSEMENTS_POLLUEURS.9756", "identifiant": "0006104026", "idetab": "9756", "nom": "L'EUROPÉENNE D'EMBOUTEILLAGE", "codeape": "1107B", "cp": "69330" }, "geometry": { "type": "Point", "coordinates": [ 5.005269, 45.766351 ] } },
{ "type": "Feature", "properties": { "gml_id": "ETABLISSEMENTS_POLLUEURS.6593", "identifiant": "0006104029", "idetab": "6593", "nom": "VALFONF AFFINAGE", "codeape": "274C", "cp": "69330" }, "geometry": { "type": "Point", "coordinates": [ 5.008413, 45.779698 ] } },
{ "type": "Feature", "properties": { "gml_id": "ETABLISSEMENTS_POLLUEURS.589674", "identifiant": "0006104013", "idetab": "589674", "nom": "HOWDEN SOLYVENT-VENTEC", "codeape": "2825Z", "cp": "69330" }, "geometry": { "type": "Point", "coordinates": [ 5.02002, 45.76263 ] } },
{ "type": "Feature", "properties": { "gml_id": "ETABLISSEMENTS_POLLUEURS.6592", "identifiant": "0006104011", "idetab": "6592", "nom": "BAYARD", "codeape": "2814Z", "cp": "69330" }, "geometry": { "type": "Point", "coordinates": [ 5.02083, 45.77126 ] } },
{ "type": "Feature", "properties": { "gml_id": "ETABLISSEMENTS_POLLUEURS.1588", "identifiant": "0006104030", "idetab": "1588", "nom": "ZINQ LYON", "codeape": "2561Z", "cp": "69330" }, "geometry": { "type": "Point", "coordinates": [ 5.022279, 45.767219 ] } },
{ "type": "Feature", "properties": { "gml_id": "ETABLISSEMENTS_POLLUEURS.1585", "identifiant": "0006104024", "idetab": "1585", "nom": "ESSEX", "codeape": "2030Z", "cp": "69330" }, "geometry": { "type": "Point", "coordinates": [ 5.02284, 45.7618 ] } },
{ "type": "Feature", "properties": { "gml_id": "ETABLISSEMENTS_POLLUEURS.588752", "identifiant": "0006104002", "idetab": "588752", "nom": "VG MEYZIEU", "codeape": "1721B", "cp": "69882" }, "geometry": { "type": "Point", "coordinates": [ 5.02393, 45.7613 ] } },
{ "type": "Feature", "properties": { "gml_id": "ETABLISSEMENTS_POLLUEURS.1584", "identifiant": "0006104017", "idetab": "1584", "nom": "GAMBRO INDUSTRIES", "codeape": "3250A", "cp": "69883" }, "geometry": { "type": "Point", "coordinates": [ 5.02607, 45.77075 ] } },
{ "type": "Feature", "properties": { "gml_id": "ETABLISSEMENTS_POLLUEURS.1587", "identifiant": "0006104027", "idetab": "1587", "nom": "TECHNIQUES SURFACES REW", "codeape": "2561Z", "cp": "69330" }, "geometry": { "type": "Point", "coordinates": [ 5.0269, 45.76647 ] } },
{ "type": "Feature", "properties": { "gml_id": "ETABLISSEMENTS_POLLUEURS.1586", "identifiant": "0006104025", "idetab": "1586", "nom": "MERCK SANTE", "codeape": "2110Z", "cp": "69330" }, "geometry": { "type": "Point", "coordinates": [ 5.02727, 45.77769 ] } },
{ "type": "Feature", "properties": { "gml_id": "ETABLISSEMENTS_POLLUEURS.4517", "identifiant": "0006104028", "idetab": "4517", "nom": "CHROMALPES", "codeape": "2561Z", "cp": "69330" }, "geometry": { "type": "Point", "coordinates": [ 5.0305, 45.77021 ] } },
{ "type": "Feature", "properties": { "gml_id": "ETABLISSEMENTS_POLLUEURS.599149", "identifiant": "0003201758", "idetab": "599149", "nom": "BOEHRINGER INGELHEIM ANIMAL HEALTH FRANCE", "codeape": "2120Z", "cp": "69330" }, "geometry": { "type": "Point", "coordinates": [ 5.03711, 45.77418 ] } },
{ "type": "Feature", "properties": { "gml_id": "ETABLISSEMENTS_POLLUEURS.1287", "identifiant": "0006102080", "idetab": "1287", "nom": "ETS CHARDON ET COUCHOUD", "codeape": "2561Z", "cp": "01120" }, "geometry": { "type": "Point", "coordinates": [ 5.06273, 45.83818 ] } },
{ "type": "Feature", "properties": { "gml_id": "ETABLISSEMENTS_POLLUEURS.4380", "identifiant": "0006102081", "idetab": "4380", "nom": "HEXCEL COMPOSITES", "codeape": "1396Z", "cp": "01120" }, "geometry": { "type": "Point", "coordinates": [ 5.06326, 45.83693 ] } },
{ "type": "Feature", "properties": { "gml_id": "ETABLISSEMENTS_POLLUEURS.4379", "identifiant": "0006102079", "idetab": "4379", "nom": "CHIMICOLOR", "codeape": "2561Z", "cp": "01120" }, "geometry": { "type": "Point", "coordinates": [ 5.06632, 45.84814 ] } },
{ "type": "Feature", "properties": { "gml_id": "ETABLISSEMENTS_POLLUEURS.1288", "identifiant": "0006102083", "idetab": "1288", "nom": "OTEGO", "codeape": "1396Z", "cp": "01120" }, "geometry": { "type": "Point", "coordinates": [ 5.06632, 45.84814 ] } },
{ "type": "Feature", "properties": { "gml_id": "ETABLISSEMENTS_POLLUEURS.1589", "identifiant": "0006104032", "idetab": "1589", "nom": "VON ROLL FRANCE", "codeape": "2016Z", "cp": "69330" }, "geometry": { "type": "Point", "coordinates": [ 5.02284, 45.7618 ] } },
{ "type": "Feature", "properties": { "gml_id": "ETABLISSEMENTS_POLLUEURS.6594", "identifiant": "0006104033", "idetab": "6594", "nom": "ASTRA COLORANTS - SITE DE PRODUCTION", "codeape": "243Z", "cp": "69330" }, "geometry": { "type": "Point", "coordinates": [ 5.005269, 45.766351 ] } },
{ "type": "Feature", "properties": { "gml_id": "ETABLISSEMENTS_POLLUEURS.1596", "identifiant": "0006104156", "idetab": "1596", "nom": "KELLER DORIAN GRAPHICS", "codeape": "1813Z", "cp": "69883" }, "geometry": { "type": "Point", "coordinates": [ 5.047882, 45.79636 ] } },
{ "type": "Feature", "properties": { "gml_id": "ETABLISSEMENTS_POLLUEURS.595075", "identifiant": "0006112079", "idetab": "595075", "nom": "ONYX AUVERGNE RHONE ALPES", "codeape": "3821Z", "cp": "69330" }, "geometry": { "type": "Point", "coordinates": [ 5.03057, 45.76873 ] } },
{ "type": "Feature", "properties": { "gml_id": "ETABLISSEMENTS_POLLUEURS.590682", "identifiant": "0010100093", "idetab": "590682", "nom": "SOLUSTIL", "codeape": "2511Z", "cp": "01120" }, "geometry": { "type": "Point", "coordinates": [ 5.05361, 45.84299 ] } },
{ "type": "Feature", "properties": { "gml_id": "ETABLISSEMENTS_POLLUEURS.599355", "identifiant": "0010600348", "idetab": "599355", "nom": "BUTIN TERRIER", "codeape": "3832Z", "cp": "01120" }, "geometry": { "type": "Point", "coordinates": [ 5.02822, 45.77163 ] } },
{ "type": "Feature", "properties": { "gml_id": "ETABLISSEMENTS_POLLUEURS.13406", "identifiant": "0010600392", "idetab": "13406", "nom": "SUEZ RV CENTRE EST BOIS", "codeape": "3832Z", "cp": "69330" }, "geometry": { "type": "Point", "coordinates": [ 5.0274, 45.77435 ] } },
{ "type": "Feature", "properties": { "gml_id": "ETABLISSEMENTS_POLLUEURS.588234", "identifiant": "0010600394", "idetab": "588234", "nom": "EUROMETAL DEVELOPPEMENT", "codeape": "6420Z", "cp": "69330" }, "geometry": { "type": "Point", "coordinates": [ 5.02117, 45.76717 ] } },
{ "type": "Feature", "properties": { "gml_id": "ETABLISSEMENTS_POLLUEURS.590046", "identifiant": "0010600466", "idetab": "590046", "nom": "APEX - KDG", "codeape": "7112B", "cp": "69330" }, "geometry": { "type": "Point", "coordinates": [ 5.03035, 45.77742 ] } },
{ "type": "Feature", "properties": { "gml_id": "ETABLISSEMENTS_POLLUEURS.12170", "identifiant": "0010600812", "idetab": "12170", "nom": "USINES DESAUTEL SA", "codeape": "2829B", "cp": "69330" }, "geometry": { "type": "Point", "coordinates": [ 5.02352, 45.77796 ] } },