{
"type": "FeatureCollection",
"name": "ms:ETABLISSEMENTS_POLLUEURS",
"crs": { "type": "name", "properties": { "name": "urn:ogc:def:crs:OGC:1.3:CRS84" } },
"features": [
{ "type": "Feature", "properties": { "gml_id": "ETABLISSEMENTS_POLLUEURS.4239", "identifiant": "0005701054", "idetab": "4239", "nom": "MAGOTTEAUX SA", "codeape": "2452Z", "cp": "08320" }, "geometry": { "type": "Point", "coordinates": [ 4.7625, 50.10347 ] } },
{ "type": "Feature", "properties": { "gml_id": "ETABLISSEMENTS_POLLUEURS.589613", "identifiant": "0005700052", "idetab": "589613", "nom": "HOLCIM GRANULATS NORD", "codeape": "0812Z", "cp": "08600" }, "geometry": { "type": "Point", "coordinates": [ 4.78801, 50.12522 ] } },
{ "type": "Feature", "properties": { "gml_id": "ETABLISSEMENTS_POLLUEURS.8932", "identifiant": "0005701096", "idetab": "8932", "nom": "LA FONTE ARDENNAISE", "codeape": "2451Z", "cp": "08170" }, "geometry": { "type": "Point", "coordinates": [ 4.71399, 50.01184 ] } },
{ "type": "Feature", "properties": { "gml_id": "ETABLISSEMENTS_POLLUEURS.598179", "identifiant": "0005701202", "idetab": "598179", "nom": "ITW SPRAYTEC", "codeape": "2059Z", "cp": "08320" }, "geometry": { "type": "Point", "coordinates": [ 4.72167, 50.08036 ] } },
{ "type": "Feature", "properties": { "gml_id": "ETABLISSEMENTS_POLLUEURS.597017", "identifiant": "0005702820", "idetab": "597017", "nom": "FCA FERTILISANTS", "codeape": "2015Z", "cp": "08320" }, "geometry": { "type": "Point", "coordinates": [ 4.72514, 50.08886 ] } },
{ "type": "Feature", "properties": { "gml_id": "ETABLISSEMENTS_POLLUEURS.597471", "identifiant": "0005702938", "idetab": "597471", "nom": "POUSSEUR REFRACTORIES", "codeape": "2320Z", "cp": "08320" }, "geometry": { "type": "Point", "coordinates": [ 4.73459, 50.09568 ] } },
{ "type": "Feature", "properties": { "gml_id": "ETABLISSEMENTS_POLLUEURS.597414", "identifiant": "0005702939", "idetab": "597414", "nom": "LA SCIERIE ARDENNAISE", "codeape": "1610A", "cp": "08320" }, "geometry": { "type": "Point", "coordinates": [ 4.73452, 50.08993 ] } },
{ "type": "Feature", "properties": { "gml_id": "ETABLISSEMENTS_POLLUEURS.597477", "identifiant": "0005703802", "idetab": "597477", "nom": "SARL LARNO PERE ET FILS", "codeape": "4690Z", "cp": "08320" }, "geometry": { "type": "Point", "coordinates": [ 4.73354, 50.09496 ] } },
{ "type": "Feature", "properties": { "gml_id": "ETABLISSEMENTS_POLLUEURS.10972", "identifiant": "0007000110", "idetab": "10972", "nom": "COMPTOIR DES CALCAIRES ET MATERIAUX", "codeape": "0812Z", "cp": "59132" }, "geometry": { "type": "Point", "coordinates": [ 4.17635, 50.05555 ] } },
{ "type": "Feature", "properties": { "gml_id": "ETABLISSEMENTS_POLLUEURS.728", "identifiant": "0005701082", "idetab": "728", "nom": "TREFIMETAUX SAS", "codeape": "2444Z", "cp": "08600" }, "geometry": { "type": "Point", "coordinates": [ 4.85893, 50.11563 ] } },
{ "type": "Feature", "properties": { "gml_id": "ETABLISSEMENTS_POLLUEURS.589617", "identifiant": "0005702750", "idetab": "589617", "nom": "VAL DE MEUSE ENROBES", "codeape": "2399Z", "cp": "08600" }, "geometry": { "type": "Point", "coordinates": [ 4.790387, 50.120808 ] } },
{ "type": "Feature", "properties": { "gml_id": "ETABLISSEMENTS_POLLUEURS.729", "identifiant": "0005701085", "idetab": "729", "nom": "ARDENITY", "codeape": "2014Z", "cp": "08600" }, "geometry": { "type": "Point", "coordinates": [ 4.82611, 50.135929 ] } },
{ "type": "Feature", "properties": { "gml_id": "ETABLISSEMENTS_POLLUEURS.730", "identifiant": "0005701087", "idetab": "730", "nom": "A SCHULMAN PLASTICS", "codeape": "2016Z", "cp": "08600" }, "geometry": { "type": "Point", "coordinates": [ 4.82133, 50.15544 ] } },
{ "type": "Feature", "properties": { "gml_id": "ETABLISSEMENTS_POLLUEURS.597954", "identifiant": "0005702975", "idetab": "597954", "nom": "LE PORT DE GIVET", "codeape": "5222Z", "cp": "08600" }, "geometry": { "type": "Point", "coordinates": [ 4.82539, 50.15162 ] } },
{ "type": "Feature", "properties": { "gml_id": "ETABLISSEMENTS_POLLUEURS.12829", "identifiant": "0005703128", "idetab": "12829", "nom": "BST FRANCE", "codeape": "3832Z", "cp": "08600" }, "geometry": { "type": "Point", "coordinates": [ 4.82374, 50.14755 ] } },
{ "type": "Feature", "properties": { "gml_id": "ETABLISSEMENTS_POLLUEURS.594950", "identifiant": "0009069909", "idetab": "594950", "nom": "ELECTRICITE DE FRANCE", "codeape": "3511Z", "cp": "08600" }, "geometry": { "type": "Point", "coordinates": [ 4.8347, 50.14213 ] } },
{ "type": "Feature", "properties": { "gml_id": "ETABLISSEMENTS_POLLUEURS.591264", "identifiant": "0069903001", "idetab": "591264", "nom": "EDF - CNPE DE CHOOZ", "codeape": "3511Z", "cp": "08600" }, "geometry": { "type": "Point", "coordinates": [ 4.82611, 50.135929 ] } },
{ "type": "Feature", "properties": { "gml_id": "ETABLISSEMENTS_POLLUEURS.13682", "identifiant": "0007004062", "idetab": "13682", "nom": "MICHAEL MOULIN", "codeape": "4532Z", "cp": "59610" }, "geometry": { "type": "Point", "coordinates": [ 4.057173, 50.005553 ] } },
{ "type": "Feature", "properties": { "gml_id": "ETABLISSEMENTS_POLLUEURS.2971", "identifiant": "0007000619", "idetab": "2971", "nom": "AGRATI FOURMIES S.A.S.", "codeape": "2594Z", "cp": "59610" }, "geometry": { "type": "Point", "coordinates": [ 4.05524, 50.01476 ] } },
{ "type": "Feature", "properties": { "gml_id": "ETABLISSEMENTS_POLLUEURS.3142", "identifiant": "0007001230", "idetab": "3142", "nom": "SOCIETE DE PARACHEVEMENT DU NORD", "codeape": "", "cp": "59610" }, "geometry": { "type": "Point", "coordinates": [ 4.042592, 50.016136 ] } },
{ "type": "Feature", "properties": { "gml_id": "ETABLISSEMENTS_POLLUEURS.11899", "identifiant": "0007004064", "idetab": "11899", "nom": "DEWEZ", "codeape": "3832Z", "cp": "59610" }, "geometry": { "type": "Point", "coordinates": [ 4.042592, 50.016136 ] } },
{ "type": "Feature", "properties": { "gml_id": "ETABLISSEMENTS_POLLUEURS.10977", "identifiant": "0007000649", "idetab": "10977", "nom": "ETABLISSEMENTS BOCAHUT", "codeape": "0811Z", "cp": "59132" }, "geometry": { "type": "Point", "coordinates": [ 4.07633, 50.0491 ] } },
{ "type": "Feature", "properties": { "gml_id": "ETABLISSEMENTS_POLLUEURS.2956", "identifiant": "0007000549", "idetab": "2956", "nom": "LE JERSEY DE PARIS", "codeape": "171F", "cp": "59177" }, "geometry": { "type": "Point", "coordinates": [ 4.011046, 50.095486 ] } },
{ "type": "Feature", "properties": { "gml_id": "ETABLISSEMENTS_POLLUEURS.11030", "identifiant": "0007004027", "idetab": "11030", "nom": "SAS RYEZ COLLERET", "codeape": "3831Z", "cp": "59680" }, "geometry": { "type": "Point", "coordinates": [ 4.06401, 50.25531 ] } },
{ "type": "Feature", "properties": { "gml_id": "ETABLISSEMENTS_POLLUEURS.9981", "identifiant": "0007000541", "idetab": "9981", "nom": "SA DHORDAIN & CIE", "codeape": "0812Z", "cp": "59149" }, "geometry": { "type": "Point", "coordinates": [ 4.17725, 50.26159 ] } },
{ "type": "Feature", "properties": { "gml_id": "ETABLISSEMENTS_POLLUEURS.3106", "identifiant": "0007001047", "idetab": "3106", "nom": "CEREC", "codeape": "2550B", "cp": "59245" }, "geometry": { "type": "Point", "coordinates": [ 4.042022, 50.282518 ] } },
{ "type": "Feature", "properties": { "gml_id": "ETABLISSEMENTS_POLLUEURS.12147", "identifiant": "0007001800", "idetab": "12147", "nom": "GRAHAM PACKAGING FRANCE", "codeape": "2222Z", "cp": "59600" }, "geometry": { "type": "Point", "coordinates": [ 4.021651, 50.284126 ] } },
{ "type": "Feature", "properties": { "gml_id": "ETABLISSEMENTS_POLLUEURS.5267", "identifiant": "0007000761", "idetab": "5267", "nom": "AGC GLASS FRANCE", "codeape": "2311Z", "cp": "59168" }, "geometry": { "type": "Point", "coordinates": [ 4.0304, 50.28769 ] } },
{ "type": "Feature", "properties": { "gml_id": "ETABLISSEMENTS_POLLUEURS.12152", "identifiant": "0007004033", "idetab": "12152", "nom": "AUTO 2000", "codeape": "4511Z", "cp": "59168" }, "geometry": { "type": "Point", "coordinates": [ 4.04025, 50.2899 ] } },
{ "type": "Feature", "properties": { "gml_id": "ETABLISSEMENTS_POLLUEURS.10215", "identifiant": "0007004217", "idetab": "10215", "nom": "JEUMONT ELECTRIC", "codeape": "2711Z", "cp": "59460" }, "geometry": { "type": "Point", "coordinates": [ 4.10603, 50.30103 ] } },
{ "type": "Feature", "properties": { "gml_id": "ETABLISSEMENTS_POLLUEURS.3001", "identifiant": "0007000708", "idetab": "3001", "nom": "JSPM OU JEUMONT - SYSTEMES DE POMPES ET DE MECANISMES", "codeape": "2813Z", "cp": "59460" }, "geometry": { "type": "Point", "coordinates": [ 4.10603, 50.30103 ] } },
{ "type": "Feature", "properties": { "gml_id": "ETABLISSEMENTS_POLLUEURS.3146", "identifiant": "0007001289", "idetab": "3146", "nom": "NEXANS FRANCE", "codeape": "2732Z", "cp": "59460" }, "geometry": { "type": "Point", "coordinates": [ 4.11015, 50.30198 ] } },
{ "type": "Feature", "properties": { "gml_id": "ETABLISSEMENTS_POLLUEURS.3166", "identifiant": "0007002024", "idetab": "3166", "nom": "SUEZ RV NORD EST", "codeape": "3821Z", "cp": "59600" }, "geometry": { "type": "Point", "coordinates": [ 4.00039, 50.34219 ] } }
]
}
