{
"type": "FeatureCollection",
"name": "ms:ETABLISSEMENTS_POLLUEURS",
"crs": { "type": "name", "properties": { "name": "urn:ogc:def:crs:OGC:1.3:CRS84" } },
"features": [
{ "type": "Feature", "properties": { "gml_id": "ETABLISSEMENTS_POLLUEURS.591305", "identifiant": "0003200923", "idetab": "591305", "nom": "SIRTOM DE MAURIENNE (ISDI DE PLAN D'ARC)", "codeape": "3811Z", "cp": "73870" }, "geometry": { "type": "Point", "coordinates": [ 6.401345, 45.252377 ] } },
{ "type": "Feature", "properties": { "gml_id": "ETABLISSEMENTS_POLLUEURS.588744", "identifiant": "0006101640", "idetab": "588744", "nom": "GYPSE DE MAURIENNE", "codeape": "0811Z", "cp": "73300" }, "geometry": { "type": "Point", "coordinates": [ 6.32314, 45.26061 ] } },
{ "type": "Feature", "properties": { "gml_id": "ETABLISSEMENTS_POLLUEURS.1622", "identifiant": "0006104410", "idetab": "1622", "nom": "POUDRES HERMILLON SA", "codeape": "2442Z", "cp": "73300" }, "geometry": { "type": "Point", "coordinates": [ 6.3575, 45.29083 ] } },
{ "type": "Feature", "properties": { "gml_id": "ETABLISSEMENTS_POLLUEURS.1620", "identifiant": "0006104379", "idetab": "1620", "nom": "ARKEMA FRANCE", "codeape": "2014Z", "cp": "73130" }, "geometry": { "type": "Point", "coordinates": [ 6.29997, 45.35478 ] } },
{ "type": "Feature", "properties": { "gml_id": "ETABLISSEMENTS_POLLUEURS.4526", "identifiant": "0006104376", "idetab": "4526", "nom": "PRO. PHY. M SARL", "codeape": "2020Z", "cp": "73130" }, "geometry": { "type": "Point", "coordinates": [ 6.29904, 45.359364 ] } },
{ "type": "Feature", "properties": { "gml_id": "ETABLISSEMENTS_POLLUEURS.4441", "identifiant": "0006103155", "idetab": "4441", "nom": "UGIMAG SAINT-PIERRE-D'ALLEVARD", "codeape": "321A", "cp": "38830" }, "geometry": { "type": "Point", "coordinates": [ 6.044248, 45.373537 ] } },
{ "type": "Feature", "properties": { "gml_id": "ETABLISSEMENTS_POLLUEURS.1410", "identifiant": "0006103038", "idetab": "1410", "nom": "ISOBOX - ETABLISSEMENT DE PONTCHARRA", "codeape": "2222Z", "cp": "38530" }, "geometry": { "type": "Point", "coordinates": [ 6.019094, 45.43164 ] } },
{ "type": "Feature", "properties": { "gml_id": "ETABLISSEMENTS_POLLUEURS.1624", "identifiant": "0006104426", "idetab": "1624", "nom": "FERROGLOBE FRANCE", "codeape": "2410Z", "cp": "73870" }, "geometry": { "type": "Point", "coordinates": [ 6.41779, 45.2343 ] } },
{ "type": "Feature", "properties": { "gml_id": "ETABLISSEMENTS_POLLUEURS.4529", "identifiant": "0006104447", "idetab": "4529", "nom": "LA ROCHETTE CARTONBOARD SAS", "codeape": "1712Z", "cp": "73110" }, "geometry": { "type": "Point", "coordinates": [ 6.1185, 45.4537 ] } },
{ "type": "Feature", "properties": { "gml_id": "ETABLISSEMENTS_POLLUEURS.1630", "identifiant": "0006104460", "idetab": "1630", "nom": "ANETT NBD", "codeape": "7729Z", "cp": "73800" }, "geometry": { "type": "Point", "coordinates": [ 6.03465, 45.47912 ] } },
{ "type": "Feature", "properties": { "gml_id": "ETABLISSEMENTS_POLLUEURS.1631", "identifiant": "0006104466", "idetab": "1631", "nom": "TRIMET FRANCE", "codeape": "2442Z", "cp": "73302" }, "geometry": { "type": "Point", "coordinates": [ 6.35903, 45.2767 ] } },
{ "type": "Feature", "properties": { "gml_id": "ETABLISSEMENTS_POLLUEURS.1633", "identifiant": "0006104478", "idetab": "1633", "nom": "MT TECHNOLOGY", "codeape": "2452Z", "cp": "73140" }, "geometry": { "type": "Point", "coordinates": [ 6.470061, 45.219827 ] } },
{ "type": "Feature", "properties": { "gml_id": "ETABLISSEMENTS_POLLUEURS.1639", "identifiant": "0006104513", "idetab": "1639", "nom": "SITOM DE MOUTIERS", "codeape": "900B", "cp": "73600" }, "geometry": { "type": "Point", "coordinates": [ 6.25016, 45.456602 ] } },
{ "type": "Feature", "properties": { "gml_id": "ETABLISSEMENTS_POLLUEURS.1714", "identifiant": "0006107023", "idetab": "1714", "nom": "MOULIN VIEUX SA", "codeape": "211C", "cp": "38530" }, "geometry": { "type": "Point", "coordinates": [ 6.017962, 45.427885 ] } },
{ "type": "Feature", "properties": { "gml_id": "ETABLISSEMENTS_POLLUEURS.11669", "identifiant": "0006107561", "idetab": "11669", "nom": "TERECOVAL", "codeape": "3822Z", "cp": "73130" }, "geometry": { "type": "Point", "coordinates": [ 6.29154, 45.36365 ] } },
{ "type": "Feature", "properties": { "gml_id": "ETABLISSEMENTS_POLLUEURS.587922", "identifiant": "0006113353", "idetab": "587922", "nom": "RIO TINTO ALUMINIUM PECHINEY", "codeape": "2442Z", "cp": "73302" }, "geometry": { "type": "Point", "coordinates": [ 6.36588, 45.27444 ] } },
{ "type": "Feature", "properties": { "gml_id": "ETABLISSEMENTS_POLLUEURS.589693", "identifiant": "0006114645", "idetab": "589693", "nom": "CC VAL VANOISE", "codeape": "8411Z", "cp": "73550" }, "geometry": { "type": "Point", "coordinates": [ 6.56438, 45.40283 ] } },
{ "type": "Feature", "properties": { "gml_id": "ETABLISSEMENTS_POLLUEURS.588803", "identifiant": "0006114656", "idetab": "588803", "nom": "SPIE BATIGNOLLES TPCI (ISDI BABYLONE 2)", "codeape": "4213B", "cp": "73870" }, "geometry": { "type": "Point", "coordinates": [ 6.401239, 45.256099 ] } },
{ "type": "Feature", "properties": { "gml_id": "ETABLISSEMENTS_POLLUEURS.588823", "identifiant": "0006114875", "idetab": "588823", "nom": "COMMUNE DE LA ROCHETTE", "codeape": "8411Z", "cp": "73110" }, "geometry": { "type": "Point", "coordinates": [ 6.10545, 45.45037 ] } },
{ "type": "Feature", "properties": { "gml_id": "ETABLISSEMENTS_POLLUEURS.589695", "identifiant": "0006114937", "idetab": "589695", "nom": "IMPLENIA SCHWEIZ AG", "codeape": "7010Z", "cp": "73870" }, "geometry": { "type": "Point", "coordinates": [ 6.41752, 45.28033 ] } },
{ "type": "Feature", "properties": { "gml_id": "ETABLISSEMENTS_POLLUEURS.1608", "identifiant": "0006104283", "idetab": "1608", "nom": "AIR PRODUCTS", "codeape": "2011Z", "cp": "73220" }, "geometry": { "type": "Point", "coordinates": [ 6.303414, 45.542595 ] } },
{ "type": "Feature", "properties": { "gml_id": "ETABLISSEMENTS_POLLUEURS.597508", "identifiant": "0006104396", "idetab": "597508", "nom": "ANTARGAZ", "codeape": "4671Z", "cp": "73460" }, "geometry": { "type": "Point", "coordinates": [ 6.31213, 45.6294 ] } },
{ "type": "Feature", "properties": { "gml_id": "ETABLISSEMENTS_POLLUEURS.589666", "identifiant": "0006101846", "idetab": "589666", "nom": "VMO", "codeape": "0812Z", "cp": "74210" }, "geometry": { "type": "Point", "coordinates": [ 6.34474, 45.75812 ] } },
{ "type": "Feature", "properties": { "gml_id": "ETABLISSEMENTS_POLLUEURS.12892", "identifiant": "0006104402", "idetab": "12892", "nom": "GPT MATERIAUX DE LA COMBE DE SAVOIE", "codeape": "2399Z", "cp": "73200" }, "geometry": { "type": "Point", "coordinates": [ 6.35967, 45.66548 ] } },
{ "type": "Feature", "properties": { "gml_id": "ETABLISSEMENTS_POLLUEURS.12891", "identifiant": "0006104397", "idetab": "12891", "nom": "SAVOIE DECHETS", "codeape": "3821Z", "cp": "73200" }, "geometry": { "type": "Point", "coordinates": [ 6.36105, 45.659 ] } },
{ "type": "Feature", "properties": { "gml_id": "ETABLISSEMENTS_POLLUEURS.587873", "identifiant": "0006101563", "idetab": "587873", "nom": "GRANULATS VICAT", "codeape": "0812Z", "cp": "73200" }, "geometry": { "type": "Point", "coordinates": [ 6.36529, 45.65113 ] } },
{ "type": "Feature", "properties": { "gml_id": "ETABLISSEMENTS_POLLUEURS.14122", "identifiant": "0006104326", "idetab": "14122", "nom": "EDF SRH ALBERTVILLE", "codeape": "3511Z", "cp": "73200" }, "geometry": { "type": "Point", "coordinates": [ 6.390288, 45.668758 ] } },
{ "type": "Feature", "properties": { "gml_id": "ETABLISSEMENTS_POLLUEURS.8986", "identifiant": "0006104499", "idetab": "8986", "nom": "TIMET SAVOIE", "codeape": "2445Z", "cp": "73400" }, "geometry": { "type": "Point", "coordinates": [ 6.411378, 45.749558 ] } },
{ "type": "Feature", "properties": { "gml_id": "ETABLISSEMENTS_POLLUEURS.1637", "identifiant": "0006104505", "idetab": "1637", "nom": "UGITECH", "codeape": "2410Z", "cp": "73403" }, "geometry": { "type": "Point", "coordinates": [ 6.42198, 45.7453 ] } },
{ "type": "Feature", "properties": { "gml_id": "ETABLISSEMENTS_POLLUEURS.1636", "identifiant": "0006104504", "idetab": "1636", "nom": "FRAMATOME", "codeape": "2445Z", "cp": "73400" }, "geometry": { "type": "Point", "coordinates": [ 6.43221, 45.749 ] } },
{ "type": "Feature", "properties": { "gml_id": "ETABLISSEMENTS_POLLUEURS.587894", "identifiant": "0006104343", "idetab": "587894", "nom": "AXIA", "codeape": "3832Z", "cp": "73540" }, "geometry": { "type": "Point", "coordinates": [ 6.43783, 45.6274 ] } },
{ "type": "Feature", "properties": { "gml_id": "ETABLISSEMENTS_POLLUEURS.1610", "identifiant": "0006104340", "idetab": "1610", "nom": "NICHE FUSED ALUMINA", "codeape": "2399Z", "cp": "73540" }, "geometry": { "type": "Point", "coordinates": [ 6.439414, 45.64166 ] } },
{ "type": "Feature", "properties": { "gml_id": "ETABLISSEMENTS_POLLUEURS.1635", "identifiant": "0006104498", "idetab": "1635", "nom": "TIVOLY", "codeape": "2573B", "cp": "73790" }, "geometry": { "type": "Point", "coordinates": [ 6.444576, 45.65048 ] } },
{ "type": "Feature", "properties": { "gml_id": "ETABLISSEMENTS_POLLUEURS.1611", "identifiant": "0006104344", "idetab": "1611", "nom": "NICHE FUSED ALUMINA", "codeape": "2399Z", "cp": "73540" }, "geometry": { "type": "Point", "coordinates": [ 6.452631, 45.617478 ] } },
{ "type": "Feature", "properties": { "gml_id": "ETABLISSEMENTS_POLLUEURS.1627", "identifiant": "0006104439", "idetab": "1627", "nom": "TOKAI COBEX SAVOIE", "codeape": "2399Z", "cp": "73260" }, "geometry": { "type": "Point", "coordinates": [ 6.47175, 45.53359 ] } },
{ "type": "Feature", "properties": { "gml_id": "ETABLISSEMENTS_POLLUEURS.1626", "identifiant": "0006104438", "idetab": "1626", "nom": "FERROPEM CHATEAU FEUILLET", "codeape": "2410Z", "cp": "73260" }, "geometry": { "type": "Point", "coordinates": [ 6.485592, 45.520791 ] } },
{ "type": "Feature", "properties": { "gml_id": "ETABLISSEMENTS_POLLUEURS.1625", "identifiant": "0006104435", "idetab": "1625", "nom": "NANTET LOCABENNES", "codeape": "4941B", "cp": "73260" }, "geometry": { "type": "Point", "coordinates": [ 6.49036, 45.52134 ] } },
{ "type": "Feature", "properties": { "gml_id": "ETABLISSEMENTS_POLLUEURS.1632", "identifiant": "0006104473", "idetab": "1632", "nom": "MSSA", "codeape": "2013B", "cp": "73600" }, "geometry": { "type": "Point", "coordinates": [ 6.55925, 45.4963 ] } },
{ "type": "Feature", "properties": { "gml_id": "ETABLISSEMENTS_POLLUEURS.1653", "identifiant": "0006104605", "idetab": "1653", "nom": "STAUBLI FAVERGES", "codeape": "2894Z", "cp": "74210" }, "geometry": { "type": "Point", "coordinates": [ 6.295378, 45.75154 ] } },
{ "type": "Feature", "properties": { "gml_id": "ETABLISSEMENTS_POLLUEURS.1654", "identifiant": "0006104606", "idetab": "1654", "nom": "ST DUPONT", "codeape": "3299Z", "cp": "74210" }, "geometry": { "type": "Point", "coordinates": [ 6.28831, 45.7539 ] } },
{ "type": "Feature", "properties": { "gml_id": "ETABLISSEMENTS_POLLUEURS.11673", "identifiant": "0006108251", "idetab": "11673", "nom": "STAUBLI FAVERGES", "codeape": "2899B", "cp": "74210" }, "geometry": { "type": "Point", "coordinates": [ 6.2932, 45.75203 ] } },
{ "type": "Feature", "properties": { "gml_id": "ETABLISSEMENTS_POLLUEURS.589684", "identifiant": "0006112288", "idetab": "589684", "nom": "SGF", "codeape": "2562B", "cp": "73460" }, "geometry": { "type": "Point", "coordinates": [ 6.32644, 45.60205 ] } },
{ "type": "Feature", "properties": { "gml_id": "ETABLISSEMENTS_POLLUEURS.588798", "identifiant": "0006114626", "idetab": "588798", "nom": "SIRTOM DE MAURIENNE", "codeape": "3811Z", "cp": "73220" }, "geometry": { "type": "Point", "coordinates": [ 6.28906, 45.55895 ] } },
{ "type": "Feature", "properties": { "gml_id": "ETABLISSEMENTS_POLLUEURS.590424", "identifiant": "0006114646", "idetab": "590424", "nom": "GRAVIÈRE DU PRÉ DE LA CHAMBRE (DDT SAVOIE)", "codeape": "8413Z", "cp": "73390" }, "geometry": { "type": "Point", "coordinates": [ 6.197562, 45.55493 ] } },
{ "type": "Feature", "properties": { "gml_id": "ETABLISSEMENTS_POLLUEURS.588810", "identifiant": "0006114814", "idetab": "588810", "nom": "COMMUNE DE DOUSSARD", "codeape": "8411Z", "cp": "74210" }, "geometry": { "type": "Point", "coordinates": [ 6.23561, 45.77378 ] } },
{ "type": "Feature", "properties": { "gml_id": "ETABLISSEMENTS_POLLUEURS.588814", "identifiant": "0006114822", "idetab": "588814", "nom": "CHARVIN ENTREPRISES - ISDI", "codeape": "4399C", "cp": "74210" }, "geometry": { "type": "Point", "coordinates": [ 6.202093, 45.782509 ] } },
{ "type": "Feature", "properties": { "gml_id": "ETABLISSEMENTS_POLLUEURS.590209", "identifiant": "0006114865", "idetab": "590209", "nom": "BENETTI", "codeape": "4120A", "cp": "73390" }, "geometry": { "type": "Point", "coordinates": [ 6.171599, 45.548465 ] } },
{ "type": "Feature", "properties": { "gml_id": "ETABLISSEMENTS_POLLUEURS.590210", "identifiant": "0006114912", "idetab": "590210", "nom": "GRANULATS VICAT", "codeape": "0811Z", "cp": "73460" }, "geometry": { "type": "Point", "coordinates": [ 6.26559, 45.61031 ] } },
{ "type": "Feature", "properties": { "gml_id": "ETABLISSEMENTS_POLLUEURS.588834", "identifiant": "0006114924", "idetab": "588834", "nom": "SIBUET", "codeape": "3811Z", "cp": "73390" }, "geometry": { "type": "Point", "coordinates": [ 6.194811, 45.526343 ] } },
{ "type": "Feature", "properties": { "gml_id": "ETABLISSEMENTS_POLLUEURS.13409", "identifiant": "0010700007", "idetab": "13409", "nom": "EXCOFFIER RECYCLAGE", "codeape": "3832Z", "cp": "73220" }, "geometry": { "type": "Point", "coordinates": [ 6.31042, 45.52759 ] } },
{ "type": "Feature", "properties": { "gml_id": "ETABLISSEMENTS_POLLUEURS.3493", "identifiant": "0010700259", "idetab": "3493", "nom": "EUROPAC CARTONNERIE FRANCE SAVOIE", "codeape": "1721A", "cp": "73110" }, "geometry": { "type": "Point", "coordinates": [ 6.115527, 45.455957 ] } },
{ "type": "Feature", "properties": { "gml_id": "ETABLISSEMENTS_POLLUEURS.3494", "identifiant": "0010700305", "idetab": "3494", "nom": "LANXESS EPIERRE SAS", "codeape": "2059Z", "cp": "73220" }, "geometry": { "type": "Point", "coordinates": [ 6.29419, 45.45814 ] } },
{ "type": "Feature", "properties": { "gml_id": "ETABLISSEMENTS_POLLUEURS.591690", "identifiant": "0010700350", "idetab": "591690", "nom": "BIOVAL", "codeape": "3821Z", "cp": "73390" }, "geometry": { "type": "Point", "coordinates": [ 6.20924, 45.53803 ] } },
{ "type": "Feature", "properties": { "gml_id": "ETABLISSEMENTS_POLLUEURS.12498", "identifiant": "0010700541", "idetab": "12498", "nom": "PERFORM SPIRIT INDUSTRY", "codeape": "2562A", "cp": "73460" }, "geometry": { "type": "Point", "coordinates": [ 6.318616, 45.627263 ] } },
{ "type": "Feature", "properties": { "gml_id": "ETABLISSEMENTS_POLLUEURS.13410", "identifiant": "0010700578", "idetab": "13410", "nom": "TREZ", "codeape": "3832Z", "cp": "73220" }, "geometry": { "type": "Point", "coordinates": [ 6.30632, 45.5423 ] } },
{ "type": "Feature", "properties": { "gml_id": "ETABLISSEMENTS_POLLUEURS.590691", "identifiant": "0010700634", "idetab": "590691", "nom": "SOCIETE ALBERTVILLOISE DE RECUPERATION", "codeape": "3832Z", "cp": "73460" }, "geometry": { "type": "Point", "coordinates": [ 6.3088, 45.61209 ] } },
{ "type": "Feature", "properties": { "gml_id": "ETABLISSEMENTS_POLLUEURS.597798", "identifiant": "0057300403", "idetab": "597798", "nom": "UNION DES PRODUCTEURS DE BEAUFORT", "codeape": "1051C", "cp": "73200" }, "geometry": { "type": "Point", "coordinates": [ 6.410358, 45.664753 ] } },
{ "type": "Feature", "properties": { "gml_id": "ETABLISSEMENTS_POLLUEURS.7258", "identifiant": "0010700275", "idetab": "7258", "nom": "SCHNEIDER ELECTRIC ALPES", "codeape": "2790Z", "cp": "73800" }, "geometry": { "type": "Point", "coordinates": [ 6.02922, 45.47634 ] } },
{ "type": "Feature", "properties": { "gml_id": "ETABLISSEMENTS_POLLUEURS.596645", "identifiant": "0010700299", "idetab": "596645", "nom": "NANTET LOCABENNES", "codeape": "4941B", "cp": "73800" }, "geometry": { "type": "Point", "coordinates": [ 6.03582, 45.486742 ] } },
{ "type": "Feature", "properties": { "gml_id": "ETABLISSEMENTS_POLLUEURS.13802", "identifiant": "0010700284", "idetab": "13802", "nom": "GRANULATS VICAT", "codeape": "0812Z", "cp": "73800" }, "geometry": { "type": "Point", "coordinates": [ 6.06873, 45.49849 ] } },
{ "type": "Feature", "properties": { "gml_id": "ETABLISSEMENTS_POLLUEURS.1623", "identifiant": "0006104424", "idetab": "1623", "nom": "MERLIN GERIN ALPES", "codeape": "2790Z", "cp": "73800" }, "geometry": { "type": "Point", "coordinates": [ 6.031606, 45.498871 ] } },
{ "type": "Feature", "properties": { "gml_id": "ETABLISSEMENTS_POLLUEURS.11993", "identifiant": "0010400551", "idetab": "11993", "nom": "AXIA ETS POUGET - FRANCIN", "codeape": "3811Z", "cp": "73800" }, "geometry": { "type": "Point", "coordinates": [ 6.031606, 45.498871 ] } },
{ "type": "Feature", "properties": { "gml_id": "ETABLISSEMENTS_POLLUEURS.4527", "identifiant": "0006104385", "idetab": "4527", "nom": "ENTREPÔT PÉTROLIER DE CHAMBERY", "codeape": "5210B", "cp": "73800" }, "geometry": { "type": "Point", "coordinates": [ 6.011292, 45.523101 ] } },
{ "type": "Feature", "properties": { "gml_id": "ETABLISSEMENTS_POLLUEURS.1648", "identifiant": "0006104565", "idetab": "1648", "nom": "SYNDICAT MIXTE DU LAC D ANNECY", "codeape": "3811Z", "cp": "74650" }, "geometry": { "type": "Point", "coordinates": [ 6.07094, 45.87177 ] } },
{ "type": "Feature", "properties": { "gml_id": "ETABLISSEMENTS_POLLUEURS.1642", "identifiant": "0006104534", "idetab": "1642", "nom": "GRAPHOCOLOR", "codeape": "2561Z", "cp": "74000" }, "geometry": { "type": "Point", "coordinates": [ 6.11833, 45.8846 ] } },
{ "type": "Feature", "properties": { "gml_id": "ETABLISSEMENTS_POLLUEURS.4530", "identifiant": "0006104533", "idetab": "4530", "nom": "DEPOT PETROLIER DE HAUTE SAVOIE", "codeape": "5210B", "cp": "74000" }, "geometry": { "type": "Point", "coordinates": [ 6.11708, 45.88468 ] } },
{ "type": "Feature", "properties": { "gml_id": "ETABLISSEMENTS_POLLUEURS.11667", "identifiant": "0006104523", "idetab": "11667", "nom": "TRIGENIUM", "codeape": "3832Z", "cp": "74000" }, "geometry": { "type": "Point", "coordinates": [ 6.12112, 45.88726 ] } },
{ "type": "Feature", "properties": { "gml_id": "ETABLISSEMENTS_POLLUEURS.4535", "identifiant": "0006104716", "idetab": "4535", "nom": "CATIDOM", "codeape": "2561Z", "cp": "74600" }, "geometry": { "type": "Point", "coordinates": [ 6.07811, 45.8883 ] } },
{ "type": "Feature", "properties": { "gml_id": "ETABLISSEMENTS_POLLUEURS.4536", "identifiant": "0006104718", "idetab": "4536", "nom": "NICKELAGE CHROMAGE D'ANNECY S.A.S.", "codeape": "2561Z", "cp": "74000" }, "geometry": { "type": "Point", "coordinates": [ 6.116408, 45.889408 ] } },
{ "type": "Feature", "properties": { "gml_id": "ETABLISSEMENTS_POLLUEURS.1662", "identifiant": "0006104647", "idetab": "1662", "nom": "CLYDEUNION PUMPS SAS", "codeape": "2813Z", "cp": "74960" }, "geometry": { "type": "Point", "coordinates": [ 6.1257, 45.89002 ] } },
{ "type": "Feature", "properties": { "gml_id": "ETABLISSEMENTS_POLLUEURS.1641", "identifiant": "0006104532", "idetab": "1641", "nom": "NTN EUROPE", "codeape": "2815Z", "cp": "74000" }, "geometry": { "type": "Point", "coordinates": [ 6.11686, 45.90241 ] } },
{ "type": "Feature", "properties": { "gml_id": "ETABLISSEMENTS_POLLUEURS.11666", "identifiant": "0006104522", "idetab": "11666", "nom": "SITA VIGNIER", "codeape": "3832Z", "cp": "74000" }, "geometry": { "type": "Point", "coordinates": [ 6.12562, 45.905714 ] } },
{ "type": "Feature", "properties": { "gml_id": "ETABLISSEMENTS_POLLUEURS.6603", "identifiant": "0006104529", "idetab": "6603", "nom": "CHAUFERIE URBAINE DE NOVEL", "codeape": "3530Z", "cp": "74000" }, "geometry": { "type": "Point", "coordinates": [ 6.12562, 45.905714 ] } },
{ "type": "Feature", "properties": { "gml_id": "ETABLISSEMENTS_POLLUEURS.1643", "identifiant": "0006104535", "idetab": "1643", "nom": "SICN ANNECY", "codeape": "7010Z", "cp": "74008" }, "geometry": { "type": "Point", "coordinates": [ 6.12562, 45.905714 ] } },
{ "type": "Feature", "properties": { "gml_id": "ETABLISSEMENTS_POLLUEURS.1651", "identifiant": "0006104582", "idetab": "1651", "nom": "REBOUL SAS", "codeape": "2592Z", "cp": "74961" }, "geometry": { "type": "Point", "coordinates": [ 6.108967, 45.907454 ] } },
{ "type": "Feature", "properties": { "gml_id": "ETABLISSEMENTS_POLLUEURS.4531", "identifiant": "0006104583", "idetab": "4531", "nom": "ALPINE ALUMINIUM", "codeape": "2442Z", "cp": "74960" }, "geometry": { "type": "Point", "coordinates": [ 6.108967, 45.907454 ] } },
{ "type": "Feature", "properties": { "gml_id": "ETABLISSEMENTS_POLLUEURS.1652", "identifiant": "0006104586", "idetab": "1652", "nom": "PAPETERIES DE CRAN", "codeape": "211C", "cp": "74960" }, "geometry": { "type": "Point", "coordinates": [ 6.105806, 45.911194 ] } },
{ "type": "Feature", "properties": { "gml_id": "ETABLISSEMENTS_POLLUEURS.12112", "identifiant": "0006104539", "idetab": "12112", "nom": "SAVOY OFFSET", "codeape": "1812Z", "cp": "74940" }, "geometry": { "type": "Point", "coordinates": [ 6.142009, 45.918771 ] } },
{ "type": "Feature", "properties": { "gml_id": "ETABLISSEMENTS_POLLUEURS.1640", "identifiant": "0006104531", "idetab": "1640", "nom": "PFEIFFER VACUUM", "codeape": "2813Z", "cp": "74000" }, "geometry": { "type": "Point", "coordinates": [ 6.12562, 45.92217 ] } },
{ "type": "Feature", "properties": { "gml_id": "ETABLISSEMENTS_POLLUEURS.1663", "identifiant": "0006104648", "idetab": "1663", "nom": "NTN EUROPE", "codeape": "2815Z", "cp": "74960" }, "geometry": { "type": "Point", "coordinates": [ 6.09892, 45.92245 ] } },
{ "type": "Feature", "properties": { "gml_id": "ETABLISSEMENTS_POLLUEURS.1661", "identifiant": "0006104645", "idetab": "1661", "nom": "THERMOCOMPACT", "codeape": "2561Z", "cp": "74330" }, "geometry": { "type": "Point", "coordinates": [ 6.11531, 45.92717 ] } },
{ "type": "Feature", "properties": { "gml_id": "ETABLISSEMENTS_POLLUEURS.599063", "identifiant": "0006104537", "idetab": "599063", "nom": "ANNECY PEINTURE", "codeape": "2561Z", "cp": "74000" }, "geometry": { "type": "Point", "coordinates": [ 6.17035, 45.93286 ] } },
{ "type": "Feature", "properties": { "gml_id": "ETABLISSEMENTS_POLLUEURS.1665", "identifiant": "0006104660", "idetab": "1665", "nom": "BAIKOWSKI", "codeape": "2013B", "cp": "74330" }, "geometry": { "type": "Point", "coordinates": [ 6.06719, 45.93704 ] } },
{ "type": "Feature", "properties": { "gml_id": "ETABLISSEMENTS_POLLUEURS.1644", "identifiant": "0006104549", "idetab": "1644", "nom": "NTN EUROPE", "codeape": "2815Z", "cp": "74370" }, "geometry": { "type": "Point", "coordinates": [ 6.13469, 45.93958 ] } },
{ "type": "Feature", "properties": { "gml_id": "ETABLISSEMENTS_POLLUEURS.1645", "identifiant": "0006104551", "idetab": "1645", "nom": "DASSAULT AVIATION", "codeape": "3030Z", "cp": "74370" }, "geometry": { "type": "Point", "coordinates": [ 6.15437, 45.9472 ] } },
{ "type": "Feature", "properties": { "gml_id": "ETABLISSEMENTS_POLLUEURS.1678", "identifiant": "0006104720", "idetab": "1678", "nom": "NTN EUROPE", "codeape": "2815Z", "cp": "74600" }, "geometry": { "type": "Point", "coordinates": [ 6.08834, 45.8893 ] } },
{ "type": "Feature", "properties": { "gml_id": "ETABLISSEMENTS_POLLUEURS.591979", "identifiant": "0006104721", "idetab": "591979", "nom": "DALKIA", "codeape": "3530Z", "cp": "74600" }, "geometry": { "type": "Point", "coordinates": [ 6.08428, 45.86537 ] } },
{ "type": "Feature", "properties": { "gml_id": "ETABLISSEMENTS_POLLUEURS.4537", "identifiant": "0006104739", "idetab": "4537", "nom": "FOURNIER", "codeape": "3102Z", "cp": "74230" }, "geometry": { "type": "Point", "coordinates": [ 6.38603, 45.89122 ] } },
{ "type": "Feature", "properties": { "gml_id": "ETABLISSEMENTS_POLLUEURS.587895", "identifiant": "0006104754", "idetab": "587895", "nom": "VIGNIER F", "codeape": "3832Z", "cp": "74370" }, "geometry": { "type": "Point", "coordinates": [ 6.20096, 45.95305 ] } },
{ "type": "Feature", "properties": { "gml_id": "ETABLISSEMENTS_POLLUEURS.599077", "identifiant": "0006108077", "idetab": "599077", "nom": "RESISTARC", "codeape": "2550B", "cp": "74650" }, "geometry": { "type": "Point", "coordinates": [ 6.0779, 45.89083 ] } },
{ "type": "Feature", "properties": { "gml_id": "ETABLISSEMENTS_POLLUEURS.590418", "identifiant": "0006108909", "idetab": "590418", "nom": "AUCHAN HYPERMARCHE", "codeape": "4711F", "cp": "74330" }, "geometry": { "type": "Point", "coordinates": [ 6.08058, 45.92919 ] } },
{ "type": "Feature", "properties": { "gml_id": "ETABLISSEMENTS_POLLUEURS.12293", "identifiant": "0006110135", "idetab": "12293", "nom": "SUEZ RV CENTRE EST", "codeape": "3821Z", "cp": "74330" }, "geometry": { "type": "Point", "coordinates": [ 6.07673, 45.93323 ] } },
{ "type": "Feature", "properties": { "gml_id": "ETABLISSEMENTS_POLLUEURS.589687", "identifiant": "0006112773", "idetab": "589687", "nom": "ANNECY BIO-CHALEUR", "codeape": "3530Z", "cp": "74000" }, "geometry": { "type": "Point", "coordinates": [ 6.12728, 45.92425 ] } },
{ "type": "Feature", "properties": { "gml_id": "ETABLISSEMENTS_POLLUEURS.588799", "identifiant": "0006114627", "idetab": "588799", "nom": "CARRIERES HENRI ROUDIL", "codeape": "0812Z", "cp": "74650" }, "geometry": { "type": "Point", "coordinates": [ 6.04274, 45.88527 ] } },
{ "type": "Feature", "properties": { "gml_id": "ETABLISSEMENTS_POLLUEURS.591464", "identifiant": "0006114718", "idetab": "591464", "nom": "FRANSANO", "codeape": "2561Z", "cp": "74650" }, "geometry": { "type": "Point", "coordinates": [ 6.0781, 45.8985 ] } },
{ "type": "Feature", "properties": { "gml_id": "ETABLISSEMENTS_POLLUEURS.588811", "identifiant": "0006114815", "idetab": "588811", "nom": "SARL BRUN FILS TP - ISDI", "codeape": "4312A", "cp": "74150" }, "geometry": { "type": "Point", "coordinates": [ 6.009071, 45.890799 ] } },
{ "type": "Feature", "properties": { "gml_id": "ETABLISSEMENTS_POLLUEURS.588813", "identifiant": "0006114821", "idetab": "588813", "nom": "GALLAY TP  ISDI", "codeape": "4312A", "cp": "74220" }, "geometry": { "type": "Point", "coordinates": [ 6.427615, 45.907084 ] } },
{ "type": "Feature", "properties": { "gml_id": "ETABLISSEMENTS_POLLUEURS.588818", "identifiant": "0006114835", "idetab": "588818", "nom": "LATHUILLE FRERES - ISDI", "codeape": "4399C", "cp": "74450" }, "geometry": { "type": "Point", "coordinates": [ 6.410431, 45.922617 ] } },
{ "type": "Feature", "properties": { "gml_id": "ETABLISSEMENTS_POLLUEURS.13340", "identifiant": "0009000251", "idetab": "13340", "nom": "27E BCA", "codeape": "8422Z", "cp": "74960" }, "geometry": { "type": "Point", "coordinates": [ 6.1257, 45.89002 ] } },
{ "type": "Feature", "properties": { "gml_id": "ETABLISSEMENTS_POLLUEURS.595006", "identifiant": "0009077401", "idetab": "595006", "nom": "SYNDICAT MIXTE DU LAC D ANNECY", "codeape": "3700Z", "cp": "74960" }, "geometry": { "type": "Point", "coordinates": [ 6.09388, 45.90943 ] } },
{ "type": "Feature", "properties": { "gml_id": "ETABLISSEMENTS_POLLUEURS.11999", "identifiant": "0010800059", "idetab": "11999", "nom": "CARREFOUR ANNECY", "codeape": "4711F", "cp": "74009" }, "geometry": { "type": "Point", "coordinates": [ 6.12562, 45.905714 ] } },
{ "type": "Feature", "properties": { "gml_id": "ETABLISSEMENTS_POLLUEURS.13411", "identifiant": "0010800062", "idetab": "13411", "nom": "ANNECY RECUPERATION", "codeape": "4677Z", "cp": "74960" }, "geometry": { "type": "Point", "coordinates": [ 6.108967, 45.907454 ] } },
{ "type": "Feature", "properties": { "gml_id": "ETABLISSEMENTS_POLLUEURS.3497", "identifiant": "0010800082", "idetab": "3497", "nom": "SITE DE METZ-TESSY UNITÉ 6", "codeape": "361E", "cp": "74370" }, "geometry": { "type": "Point", "coordinates": [ 6.108062, 45.934632 ] } },
{ "type": "Feature", "properties": { "gml_id": "ETABLISSEMENTS_POLLUEURS.13805", "identifiant": "0010800098", "idetab": "13805", "nom": "FRANSANO", "codeape": "2561Z", "cp": "74960" }, "geometry": { "type": "Point", "coordinates": [ 6.091157, 45.914553 ] } },
{ "type": "Feature", "properties": { "gml_id": "ETABLISSEMENTS_POLLUEURS.3500", "identifiant": "0010800229", "idetab": "3500", "nom": "CENTRE HOSPITALIER ANNECY GENEVOIS", "codeape": "9601A", "cp": "74960" }, "geometry": { "type": "Point", "coordinates": [ 6.101401, 45.913053 ] } },
{ "type": "Feature", "properties": { "gml_id": "ETABLISSEMENTS_POLLUEURS.599259", "identifiant": "0010800237", "idetab": "599259", "nom": "SARL DUCRUET MAURICE&FILS", "codeape": "1610A", "cp": "74330" }, "geometry": { "type": "Point", "coordinates": [ 6.0682, 45.94345 ] } },
{ "type": "Feature", "properties": { "gml_id": "ETABLISSEMENTS_POLLUEURS.3501", "identifiant": "0010800258", "idetab": "3501", "nom": "GGB FRANCE EURL", "codeape": "2815Z", "cp": "74000" }, "geometry": { "type": "Point", "coordinates": [ 6.12097, 45.88979 ] } },
{ "type": "Feature", "properties": { "gml_id": "ETABLISSEMENTS_POLLUEURS.599347", "identifiant": "0010800322", "idetab": "599347", "nom": "FAERCH ANNECY", "codeape": "2222Z", "cp": "74330" }, "geometry": { "type": "Point", "coordinates": [ 6.11441, 45.92946 ] } },
{ "type": "Feature", "properties": { "gml_id": "ETABLISSEMENTS_POLLUEURS.10324", "identifiant": "0010800337", "idetab": "10324", "nom": "HYPERMARCHÉ GÉANT CASINO SEYNOD", "codeape": "4711F", "cp": "74600" }, "geometry": { "type": "Point", "coordinates": [ 6.089148, 45.881816 ] } },
{ "type": "Feature", "properties": { "gml_id": "ETABLISSEMENTS_POLLUEURS.13414", "identifiant": "0010800454", "idetab": "13414", "nom": "TEISSIER TECHNIQUE", "codeape": "2562B", "cp": "74650" }, "geometry": { "type": "Point", "coordinates": [ 6.08201, 45.89859 ] } },
{ "type": "Feature", "properties": { "gml_id": "ETABLISSEMENTS_POLLUEURS.588303", "identifiant": "0057400015", "idetab": "588303", "nom": "ENTREMONT ALLIANCE", "codeape": "1051C", "cp": "74000" }, "geometry": { "type": "Point", "coordinates": [ 6.1257, 45.89002 ] } },
{ "type": "Feature", "properties": { "gml_id": "ETABLISSEMENTS_POLLUEURS.588308", "identifiant": "0057400536", "idetab": "588308", "nom": "AUCHAN", "codeape": "4711F", "cp": "74330" }, "geometry": { "type": "Point", "coordinates": [ 6.090972, 45.936914 ] } },
{ "type": "Feature", "properties": { "gml_id": "ETABLISSEMENTS_POLLUEURS.7470", "identifiant": "74010061", "idetab": "7470", "nom": "ENTREMONT", "codeape": "1051C", "cp": "74001" }, "geometry": { "type": "Point", "coordinates": [ 6.135603, 45.911405 ] } },
{ "type": "Feature", "properties": { "gml_id": "ETABLISSEMENTS_POLLUEURS.10655", "identifiant": "0006104590", "idetab": "10655", "nom": "EXCOFFIER RECYCLAGE", "codeape": "3832Z", "cp": "74350" }, "geometry": { "type": "Point", "coordinates": [ 6.13869, 45.9996 ] } },
{ "type": "Feature", "properties": { "gml_id": "ETABLISSEMENTS_POLLUEURS.12910", "identifiant": "0006107905", "idetab": "12910", "nom": "ORTEC ENVIRONNEMENT", "codeape": "3700Z", "cp": "74370" }, "geometry": { "type": "Point", "coordinates": [ 6.16756, 45.9844 ] } },
{ "type": "Feature", "properties": { "gml_id": "ETABLISSEMENTS_POLLUEURS.590692", "identifiant": "0010800263", "idetab": "590692", "nom": "ANOMAX", "codeape": "2561Z", "cp": "74370" }, "geometry": { "type": "Point", "coordinates": [ 6.13905, 45.97119 ] } },
{ "type": "Feature", "properties": { "gml_id": "ETABLISSEMENTS_POLLUEURS.588745", "identifiant": "0006101768", "idetab": "588745", "nom": "CARRIERES DE CUSY", "codeape": "0812Z", "cp": "74540" }, "geometry": { "type": "Point", "coordinates": [ 6.0072, 45.75206 ] } },
{ "type": "Feature", "properties": { "gml_id": "ETABLISSEMENTS_POLLUEURS.588340", "identifiant": "0003200382", "idetab": "588340", "nom": "GAEC LES CHATELETS", "codeape": "0141Z", "cp": "74540" }, "geometry": { "type": "Point", "coordinates": [ 6.03578, 45.7894 ] } },
{ "type": "Feature", "properties": { "gml_id": "ETABLISSEMENTS_POLLUEURS.7899", "identifiant": "0006104520", "idetab": "7899", "nom": "VIOLLET INDUSTRIES", "codeape": "2511Z", "cp": "74540" }, "geometry": { "type": "Point", "coordinates": [ 6.00622, 45.8143 ] } },
{ "type": "Feature", "properties": { "gml_id": "ETABLISSEMENTS_POLLUEURS.12894", "identifiant": "0006104519", "idetab": "12894", "nom": "LABORATOIRES GALDERMA", "codeape": "2120Z", "cp": "74540" }, "geometry": { "type": "Point", "coordinates": [ 6.01533, 45.82162 ] } },
{ "type": "Feature", "properties": { "gml_id": "ETABLISSEMENTS_POLLUEURS.13917", "identifiant": "0057400196", "idetab": "13917", "nom": "GAEC LES CHATELETS", "codeape": "0141Z", "cp": "74540" }, "geometry": { "type": "Point", "coordinates": [ 6.054582, 45.789644 ] } },
{ "type": "Feature", "properties": { "gml_id": "ETABLISSEMENTS_POLLUEURS.3467", "identifiant": "0010400157", "idetab": "3467", "nom": "IDEX ENVIRONNEMENT", "codeape": "3821Z", "cp": "38530" }, "geometry": { "type": "Point", "coordinates": [ 6.00365, 45.42299 ] } },
{ "type": "Feature", "properties": { "gml_id": "ETABLISSEMENTS_POLLUEURS.13796", "identifiant": "0010400018", "idetab": "13796", "nom": "ARCELORMITTAL CENTRE DE SERVICES PONTCHARRA", "codeape": "4672Z", "cp": "38530" }, "geometry": { "type": "Point", "coordinates": [ 6.019094, 45.43164 ] } },
{ "type": "Feature", "properties": { "gml_id": "ETABLISSEMENTS_POLLUEURS.588822", "identifiant": "0006114874", "idetab": "588822", "nom": "COLAS RHONE ALPES AUVERGNE ISDI BEAUFORT", "codeape": "4211Z", "cp": "73270" }, "geometry": { "type": "Point", "coordinates": [ 6.57562, 45.717136 ] } },
{ "type": "Feature", "properties": { "gml_id": "ETABLISSEMENTS_POLLUEURS.588831", "identifiant": "0006114915", "idetab": "588831", "nom": "MARTOIA T P", "codeape": "4221Z", "cp": "73270" }, "geometry": { "type": "Point", "coordinates": [ 6.58251, 45.72406 ] } },
{ "type": "Feature", "properties": { "gml_id": "ETABLISSEMENTS_POLLUEURS.588742", "identifiant": "0006101498", "idetab": "588742", "nom": "CARRIERES & MATERIAUX SUD-EST - CMSE", "codeape": "0811Z", "cp": "73210" }, "geometry": { "type": "Point", "coordinates": [ 6.60432, 45.54248 ] } },
{ "type": "Feature", "properties": { "gml_id": "ETABLISSEMENTS_POLLUEURS.588825", "identifiant": "0006114878", "idetab": "588825", "nom": "COMMUNE DE FRENEY", "codeape": "8411Z", "cp": "73500" }, "geometry": { "type": "Point", "coordinates": [ 6.61239, 45.1838 ] } },
{ "type": "Feature", "properties": { "gml_id": "ETABLISSEMENTS_POLLUEURS.1675", "identifiant": "0006104705", "idetab": "1675", "nom": "SKIS DYNASTAR SA", "codeape": "3230Z", "cp": "74700" }, "geometry": { "type": "Point", "coordinates": [ 6.62996, 45.9491 ] } },
{ "type": "Feature", "properties": { "gml_id": "ETABLISSEMENTS_POLLUEURS.588829", "identifiant": "0006114909", "idetab": "588829", "nom": "MAIRIE DE COURCHEVEL", "codeape": "8411Z", "cp": "73120" }, "geometry": { "type": "Point", "coordinates": [ 6.637034, 45.395152 ] } },
{ "type": "Feature", "properties": { "gml_id": "ETABLISSEMENTS_POLLUEURS.588800", "identifiant": "0006114633", "idetab": "588800", "nom": "ISDI DE LA VIGNE AU PONT", "codeape": "8411Z", "cp": "73210" }, "geometry": { "type": "Point", "coordinates": [ 6.66875, 45.567448 ] } },
{ "type": "Feature", "properties": { "gml_id": "ETABLISSEMENTS_POLLUEURS.588833", "identifiant": "0006114922", "idetab": "588833", "nom": "SOCIÉTÉ FRANÇAISE TUNNEL ROUTIER DU FRÉJUS", "codeape": "5221Z", "cp": "73500" }, "geometry": { "type": "Point", "coordinates": [ 6.671012, 45.201521 ] } },
{ "type": "Feature", "properties": { "gml_id": "ETABLISSEMENTS_POLLUEURS.590207", "identifiant": "0006114642", "idetab": "590207", "nom": "COMMUNE DE CHAMPAGNY EN VANOISE", "codeape": "8411Z", "cp": "73350" }, "geometry": { "type": "Point", "coordinates": [ 6.68807, 45.45157 ] } },
{ "type": "Feature", "properties": { "gml_id": "ETABLISSEMENTS_POLLUEURS.1638", "identifiant": "0006104509", "idetab": "1638", "nom": "UIOM VALEZAN", "codeape": "3821Z", "cp": "73210" }, "geometry": { "type": "Point", "coordinates": [ 6.694679, 45.575118 ] } },
{ "type": "Feature", "properties": { "gml_id": "ETABLISSEMENTS_POLLUEURS.590208", "identifiant": "0006114644", "idetab": "590208", "nom": "CC VAL VANOISE", "codeape": "8411Z", "cp": "73350" }, "geometry": { "type": "Point", "coordinates": [ 6.70276, 45.42302 ] } },
{ "type": "Feature", "properties": { "gml_id": "ETABLISSEMENTS_POLLUEURS.1664", "identifiant": "0006104655", "idetab": "1664", "nom": "S.E.T MONT-BLANC", "codeape": "3821Z", "cp": "74190" }, "geometry": { "type": "Point", "coordinates": [ 6.70757, 45.91917 ] } },
{ "type": "Feature", "properties": { "gml_id": "ETABLISSEMENTS_POLLUEURS.4546", "identifiant": "0006105214", "idetab": "4546", "nom": "PRODUITS CHIMIQUES DU MONT BLANC", "codeape": "6820B", "cp": "74190" }, "geometry": { "type": "Point", "coordinates": [ 6.71455, 45.91675 ] } },
{ "type": "Feature", "properties": { "gml_id": "ETABLISSEMENTS_POLLUEURS.13309", "identifiant": "0009000208", "idetab": "13309", "nom": "OFF NAT ETUDES RECHERCHES AEROSPATIALES", "codeape": "7219Z", "cp": "73500" }, "geometry": { "type": "Point", "coordinates": [ 6.72142, 45.21643 ] } },
{ "type": "Feature", "properties": { "gml_id": "ETABLISSEMENTS_POLLUEURS.1687", "identifiant": "0006104769", "idetab": "1687", "nom": "SGL CARBON SA", "codeape": "2399Z", "cp": "74190" }, "geometry": { "type": "Point", "coordinates": [ 6.72811, 45.9265 ] } },
{ "type": "Feature", "properties": { "gml_id": "ETABLISSEMENTS_POLLUEURS.588824", "identifiant": "0006114876", "idetab": "588824", "nom": "COMMUNE BOURG-SAINT-MAURICE LA TÊTE - ARC 1600 - ISDI", "codeape": "8411Z", "cp": "73700" }, "geometry": { "type": "Point", "coordinates": [ 6.769975, 45.616391 ] } },
{ "type": "Feature", "properties": { "gml_id": "ETABLISSEMENTS_POLLUEURS.588815", "identifiant": "0006114823", "idetab": "588815", "nom": "COMMUNAUTE DE COMMUNES DE LA VALLEE DE CHAMONIX MONT BLANC", "codeape": "3811Z", "cp": "74310" }, "geometry": { "type": "Point", "coordinates": [ 6.790205, 45.891802 ] } },
{ "type": "Feature", "properties": { "gml_id": "ETABLISSEMENTS_POLLUEURS.590425", "identifiant": "0006114877", "idetab": "590425", "nom": "COMMUNE DE BOURG SAINT MAURICE", "codeape": "8411Z", "cp": "73700" }, "geometry": { "type": "Point", "coordinates": [ 6.79043, 45.59583 ] } },
{ "type": "Feature", "properties": { "gml_id": "ETABLISSEMENTS_POLLUEURS.14100", "identifiant": "0006101808", "idetab": "14100", "nom": "GRANULATS VICAT", "codeape": "0812Z", "cp": "74310" }, "geometry": { "type": "Point", "coordinates": [ 6.80514, 45.89278 ] } },
{ "type": "Feature", "properties": { "gml_id": "ETABLISSEMENTS_POLLUEURS.588826", "identifiant": "0006114880", "idetab": "588826", "nom": "COMMUNE DE MONTVALEZAN - ISDI NANT CRUET", "codeape": "8411Z", "cp": "73700" }, "geometry": { "type": "Point", "coordinates": [ 6.844867, 45.612543 ] } },
{ "type": "Feature", "properties": { "gml_id": "ETABLISSEMENTS_POLLUEURS.588827", "identifiant": "0006114881", "idetab": "588827", "nom": "COMMUNE DE MONTVALEZAN", "codeape": "8411Z", "cp": "73700" }, "geometry": { "type": "Point", "coordinates": [ 6.846418, 45.630119 ] } },
{ "type": "Feature", "properties": { "gml_id": "ETABLISSEMENTS_POLLUEURS.590426", "identifiant": "0006114879", "idetab": "590426", "nom": "COMMUNE DE MONTVALEZAN", "codeape": "8411Z", "cp": "73700" }, "geometry": { "type": "Point", "coordinates": [ 6.84651, 45.62784 ] } },
{ "type": "Feature", "properties": { "gml_id": "ETABLISSEMENTS_POLLUEURS.1634", "identifiant": "0006104495", "idetab": "1634", "nom": "UIOM DES BRÉVIÈRES", "codeape": "3821Z", "cp": "73320" }, "geometry": { "type": "Point", "coordinates": [ 6.90747, 45.469422 ] } },
{ "type": "Feature", "properties": { "gml_id": "ETABLISSEMENTS_POLLUEURS.3495", "identifiant": "0010700373", "idetab": "3495", "nom": "ANETT SAVOIE", "codeape": "7729Z", "cp": "73210" }, "geometry": { "type": "Point", "coordinates": [ 6.657246, 45.5542 ] } },
{ "type": "Feature", "properties": { "gml_id": "ETABLISSEMENTS_POLLUEURS.13413", "identifiant": "0010800446", "idetab": "13413", "nom": "EXCOFFIER MONT-BLANC", "codeape": "3832Z", "cp": "74700" }, "geometry": { "type": "Point", "coordinates": [ 6.63376, 45.95727 ] } }
]
}
