{
"type": "FeatureCollection",
"name": "ms:ETABLISSEMENTS_POLLUEURS",
"crs": { "type": "name", "properties": { "name": "urn:ogc:def:crs:OGC:1.3:CRS84" } },
"features": [
{ "type": "Feature", "properties": { "gml_id": "ETABLISSEMENTS_POLLUEURS.591575", "identifiant": "0006800181", "idetab": "591575", "nom": "SEVIGNE INDUSTRIES", "codeape": "4311Z", "cp": "12490" }, "geometry": { "type": "Point", "coordinates": [ 2.91951, 44.03761 ] } },
{ "type": "Feature", "properties": { "gml_id": "ETABLISSEMENTS_POLLUEURS.9187", "identifiant": "0006803678", "idetab": "9187", "nom": "SOCIETE FROMAGERE DE SAINT GEORGES", "codeape": "1051C", "cp": "12100" }, "geometry": { "type": "Point", "coordinates": [ 2.986218, 44.065786 ] } },
{ "type": "Feature", "properties": { "gml_id": "ETABLISSEMENTS_POLLUEURS.598790", "identifiant": "0100038333", "idetab": "598790", "nom": "BETA RENEWABLES FRANCE", "codeape": "3511Z", "cp": "12430" }, "geometry": { "type": "Point", "coordinates": [ 2.76877, 44.03894 ] } },
{ "type": "Feature", "properties": { "gml_id": "ETABLISSEMENTS_POLLUEURS.591210", "identifiant": "0058100457", "idetab": "591210", "nom": "PORCI SEGALA", "codeape": "4623Z", "cp": "81190" }, "geometry": { "type": "Point", "coordinates": [ 2.27447, 44.09255 ] } },
{ "type": "Feature", "properties": { "gml_id": "ETABLISSEMENTS_POLLUEURS.11273", "identifiant": "81292009", "idetab": "11273", "nom": "SICA SAS PORCI SÉGALA", "codeape": "0146Z", "cp": "81190" }, "geometry": { "type": "Point", "coordinates": [ 2.317558, 44.108783 ] } },
{ "type": "Feature", "properties": { "gml_id": "ETABLISSEMENTS_POLLUEURS.2875", "identifiant": "0006802269", "idetab": "2875", "nom": "HYDRO EXTRUSION ALBI", "codeape": "2442Z", "cp": "81450" }, "geometry": { "type": "Point", "coordinates": [ 2.16125, 44.01028 ] } },
{ "type": "Feature", "properties": { "gml_id": "ETABLISSEMENTS_POLLUEURS.9191", "identifiant": "0006803826", "idetab": "9191", "nom": "HYDRO EXTRUSION ALBI SAS", "codeape": "2442Z", "cp": "81450" }, "geometry": { "type": "Point", "coordinates": [ 2.161288, 44.01068 ] } },
{ "type": "Feature", "properties": { "gml_id": "ETABLISSEMENTS_POLLUEURS.594848", "identifiant": "0006803132", "idetab": "594848", "nom": "LHOIST FRANCE OUEST", "codeape": "2352Z", "cp": "81400" }, "geometry": { "type": "Point", "coordinates": [ 2.11957, 44.043177 ] } },
{ "type": "Feature", "properties": { "gml_id": "ETABLISSEMENTS_POLLUEURS.2873", "identifiant": "0006802253", "idetab": "2873", "nom": "RENOV-EMBAL SUD", "codeape": "372Z", "cp": "81400" }, "geometry": { "type": "Point", "coordinates": [ 2.13306, 44.047612 ] } },
{ "type": "Feature", "properties": { "gml_id": "ETABLISSEMENTS_POLLUEURS.8074", "identifiant": "0006802332", "idetab": "8074", "nom": "FARAL FRANCE SAS", "codeape": "2521Z", "cp": "81400" }, "geometry": { "type": "Point", "coordinates": [ 2.158896, 44.052899 ] } },
{ "type": "Feature", "properties": { "gml_id": "ETABLISSEMENTS_POLLUEURS.5157", "identifiant": "0006802334", "idetab": "5157", "nom": "GRES OCCITAN CARRELAGES", "codeape": "263Z", "cp": "81400" }, "geometry": { "type": "Point", "coordinates": [ 2.158896, 44.052899 ] } },
{ "type": "Feature", "properties": { "gml_id": "ETABLISSEMENTS_POLLUEURS.7002", "identifiant": "0006804785", "idetab": "7002", "nom": "CET DE LA BABINIÈRE", "codeape": "3821Z", "cp": "81400" }, "geometry": { "type": "Point", "coordinates": [ 2.1383, 44.062202 ] } },
{ "type": "Feature", "properties": { "gml_id": "ETABLISSEMENTS_POLLUEURS.593417", "identifiant": "0006802328", "idetab": "593417", "nom": "SICAE DU CARMAUSIN", "codeape": "3514Z", "cp": "81640" }, "geometry": { "type": "Point", "coordinates": [ 2.13043, 44.06282 ] } },
{ "type": "Feature", "properties": { "gml_id": "ETABLISSEMENTS_POLLUEURS.9186", "identifiant": "0006803676", "idetab": "9186", "nom": "SOCIETE D'ECONOMIE MIXTE DE L'ABATTOIR DU VILLEFRANCHOIS", "codeape": "1011Z", "cp": "12200" }, "geometry": { "type": "Point", "coordinates": [ 2.01784, 44.33168 ] } },
{ "type": "Feature", "properties": { "gml_id": "ETABLISSEMENTS_POLLUEURS.10946", "identifiant": "0006803659", "idetab": "10946", "nom": "SOLEVIAL", "codeape": "1091Z", "cp": "12200" }, "geometry": { "type": "Point", "coordinates": [ 2.01898, 44.33294 ] } },
{ "type": "Feature", "properties": { "gml_id": "ETABLISSEMENTS_POLLUEURS.11869", "identifiant": "0006803547", "idetab": "11869", "nom": "CASTES INDUSTRIE", "codeape": "2223Z", "cp": "12200" }, "geometry": { "type": "Point", "coordinates": [ 2.00886, 44.36059 ] } },
{ "type": "Feature", "properties": { "gml_id": "ETABLISSEMENTS_POLLUEURS.590568", "identifiant": "0006803579", "idetab": "590568", "nom": "SOCIETE INDUSTRIELLE DE RECUPERATION DES METAUX", "codeape": "4311Z", "cp": "12260" }, "geometry": { "type": "Point", "coordinates": [ 2.03287, 44.43584 ] } },
{ "type": "Feature", "properties": { "gml_id": "ETABLISSEMENTS_POLLUEURS.9959", "identifiant": "0006806855", "idetab": "9959", "nom": "SYNDICAT DÉPARTEMENTAL DES ORDURES MÉNAGÈRES (SYDOM) DE L'AVEYRON", "codeape": "3821Z", "cp": "12200" }, "geometry": { "type": "Point", "coordinates": [ 2.032957, 44.353228 ] } },
{ "type": "Feature", "properties": { "gml_id": "ETABLISSEMENTS_POLLUEURS.13223", "identifiant": "0006807619", "idetab": "13223", "nom": "SYDOM AVEYRON", "codeape": "3821Z", "cp": "12200" }, "geometry": { "type": "Point", "coordinates": [ 2.026483, 44.380445 ] } },
{ "type": "Feature", "properties": { "gml_id": "ETABLISSEMENTS_POLLUEURS.10960", "identifiant": "0006807835", "idetab": "10960", "nom": "SMDVDMAT TRIFYL", "codeape": "3821Z", "cp": "81400" }, "geometry": { "type": "Point", "coordinates": [ 2.127494, 44.053727 ] } },
{ "type": "Feature", "properties": { "gml_id": "ETABLISSEMENTS_POLLUEURS.589078", "identifiant": "0006807901", "idetab": "589078", "nom": "SYNDICAT MIXTE DEPARTEMENTAL POUR LA VALORISATION DES DECHETS MENAGERS ET ASSIMILES", "codeape": "3821Z", "cp": "81400" }, "geometry": { "type": "Point", "coordinates": [ 2.13408, 44.03523 ] } },
{ "type": "Feature", "properties": { "gml_id": "ETABLISSEMENTS_POLLUEURS.13236", "identifiant": "0006810014", "idetab": "13236", "nom": "OUEST AVEYRON COMMUNAUTE", "codeape": "8411Z", "cp": "12200" }, "geometry": { "type": "Point", "coordinates": [ 2.01784, 44.33168 ] } },
{ "type": "Feature", "properties": { "gml_id": "ETABLISSEMENTS_POLLUEURS.589090", "identifiant": "0006811324", "idetab": "589090", "nom": "CC AVEYRON BAS SEGALA VIAUR", "codeape": "8411Z", "cp": "12440" }, "geometry": { "type": "Point", "coordinates": [ 2.20154, 44.21816 ] } },
{ "type": "Feature", "properties": { "gml_id": "ETABLISSEMENTS_POLLUEURS.595037", "identifiant": "0006811332", "idetab": "595037", "nom": "COMMUNAUTE DE COMMUNES MONTBAZENS", "codeape": "8411Z", "cp": "12220" }, "geometry": { "type": "Point", "coordinates": [ 2.216, 44.43571 ] } },
{ "type": "Feature", "properties": { "gml_id": "ETABLISSEMENTS_POLLUEURS.589098", "identifiant": "0006811333", "idetab": "589098", "nom": "COMMUNAUTE DE COMMUNES DU REQUISTANAIS", "codeape": "3811Z", "cp": "12170" }, "geometry": { "type": "Point", "coordinates": [ 2.5347, 44.03646 ] } },
{ "type": "Feature", "properties": { "gml_id": "ETABLISSEMENTS_POLLUEURS.595718", "identifiant": "0006803648", "idetab": "595718", "nom": "SOCIETE FROMAGERE DE REQUISTA", "codeape": "1051C", "cp": "12170" }, "geometry": { "type": "Point", "coordinates": [ 2.53088, 44.04045 ] } },
{ "type": "Feature", "properties": { "gml_id": "ETABLISSEMENTS_POLLUEURS.12425", "identifiant": "0006803568", "idetab": "12425", "nom": "BRIANE JEAN", "codeape": "3832Z", "cp": "12170" }, "geometry": { "type": "Point", "coordinates": [ 2.44264, 44.08494 ] } },
{ "type": "Feature", "properties": { "gml_id": "ETABLISSEMENTS_POLLUEURS.589096", "identifiant": "0006811330", "idetab": "589096", "nom": "COMMUNAUTE DE COMMUNES DE LEVEZOU-PARELOUP", "codeape": "8411Z", "cp": "12430" }, "geometry": { "type": "Point", "coordinates": [ 2.70477, 44.08867 ] } },
{ "type": "Feature", "properties": { "gml_id": "ETABLISSEMENTS_POLLUEURS.9209", "identifiant": "0006804316", "idetab": "9209", "nom": "CARRIERES DU SUD OUEST", "codeape": "0812Z", "cp": "81190" }, "geometry": { "type": "Point", "coordinates": [ 2.31697, 44.11741 ] } },
{ "type": "Feature", "properties": { "gml_id": "ETABLISSEMENTS_POLLUEURS.589097", "identifiant": "0006811331", "idetab": "589097", "nom": "COMMUNAUTE DE COMMUNES DE LEVEZOU-PARELOUP", "codeape": "8411Z", "cp": "12410" }, "geometry": { "type": "Point", "coordinates": [ 2.80677, 44.15636 ] } },
{ "type": "Feature", "properties": { "gml_id": "ETABLISSEMENTS_POLLUEURS.589103", "identifiant": "0006811347", "idetab": "589103", "nom": "PAYS SEGALI COMMUNAUTE", "codeape": "8411Z", "cp": "12800" }, "geometry": { "type": "Point", "coordinates": [ 2.42536, 44.19566 ] } },
{ "type": "Feature", "properties": { "gml_id": "ETABLISSEMENTS_POLLUEURS.589093", "identifiant": "0006811327", "idetab": "589093", "nom": "COMMUNAUTE DE COMMUNES DE LEVEZOU-PARELOUP", "codeape": "8411Z", "cp": "12780" }, "geometry": { "type": "Point", "coordinates": [ 2.91241, 44.2339 ] } },
{ "type": "Feature", "properties": { "gml_id": "ETABLISSEMENTS_POLLUEURS.589106", "identifiant": "0006811351", "idetab": "589106", "nom": "EDF - GU POUGET", "codeape": "3511Z", "cp": "12290" }, "geometry": { "type": "Point", "coordinates": [ 2.721908, 44.267017 ] } },
{ "type": "Feature", "properties": { "gml_id": "ETABLISSEMENTS_POLLUEURS.599247", "identifiant": "0003703615", "idetab": "599247", "nom": "EARL DU LAC DE MATEFAN", "codeape": "0146Z", "cp": "12290" }, "geometry": { "type": "Point", "coordinates": [ 2.83967, 44.27987 ] } },
{ "type": "Feature", "properties": { "gml_id": "ETABLISSEMENTS_POLLUEURS.589851", "identifiant": "0006810821", "idetab": "589851", "nom": "SEGALA TP", "codeape": "4312A", "cp": "12160" }, "geometry": { "type": "Point", "coordinates": [ 2.42643, 44.28068 ] } },
{ "type": "Feature", "properties": { "gml_id": "ETABLISSEMENTS_POLLUEURS.13181", "identifiant": "0006803481", "idetab": "13181", "nom": "RAGT SEMENCES", "codeape": "1061B", "cp": "12450" }, "geometry": { "type": "Point", "coordinates": [ 2.52552, 44.28506 ] } },
{ "type": "Feature", "properties": { "gml_id": "ETABLISSEMENTS_POLLUEURS.591713", "identifiant": "0051200281", "idetab": "591713", "nom": "LO PORCEL", "codeape": "0146Z", "cp": "12160" }, "geometry": { "type": "Point", "coordinates": [ 2.42151, 44.28649 ] } },
{ "type": "Feature", "properties": { "gml_id": "ETABLISSEMENTS_POLLUEURS.591600", "identifiant": "0006811361", "idetab": "591600", "nom": "NEXTEAM OLEMPS MACHINING", "codeape": "2562B", "cp": "12510" }, "geometry": { "type": "Point", "coordinates": [ 2.55694, 44.33798 ] } },
{ "type": "Feature", "properties": { "gml_id": "ETABLISSEMENTS_POLLUEURS.5226", "identifiant": "0006803638", "idetab": "5226", "nom": "TANNERIE ARNAL", "codeape": "1511Z", "cp": "12000" }, "geometry": { "type": "Point", "coordinates": [ 2.57736, 44.34293 ] } },
{ "type": "Feature", "properties": { "gml_id": "ETABLISSEMENTS_POLLUEURS.2914", "identifiant": "0006803963", "idetab": "2914", "nom": "SA COVED", "codeape": "3811Z", "cp": "12850" }, "geometry": { "type": "Point", "coordinates": [ 2.643301, 44.345431 ] } },
{ "type": "Feature", "properties": { "gml_id": "ETABLISSEMENTS_POLLUEURS.588104", "identifiant": "0006803119", "idetab": "588104", "nom": "SOCIETE DES MATERIAUX ENROBES D'AVEYRON", "codeape": "2399Z", "cp": "12510" }, "geometry": { "type": "Point", "coordinates": [ 2.52063, 44.34592 ] } },
{ "type": "Feature", "properties": { "gml_id": "ETABLISSEMENTS_POLLUEURS.590725", "identifiant": "0051200398", "idetab": "590725", "nom": "MONSIEUR LIONEL TAURIAC", "codeape": "0146Z", "cp": "12240" }, "geometry": { "type": "Point", "coordinates": [ 2.35622, 44.34593 ] } },
{ "type": "Feature", "properties": { "gml_id": "ETABLISSEMENTS_POLLUEURS.594842", "identifiant": "0051201399", "idetab": "594842", "nom": "DU PUECH BLANC", "codeape": "0146Z", "cp": "12290" }, "geometry": { "type": "Point", "coordinates": [ 2.83249, 44.29273 ] } },
{ "type": "Feature", "properties": { "gml_id": "ETABLISSEMENTS_POLLUEURS.589295", "identifiant": "12056400", "idetab": "589295", "nom": "EARL LANDAPORC", "codeape": "0146Z", "cp": "12160" }, "geometry": { "type": "Point", "coordinates": [ 2.420566, 44.27394 ] } },
{ "type": "Feature", "properties": { "gml_id": "ETABLISSEMENTS_POLLUEURS.589296", "identifiant": "12068620", "idetab": "589296", "nom": "LIONEL TAURIAC", "codeape": "0141Z", "cp": "12240" }, "geometry": { "type": "Point", "coordinates": [ 2.335084, 44.353669 ] } },
{ "type": "Feature", "properties": { "gml_id": "ETABLISSEMENTS_POLLUEURS.598313", "identifiant": "0006802631", "idetab": "598313", "nom": "SOLEVIAL", "codeape": "1091Z", "cp": "12220" }, "geometry": { "type": "Point", "coordinates": [ 2.23484, 44.48026 ] } },
{ "type": "Feature", "properties": { "gml_id": "ETABLISSEMENTS_POLLUEURS.589837", "identifiant": "0006804174", "idetab": "589837", "nom": "CARLES", "codeape": "1629Z", "cp": "12700" }, "geometry": { "type": "Point", "coordinates": [ 2.09658, 44.54996 ] } },
{ "type": "Feature", "properties": { "gml_id": "ETABLISSEMENTS_POLLUEURS.5228", "identifiant": "0006803660", "idetab": "5228", "nom": "SOCIETE PLASTIQUES AVEYRON", "codeape": "2222Z", "cp": "12110" }, "geometry": { "type": "Point", "coordinates": [ 2.21887, 44.55169 ] } },
{ "type": "Feature", "properties": { "gml_id": "ETABLISSEMENTS_POLLUEURS.597610", "identifiant": "0003703020", "idetab": "597610", "nom": "SECHE ECO SERVICES", "codeape": "3900Z", "cp": "12110" }, "geometry": { "type": "Point", "coordinates": [ 2.22751, 44.55421 ] } },
{ "type": "Feature", "properties": { "gml_id": "ETABLISSEMENTS_POLLUEURS.2893", "identifiant": "0006802477", "idetab": "2893", "nom": "SOC NOUVELLE D'AFFINAGE DES METAUX", "codeape": "2445Z", "cp": "12110" }, "geometry": { "type": "Point", "coordinates": [ 2.21683, 44.55499 ] } },
{ "type": "Feature", "properties": { "gml_id": "ETABLISSEMENTS_POLLUEURS.9196", "identifiant": "0006803942", "idetab": "9196", "nom": "KALHYGE 1", "codeape": "9601A", "cp": "12300" }, "geometry": { "type": "Point", "coordinates": [ 2.26917, 44.55569 ] } },
{ "type": "Feature", "properties": { "gml_id": "ETABLISSEMENTS_POLLUEURS.5184", "identifiant": "0006802478", "idetab": "5184", "nom": "JINJIANG SAM", "codeape": "2453Z", "cp": "12110" }, "geometry": { "type": "Point", "coordinates": [ 2.235592, 44.561865 ] } },
{ "type": "Feature", "properties": { "gml_id": "ETABLISSEMENTS_POLLUEURS.590572", "identifiant": "0006804129", "idetab": "590572", "nom": "CASSE AUTO-BASSIN", "codeape": "4532Z", "cp": "12110" }, "geometry": { "type": "Point", "coordinates": [ 2.2143, 44.56274 ] } },
{ "type": "Feature", "properties": { "gml_id": "ETABLISSEMENTS_POLLUEURS.2892", "identifiant": "0006802476", "idetab": "2892", "nom": "VM BUILDING SOLUTIONS", "codeape": "2443Z", "cp": "12110" }, "geometry": { "type": "Point", "coordinates": [ 2.22892, 44.56336 ] } },
{ "type": "Feature", "properties": { "gml_id": "ETABLISSEMENTS_POLLUEURS.596661", "identifiant": "0003700083", "idetab": "596661", "nom": "SA ROUQUETTE TRAVAUX PUBLICS", "codeape": "4312A", "cp": "12300" }, "geometry": { "type": "Point", "coordinates": [ 2.26387, 44.5733 ] } },
{ "type": "Feature", "properties": { "gml_id": "ETABLISSEMENTS_POLLUEURS.5225", "identifiant": "0006803634", "idetab": "5225", "nom": "RAYNAL ET ROQUELAURE", "codeape": "1085Z", "cp": "12700" }, "geometry": { "type": "Point", "coordinates": [ 2.07723, 44.57704 ] } },
{ "type": "Feature", "properties": { "gml_id": "ETABLISSEMENTS_POLLUEURS.594242", "identifiant": "0006803218", "idetab": "594242", "nom": "SABLIERES ET CARRIERES DE LA MADELEINE", "codeape": "0811Z", "cp": "46270" }, "geometry": { "type": "Point", "coordinates": [ 2.11823, 44.57866 ] } },
{ "type": "Feature", "properties": { "gml_id": "ETABLISSEMENTS_POLLUEURS.5173", "identifiant": "0006802437", "idetab": "5173", "nom": "ABATTOIR DE CAPDENAC", "codeape": "6420Z", "cp": "12700" }, "geometry": { "type": "Point", "coordinates": [ 2.08379, 44.58006 ] } },
{ "type": "Feature", "properties": { "gml_id": "ETABLISSEMENTS_POLLUEURS.589073", "identifiant": "0006804362", "idetab": "589073", "nom": "FIGEAC AERO", "codeape": "2562B", "cp": "46100" }, "geometry": { "type": "Point", "coordinates": [ 2.03907, 44.5966 ] } },
{ "type": "Feature", "properties": { "gml_id": "ETABLISSEMENTS_POLLUEURS.5125", "identifiant": "0006802157", "idetab": "5125", "nom": "RATIER-FIGEAC", "codeape": "3030Z", "cp": "46101" }, "geometry": { "type": "Point", "coordinates": [ 2.00882, 44.6 ] } },
{ "type": "Feature", "properties": { "gml_id": "ETABLISSEMENTS_POLLUEURS.9178", "identifiant": "0006803219", "idetab": "9178", "nom": "SOCIETE DES CARRIERES DU MASSIF CENTRAL", "codeape": "0812Z", "cp": "46270" }, "geometry": { "type": "Point", "coordinates": [ 2.13433, 44.6597 ] } },
{ "type": "Feature", "properties": { "gml_id": "ETABLISSEMENTS_POLLUEURS.13197", "identifiant": "0006804442", "idetab": "13197", "nom": "PAPREC SUD-OUEST", "codeape": "3832Z", "cp": "46270" }, "geometry": { "type": "Point", "coordinates": [ 2.16151, 44.66729 ] } },
{ "type": "Feature", "properties": { "gml_id": "ETABLISSEMENTS_POLLUEURS.596601", "identifiant": "0006806535", "idetab": "596601", "nom": "HUGONENC NEGOCE", "codeape": "4669B", "cp": "46270" }, "geometry": { "type": "Point", "coordinates": [ 2.16493, 44.67376 ] } },
{ "type": "Feature", "properties": { "gml_id": "ETABLISSEMENTS_POLLUEURS.598038", "identifiant": "0003702115", "idetab": "598038", "nom": "S.A.S HAUT-SEGALA BIOENERGIE", "codeape": "3821Z", "cp": "46210" }, "geometry": { "type": "Point", "coordinates": [ 2.03018, 44.77959 ] } },
{ "type": "Feature", "properties": { "gml_id": "ETABLISSEMENTS_POLLUEURS.11394", "identifiant": "0006807822", "idetab": "11394", "nom": "SYDED DU LOT", "codeape": "3821Z", "cp": "46100" }, "geometry": { "type": "Point", "coordinates": [ 2.00624, 44.61398 ] } },
{ "type": "Feature", "properties": { "gml_id": "ETABLISSEMENTS_POLLUEURS.589099", "identifiant": "0006811343", "idetab": "589099", "nom": "COMMUNE DE DECAZEVILLE", "codeape": "8411Z", "cp": "12300" }, "geometry": { "type": "Point", "coordinates": [ 2.25469, 44.55701 ] } },
{ "type": "Feature", "properties": { "gml_id": "ETABLISSEMENTS_POLLUEURS.589114", "identifiant": "0006811383", "idetab": "589114", "nom": "SYDED DU LOT", "codeape": "3821Z", "cp": "46210" }, "geometry": { "type": "Point", "coordinates": [ 2.07952, 44.79836 ] } },
{ "type": "Feature", "properties": { "gml_id": "ETABLISSEMENTS_POLLUEURS.594840", "identifiant": "0051201301", "idetab": "594840", "nom": "SOCIETE AIR PORC", "codeape": "0146Z", "cp": "12260" }, "geometry": { "type": "Point", "coordinates": [ 2.08965, 44.49349 ] } },
{ "type": "Feature", "properties": { "gml_id": "ETABLISSEMENTS_POLLUEURS.588626", "identifiant": "0005603234", "idetab": "588626", "nom": "ISDI CTÉ CMNES CHÂTAIGNERAIE CANTALIENNE", "codeape": "3821Z", "cp": "15130" }, "geometry": { "type": "Point", "coordinates": [ 2.462944, 44.791959 ] } },
{ "type": "Feature", "properties": { "gml_id": "ETABLISSEMENTS_POLLUEURS.4216", "identifiant": "0005600125", "idetab": "4216", "nom": "ETABLISSEMENTS TEIL", "codeape": "3811Z", "cp": "15130" }, "geometry": { "type": "Point", "coordinates": [ 2.455196, 44.890252 ] } },
{ "type": "Feature", "properties": { "gml_id": "ETABLISSEMENTS_POLLUEURS.682", "identifiant": "0005600136", "idetab": "682", "nom": "QUALIPAC AURILLAC", "codeape": "2229A", "cp": "15002" }, "geometry": { "type": "Point", "coordinates": [ 2.43716, 44.90071 ] } },
{ "type": "Feature", "properties": { "gml_id": "ETABLISSEMENTS_POLLUEURS.12222", "identifiant": "0005600124", "idetab": "12222", "nom": "AUTO PIECES DEJOU", "codeape": "4532Z", "cp": "15130" }, "geometry": { "type": "Point", "coordinates": [ 2.49771, 44.90323 ] } },
{ "type": "Feature", "properties": { "gml_id": "ETABLISSEMENTS_POLLUEURS.12793", "identifiant": "0005601473", "idetab": "12793", "nom": "COVIAL", "codeape": "1011Z", "cp": "15000" }, "geometry": { "type": "Point", "coordinates": [ 2.42851, 44.9063 ] } },
{ "type": "Feature", "properties": { "gml_id": "ETABLISSEMENTS_POLLUEURS.596841", "identifiant": "0003201824", "idetab": "596841", "nom": "AURILLAC CHALEUR BOIS", "codeape": "3530Z", "cp": "15000" }, "geometry": { "type": "Point", "coordinates": [ 2.43879, 44.91139 ] } },
{ "type": "Feature", "properties": { "gml_id": "ETABLISSEMENTS_POLLUEURS.12812", "identifiant": "0005602574", "idetab": "12812", "nom": "ESCOT TELECOM", "codeape": "4222Z", "cp": "15000" }, "geometry": { "type": "Point", "coordinates": [ 2.432142, 44.914243 ] } },
{ "type": "Feature", "properties": { "gml_id": "ETABLISSEMENTS_POLLUEURS.6382", "identifiant": "0005600134", "idetab": "6382", "nom": "U.I.O.M. AURILLAC", "codeape": "3812Z", "cp": "15000" }, "geometry": { "type": "Point", "coordinates": [ 2.432142, 44.914243 ] } },
{ "type": "Feature", "properties": { "gml_id": "ETABLISSEMENTS_POLLUEURS.12777", "identifiant": "0005600132", "idetab": "12777", "nom": "CENTRE HOSPITALIER HENI MONDOR", "codeape": "8610Z", "cp": "15002" }, "geometry": { "type": "Point", "coordinates": [ 2.432142, 44.914243 ] } },
{ "type": "Feature", "properties": { "gml_id": "ETABLISSEMENTS_POLLUEURS.4217", "identifiant": "0005600137", "idetab": "4217", "nom": "LAFA COLLECTIVITES", "codeape": "3101Z", "cp": "15000" }, "geometry": { "type": "Point", "coordinates": [ 2.46563, 44.918448 ] } },
{ "type": "Feature", "properties": { "gml_id": "ETABLISSEMENTS_POLLUEURS.588589", "identifiant": "0005602457", "idetab": "588589", "nom": "ISDI COMMUNE PIERREFORT", "codeape": "8411Z", "cp": "15230" }, "geometry": { "type": "Point", "coordinates": [ 2.837897, 44.920365 ] } },
{ "type": "Feature", "properties": { "gml_id": "ETABLISSEMENTS_POLLUEURS.12778", "identifiant": "0005600150", "idetab": "12778", "nom": "SN BAR PLUS", "codeape": "1629Z", "cp": "15150" }, "geometry": { "type": "Point", "coordinates": [ 2.416041, 44.940609 ] } },
{ "type": "Feature", "properties": { "gml_id": "ETABLISSEMENTS_POLLUEURS.589604", "identifiant": "0005601899", "idetab": "589604", "nom": "ISDI CTÉ CMNES CERE ET GOUL ESTANIE-BAS", "codeape": "8411Z", "cp": "15800" }, "geometry": { "type": "Point", "coordinates": [ 2.578542, 44.952815 ] } },
{ "type": "Feature", "properties": { "gml_id": "ETABLISSEMENTS_POLLUEURS.4219", "identifiant": "0005600163", "idetab": "4219", "nom": "LABORATOIRES LYOCENTRE", "codeape": "244C", "cp": "15130" }, "geometry": { "type": "Point", "coordinates": [ 2.49066, 44.963694 ] } },
{ "type": "Feature", "properties": { "gml_id": "ETABLISSEMENTS_POLLUEURS.4218", "identifiant": "0005600162", "idetab": "4218", "nom": "LALLEMAND", "codeape": "1089Z", "cp": "15130" }, "geometry": { "type": "Point", "coordinates": [ 2.48798, 44.9639 ] } },
{ "type": "Feature", "properties": { "gml_id": "ETABLISSEMENTS_POLLUEURS.7799", "identifiant": "0005600165", "idetab": "7799", "nom": "PYRAM INDUSTRIES", "codeape": "3102Z", "cp": "15800" }, "geometry": { "type": "Point", "coordinates": [ 2.60895, 44.97071 ] } },
{ "type": "Feature", "properties": { "gml_id": "ETABLISSEMENTS_POLLUEURS.589610", "identifiant": "0005603231", "idetab": "589610", "nom": "ISDI COMMUNE JUSSAC", "codeape": "8411Z", "cp": "15250" }, "geometry": { "type": "Point", "coordinates": [ 2.420733, 44.988127 ] } },
{ "type": "Feature", "properties": { "gml_id": "ETABLISSEMENTS_POLLUEURS.12426", "identifiant": "0006803850", "idetab": "12426", "nom": "PLAINEMAISON OCCITANIE", "codeape": "1011Z", "cp": "12420" }, "geometry": { "type": "Point", "coordinates": [ 2.77709, 44.80386 ] } },
{ "type": "Feature", "properties": { "gml_id": "ETABLISSEMENTS_POLLUEURS.5234", "identifiant": "0006804139", "idetab": "5234", "nom": "SA POUJOL FRERES", "codeape": "", "cp": "12420" }, "geometry": { "type": "Point", "coordinates": [ 2.759624, 44.802196 ] } },
{ "type": "Feature", "properties": { "gml_id": "ETABLISSEMENTS_POLLUEURS.589091", "identifiant": "0006811325", "idetab": "589091", "nom": "SMICTOM NORD AVEYRON", "codeape": "3811Z", "cp": "12420" }, "geometry": { "type": "Point", "coordinates": [ 2.87986, 44.77298 ] } },
{ "type": "Feature", "properties": { "gml_id": "ETABLISSEMENTS_POLLUEURS.589094", "identifiant": "0006811328", "idetab": "589094", "nom": "SMICTOM NORD AVEYRON", "codeape": "3811Z", "cp": "12420" }, "geometry": { "type": "Point", "coordinates": [ 2.78922, 44.81467 ] } },
{ "type": "Feature", "properties": { "gml_id": "ETABLISSEMENTS_POLLUEURS.589095", "identifiant": "0006811329", "idetab": "589095", "nom": "SMICTOM NORD AVEYRON", "codeape": "3811Z", "cp": "12420" }, "geometry": { "type": "Point", "coordinates": [ 2.77642, 44.79745 ] } },
{ "type": "Feature", "properties": { "gml_id": "ETABLISSEMENTS_POLLUEURS.8614", "identifiant": "0016200005", "idetab": "8614", "nom": "COMMUNAUTE D AGGLOMERATION DU BASSIN D AURILLAC", "codeape": "8411Z", "cp": "15130" }, "geometry": { "type": "Point", "coordinates": [ 2.41308, 44.88357 ] } },
{ "type": "Feature", "properties": { "gml_id": "ETABLISSEMENTS_POLLUEURS.11154", "identifiant": "0016200036", "idetab": "11154", "nom": "BIOSE INDUSTRIE", "codeape": "2110Z", "cp": "15130" }, "geometry": { "type": "Point", "coordinates": [ 2.45764, 44.91236 ] } },
{ "type": "Feature", "properties": { "gml_id": "ETABLISSEMENTS_POLLUEURS.8708", "identifiant": "0016200053", "idetab": "8708", "nom": "COMMUNAUTÉ DE COMMUNE DU PAYS DE PIERREFORT", "codeape": "900B", "cp": "15230" }, "geometry": { "type": "Point", "coordinates": [ 2.886559, 44.87739 ] } },
{ "type": "Feature", "properties": { "gml_id": "ETABLISSEMENTS_POLLUEURS.11440", "identifiant": "0016200054", "idetab": "11440", "nom": "COMMUNAUTÉ DE COMMUNES DU PAYS DE MONTSALVY", "codeape": "3811Z", "cp": "15130" }, "geometry": { "type": "Point", "coordinates": [ 2.462944, 44.791959 ] } },
{ "type": "Feature", "properties": { "gml_id": "ETABLISSEMENTS_POLLUEURS.7296", "identifiant": "0016200056", "idetab": "7296", "nom": "COMMUNAUTE DE COMMUNE D'AURILLAC", "codeape": "3821Z", "cp": "15000" }, "geometry": { "type": "Point", "coordinates": [ 2.432142, 44.914243 ] } },
{ "type": "Feature", "properties": { "gml_id": "ETABLISSEMENTS_POLLUEURS.598198", "identifiant": "0100002026", "idetab": "598198", "nom": "NGE ROUTES", "codeape": "4211Z", "cp": "15000" }, "geometry": { "type": "Point", "coordinates": [ 2.42168, 44.90016 ] } },
{ "type": "Feature", "properties": { "gml_id": "ETABLISSEMENTS_POLLUEURS.715", "identifiant": "0005601318", "idetab": "715", "nom": "LES FROMAGERIES OCCITANES", "codeape": "1051C", "cp": "15220" }, "geometry": { "type": "Point", "coordinates": [ 2.27173, 44.82662 ] } },
{ "type": "Feature", "properties": { "gml_id": "ETABLISSEMENTS_POLLUEURS.12779", "identifiant": "0005600172", "idetab": "12779", "nom": "COLAS FRANCE", "codeape": "4211Z", "cp": "15290" }, "geometry": { "type": "Point", "coordinates": [ 2.234983, 44.857719 ] } },
{ "type": "Feature", "properties": { "gml_id": "ETABLISSEMENTS_POLLUEURS.590365", "identifiant": "0005603358", "idetab": "590365", "nom": "SAS C MEALLET TP", "codeape": "4312A", "cp": "15130" }, "geometry": { "type": "Point", "coordinates": [ 2.348538, 44.882919 ] } },
{ "type": "Feature", "properties": { "gml_id": "ETABLISSEMENTS_POLLUEURS.588617", "identifiant": "0005603223", "idetab": "588617", "nom": "ISDI YTRAC COLAS RAA", "codeape": "4211Z", "cp": "15130" }, "geometry": { "type": "Point", "coordinates": [ 2.362343, 44.916188 ] } },
{ "type": "Feature", "properties": { "gml_id": "ETABLISSEMENTS_POLLUEURS.11601", "identifiant": "0005600159", "idetab": "11601", "nom": "TRANSAC AUTO", "codeape": "4677Z", "cp": "15250" }, "geometry": { "type": "Point", "coordinates": [ 2.31703, 44.94576 ] } },
{ "type": "Feature", "properties": { "gml_id": "ETABLISSEMENTS_POLLUEURS.589113", "identifiant": "0006811382", "idetab": "589113", "nom": "SYND MIXTE DEP ELIMIN DECHET MENAG ASSIM", "codeape": "3821Z", "cp": "46190" }, "geometry": { "type": "Point", "coordinates": [ 2.04374, 44.89881 ] } },
{ "type": "Feature", "properties": { "gml_id": "ETABLISSEMENTS_POLLUEURS.11600", "identifiant": "0005600153", "idetab": "11600", "nom": "VITTEL RECUPERATION", "codeape": "3832Z", "cp": "15260" }, "geometry": { "type": "Point", "coordinates": [ 2.97923, 44.92965 ] } },
{ "type": "Feature", "properties": { "gml_id": "ETABLISSEMENTS_POLLUEURS.589607", "identifiant": "0005602704", "idetab": "589607", "nom": "VITTEL RECUPERATION", "codeape": "3832Z", "cp": "15260" }, "geometry": { "type": "Point", "coordinates": [ 2.96109, 44.92463 ] } },
{ "type": "Feature", "properties": { "gml_id": "ETABLISSEMENTS_POLLUEURS.588608", "identifiant": "0005603213", "idetab": "588608", "nom": "COMMUNE DE CHAUDES AIGUES", "codeape": "8411Z", "cp": "15110" }, "geometry": { "type": "Point", "coordinates": [ 2.989449, 44.827816 ] } },
{ "type": "Feature", "properties": { "gml_id": "ETABLISSEMENTS_POLLUEURS.588609", "identifiant": "0005603214", "idetab": "588609", "nom": "ISDI COMMUNE ORADOUR", "codeape": "8411Z", "cp": "15260" }, "geometry": { "type": "Point", "coordinates": [ 2.93379, 44.920645 ] } },
{ "type": "Feature", "properties": { "gml_id": "ETABLISSEMENTS_POLLUEURS.595109", "identifiant": "0009071201", "idetab": "595109", "nom": "STEP - BENECHOU", "codeape": "3700Z", "cp": "12510" }, "geometry": { "type": "Point", "coordinates": [ 2.542089, 44.350213 ] } },
{ "type": "Feature", "properties": { "gml_id": "ETABLISSEMENTS_POLLUEURS.5180", "identifiant": "0006802463", "idetab": "5180", "nom": "RODEZ ABATTOIR", "codeape": "1011Z", "cp": "12000" }, "geometry": { "type": "Point", "coordinates": [ 2.58637, 44.35513 ] } },
{ "type": "Feature", "properties": { "gml_id": "ETABLISSEMENTS_POLLUEURS.2891", "identifiant": "0006802474", "idetab": "2891", "nom": "SODIAAL INTERNATIONAL LES FROMAGERIES RICHES MONTS", "codeape": "155C", "cp": "12034" }, "geometry": { "type": "Point", "coordinates": [ 2.560095, 44.355897 ] } },
{ "type": "Feature", "properties": { "gml_id": "ETABLISSEMENTS_POLLUEURS.596657", "identifiant": "0006803572", "idetab": "596657", "nom": "GLR 12", "codeape": "3900Z", "cp": "12850" }, "geometry": { "type": "Point", "coordinates": [ 2.594725, 44.358483 ] } },
{ "type": "Feature", "properties": { "gml_id": "ETABLISSEMENTS_POLLUEURS.2911", "identifiant": "0006803824", "idetab": "2911", "nom": "EUROSERUM", "codeape": "1051D", "cp": "12850" }, "geometry": { "type": "Point", "coordinates": [ 2.5995, 44.35854 ] } },
{ "type": "Feature", "properties": { "gml_id": "ETABLISSEMENTS_POLLUEURS.6996", "identifiant": "0006803840", "idetab": "6996", "nom": "ROBERT BOSCH FRANCE", "codeape": "2932Z", "cp": "12850" }, "geometry": { "type": "Point", "coordinates": [ 2.5995, 44.35854 ] } },
{ "type": "Feature", "properties": { "gml_id": "ETABLISSEMENTS_POLLUEURS.5181", "identifiant": "0006802467", "idetab": "5181", "nom": "SOCIETE FROMAGERE DE RODEZ", "codeape": "1051C", "cp": "12850" }, "geometry": { "type": "Point", "coordinates": [ 2.5995, 44.35854 ] } },
{ "type": "Feature", "properties": { "gml_id": "ETABLISSEMENTS_POLLUEURS.9168", "identifiant": "0006802588", "idetab": "9168", "nom": "COMPAGNIE DES EAUX ET DE L'OZONE PROCEDES M P OTTO", "codeape": "3600Z", "cp": "12850" }, "geometry": { "type": "Point", "coordinates": [ 2.5995, 44.35854 ] } },
{ "type": "Feature", "properties": { "gml_id": "ETABLISSEMENTS_POLLUEURS.5182", "identifiant": "0006802468", "idetab": "5182", "nom": "SOCIETE FROMAGERE DE RODEZ", "codeape": "1051C", "cp": "12850" }, "geometry": { "type": "Point", "coordinates": [ 2.610789, 44.361502 ] } },
{ "type": "Feature", "properties": { "gml_id": "ETABLISSEMENTS_POLLUEURS.13184", "identifiant": "0006803672", "idetab": "13184", "nom": "ETS BELLE ET FILS", "codeape": "3832Z", "cp": "12850" }, "geometry": { "type": "Point", "coordinates": [ 2.63142, 44.36164 ] } },
{ "type": "Feature", "properties": { "gml_id": "ETABLISSEMENTS_POLLUEURS.2889", "identifiant": "0006802464", "idetab": "2889", "nom": "SOCIETE PORC MONTAGNE", "codeape": "1011Z", "cp": "12850" }, "geometry": { "type": "Point", "coordinates": [ 2.63153, 44.36301 ] } },
{ "type": "Feature", "properties": { "gml_id": "ETABLISSEMENTS_POLLUEURS.589848", "identifiant": "0006810013", "idetab": "589848", "nom": "RODEZ AGGLOMERATION", "codeape": "3811Z", "cp": "12000" }, "geometry": { "type": "Point", "coordinates": [ 2.57107, 44.365 ] } },
{ "type": "Feature", "properties": { "gml_id": "ETABLISSEMENTS_POLLUEURS.5233", "identifiant": "0006804098", "idetab": "5233", "nom": "SOULIE RESTAURATION", "codeape": "1085Z", "cp": "12031" }, "geometry": { "type": "Point", "coordinates": [ 2.53809, 44.37361 ] } },
{ "type": "Feature", "properties": { "gml_id": "ETABLISSEMENTS_POLLUEURS.591587", "identifiant": "0006804963", "idetab": "591587", "nom": "SASU MANUFACTURE D'OC", "codeape": "4677Z", "cp": "12850" }, "geometry": { "type": "Point", "coordinates": [ 2.54992, 44.37699 ] } },
{ "type": "Feature", "properties": { "gml_id": "ETABLISSEMENTS_POLLUEURS.596538", "identifiant": "0003701480", "idetab": "596538", "nom": "SEVIGNE INDUSTRIES", "codeape": "4312B", "cp": "12850" }, "geometry": { "type": "Point", "coordinates": [ 2.53817, 44.38683 ] } },
{ "type": "Feature", "properties": { "gml_id": "ETABLISSEMENTS_POLLUEURS.589105", "identifiant": "0006811350", "idetab": "589105", "nom": "SEVIGNE INDUSTRIES", "codeape": "4312B", "cp": "12850" }, "geometry": { "type": "Point", "coordinates": [ 2.59476, 44.39175 ] } },
{ "type": "Feature", "properties": { "gml_id": "ETABLISSEMENTS_POLLUEURS.5185", "identifiant": "0006802481", "idetab": "5185", "nom": "ORANO MINING", "codeape": "0990Z", "cp": "12310" }, "geometry": { "type": "Point", "coordinates": [ 2.77488, 44.39226 ] } },
{ "type": "Feature", "properties": { "gml_id": "ETABLISSEMENTS_POLLUEURS.593044", "identifiant": "0006802473", "idetab": "593044", "nom": "SOCIETE D'EXPLOITATION DES ETABLISSEMENTS MARCEL DELMAS", "codeape": "0811Z", "cp": "12510" }, "geometry": { "type": "Point", "coordinates": [ 2.46735, 44.40956 ] } },
{ "type": "Feature", "properties": { "gml_id": "ETABLISSEMENTS_POLLUEURS.594874", "identifiant": "0006800187", "idetab": "594874", "nom": "ETS FRANCOIS INDUSTRIE", "codeape": "0812Z", "cp": "12330" }, "geometry": { "type": "Point", "coordinates": [ 2.48945, 44.40989 ] } },
{ "type": "Feature", "properties": { "gml_id": "ETABLISSEMENTS_POLLUEURS.589850", "identifiant": "0006810761", "idetab": "589850", "nom": "GAIANEO", "codeape": "3511Z", "cp": "12740" }, "geometry": { "type": "Point", "coordinates": [ 2.57194, 44.41506 ] } },
{ "type": "Feature", "properties": { "gml_id": "ETABLISSEMENTS_POLLUEURS.591582", "identifiant": "0006803573", "idetab": "591582", "nom": "BOUDOU RECUPERATION", "codeape": "3832Z", "cp": "12330" }, "geometry": { "type": "Point", "coordinates": [ 2.53405, 44.4243 ] } },
{ "type": "Feature", "properties": { "gml_id": "ETABLISSEMENTS_POLLUEURS.13189", "identifiant": "0006804135", "idetab": "13189", "nom": "VEOLIA PROPRETE MIDI PYRENEES", "codeape": "3811Z", "cp": "12740" }, "geometry": { "type": "Point", "coordinates": [ 2.58256, 44.43318 ] } },
{ "type": "Feature", "properties": { "gml_id": "ETABLISSEMENTS_POLLUEURS.589823", "identifiant": "0006800186", "idetab": "589823", "nom": "NEXSTONE SALLES LA SOURCE", "codeape": "0812Z", "cp": "12330" }, "geometry": { "type": "Point", "coordinates": [ 2.55147, 44.43451 ] } },
{ "type": "Feature", "properties": { "gml_id": "ETABLISSEMENTS_POLLUEURS.592317", "identifiant": "0006811349", "idetab": "592317", "nom": "COMMUNAUTE DE COMMUNES CONQUES MARCILLAC", "codeape": "4299Z", "cp": "12330" }, "geometry": { "type": "Point", "coordinates": [ 2.48682, 44.46703 ] } },
{ "type": "Feature", "properties": { "gml_id": "ETABLISSEMENTS_POLLUEURS.6976", "identifiant": "0006802435", "idetab": "6976", "nom": "ROZIERE", "codeape": "1623Z", "cp": "12340" }, "geometry": { "type": "Point", "coordinates": [ 2.6638, 44.47183 ] } },
{ "type": "Feature", "properties": { "gml_id": "ETABLISSEMENTS_POLLUEURS.8081", "identifiant": "0006802436", "idetab": "8081", "nom": "VALAUBRAC", "codeape": "3102Z", "cp": "12340" }, "geometry": { "type": "Point", "coordinates": [ 2.718444, 44.472932 ] } },
{ "type": "Feature", "properties": { "gml_id": "ETABLISSEMENTS_POLLUEURS.597297", "identifiant": "0003700732", "idetab": "597297", "nom": "STRATAGEM", "codeape": "3102Z", "cp": "12340" }, "geometry": { "type": "Point", "coordinates": [ 2.73337, 44.4732 ] } },
{ "type": "Feature", "properties": { "gml_id": "ETABLISSEMENTS_POLLUEURS.5197", "identifiant": "0006802617", "idetab": "5197", "nom": "PURFLUX FILTRATION", "codeape": "2829B", "cp": "12330" }, "geometry": { "type": "Point", "coordinates": [ 2.45815, 44.47567 ] } },
{ "type": "Feature", "properties": { "gml_id": "ETABLISSEMENTS_POLLUEURS.11870", "identifiant": "0006803607", "idetab": "11870", "nom": "EURL BRALEY ROUERGUE LOCA BENNE", "codeape": "3821Z", "cp": "12340" }, "geometry": { "type": "Point", "coordinates": [ 2.73487, 44.4761 ] } },
{ "type": "Feature", "properties": { "gml_id": "ETABLISSEMENTS_POLLUEURS.8090", "identifiant": "0006803564", "idetab": "8090", "nom": "SARL A.P.B.", "codeape": "4511Z", "cp": "12500" }, "geometry": { "type": "Point", "coordinates": [ 2.78685, 44.5236 ] } },
{ "type": "Feature", "properties": { "gml_id": "ETABLISSEMENTS_POLLUEURS.590724", "identifiant": "0051200228", "idetab": "590724", "nom": "LE PORC DU MAYNIE", "codeape": "0146Z", "cp": "12580" }, "geometry": { "type": "Point", "coordinates": [ 2.61617, 44.57155 ] } },
{ "type": "Feature", "properties": { "gml_id": "ETABLISSEMENTS_POLLUEURS.591714", "identifiant": "0051200589", "idetab": "591714", "nom": "GAEC DU PUECH DE GOLINHAC", "codeape": "0141Z", "cp": "12140" }, "geometry": { "type": "Point", "coordinates": [ 2.58131, 44.59761 ] } },
{ "type": "Feature", "properties": { "gml_id": "ETABLISSEMENTS_POLLUEURS.589092", "identifiant": "0006811326", "idetab": "589092", "nom": "SMICTOM NORD AVEYRON", "codeape": "3811Z", "cp": "12140" }, "geometry": { "type": "Point", "coordinates": [ 2.55745, 44.62234 ] } },
{ "type": "Feature", "properties": { "gml_id": "ETABLISSEMENTS_POLLUEURS.589100", "identifiant": "0006811344", "idetab": "589100", "nom": "ETABLISSEMENTS BOIX ET COMPAGNIE", "codeape": "0811Z", "cp": "12210" }, "geometry": { "type": "Point", "coordinates": [ 2.81514, 44.67625 ] } },
{ "type": "Feature", "properties": { "gml_id": "ETABLISSEMENTS_POLLUEURS.590726", "identifiant": "0051200774", "idetab": "590726", "nom": "GAEC DE CASSAN", "codeape": "0145Z", "cp": "12390" }, "geometry": { "type": "Point", "coordinates": [ 2.38195, 44.39655 ] } },
{ "type": "Feature", "properties": { "gml_id": "ETABLISSEMENTS_POLLUEURS.590727", "identifiant": "0051200776", "idetab": "590727", "nom": "ELEVAGE AVICOLE DE MAYRAN", "codeape": "0147Z", "cp": "12390" }, "geometry": { "type": "Point", "coordinates": [ 2.37926, 44.39424 ] } },
{ "type": "Feature", "properties": { "gml_id": "ETABLISSEMENTS_POLLUEURS.9442", "identifiant": "0071217401", "idetab": "9442", "nom": "STEP - BENECHOU", "codeape": "3700Z", "cp": "12510" }, "geometry": { "type": "Point", "coordinates": [ 2.542089, 44.350213 ] } },
{ "type": "Feature", "properties": { "gml_id": "ETABLISSEMENTS_POLLUEURS.9443", "identifiant": "0071217602", "idetab": "9443", "nom": "STEP - CANTARANNE", "codeape": "3700Z", "cp": "12850" }, "geometry": { "type": "Point", "coordinates": [ 2.539102, 44.390783 ] } },
{ "type": "Feature", "properties": { "gml_id": "ETABLISSEMENTS_POLLUEURS.5598", "identifiant": "12049111", "idetab": "5598", "nom": "SASU LE PORC DU MAYNIÉ", "codeape": "0146Z", "cp": "12580" }, "geometry": { "type": "Point", "coordinates": [ 2.593331, 44.576848 ] } },
{ "type": "Feature", "properties": { "gml_id": "ETABLISSEMENTS_POLLUEURS.5601", "identifiant": "12110242", "idetab": "5601", "nom": "EARL PRADALIER", "codeape": "012E", "cp": "12580" }, "geometry": { "type": "Point", "coordinates": [ 2.593331, 44.576848 ] } },
{ "type": "Feature", "properties": { "gml_id": "ETABLISSEMENTS_POLLUEURS.5602", "identifiant": "12142051", "idetab": "5602", "nom": "GAEC DE CASSAN", "codeape": "", "cp": "12390" }, "geometry": { "type": "Point", "coordinates": [ 2.368154, 44.396887 ] } }
]
}
