{
"type": "FeatureCollection",
"name": "ms:ETABLISSEMENTS_POLLUEURS",
"crs": { "type": "name", "properties": { "name": "urn:ogc:def:crs:OGC:1.3:CRS84" } },
"features": [
{ "type": "Feature", "properties": { "gml_id": "ETABLISSEMENTS_POLLUEURS.8479", "identifiant": "0005201026", "idetab": "8479", "nom": "SYND MEDOCAIN INTERCOMMUNAL POUR LA COLLECTE ET LE TRAITEMENT DES ORDURES MENAGERES", "codeape": "3811Z", "cp": "33990" }, "geometry": { "type": "Point", "coordinates": [ -0.99943, 45.27732 ] } },
{ "type": "Feature", "properties": { "gml_id": "ETABLISSEMENTS_POLLUEURS.590285", "identifiant": "0005206314", "idetab": "590285", "nom": "COLAS FRANCE", "codeape": "4211Z", "cp": "33990" }, "geometry": { "type": "Point", "coordinates": [ -0.99905, 45.27364 ] } },
{ "type": "Feature", "properties": { "gml_id": "ETABLISSEMENTS_POLLUEURS.591349", "identifiant": "0005206024", "idetab": "591349", "nom": "VALERIE RICOUL", "codeape": "4532Z", "cp": "33340" }, "geometry": { "type": "Point", "coordinates": [ -0.961985, 45.323323 ] } },
{ "type": "Feature", "properties": { "gml_id": "ETABLISSEMENTS_POLLUEURS.587776", "identifiant": "0005208206", "idetab": "587776", "nom": "ETABLISSEMENTS L.N MAURICE", "codeape": "0812Z", "cp": "33480" }, "geometry": { "type": "Point", "coordinates": [ -0.90864, 45.04244 ] } },
{ "type": "Feature", "properties": { "gml_id": "ETABLISSEMENTS_POLLUEURS.590275", "identifiant": "0005201174", "idetab": "590275", "nom": "SCEA DE LA FOUGERAIE", "codeape": "0146Z", "cp": "33340" }, "geometry": { "type": "Point", "coordinates": [ -0.88763, 45.27167 ] } },
{ "type": "Feature", "properties": { "gml_id": "ETABLISSEMENTS_POLLUEURS.596828", "identifiant": "0003102997", "idetab": "596828", "nom": "EUROVIA POITOU CHARENTES LIMOUSIN", "codeape": "4211Z", "cp": "17600" }, "geometry": { "type": "Point", "coordinates": [ -0.876567, 45.688145 ] } },
{ "type": "Feature", "properties": { "gml_id": "ETABLISSEMENTS_POLLUEURS.8761", "identifiant": "0005200305", "idetab": "8761", "nom": "CEMEX GRANULATS SUD OUEST", "codeape": "142A", "cp": "33480" }, "geometry": { "type": "Point", "coordinates": [ -0.75833, 45.034118 ] } },
{ "type": "Feature", "properties": { "gml_id": "ETABLISSEMENTS_POLLUEURS.6111", "identifiant": "0005201036", "idetab": "6111", "nom": "CIE COMMERCIALE MANUTENTION PETROLIERE", "codeape": "5210B", "cp": "33250" }, "geometry": { "type": "Point", "coordinates": [ -0.75088, 45.22461 ] } },
{ "type": "Feature", "properties": { "gml_id": "ETABLISSEMENTS_POLLUEURS.13961", "identifiant": "0005207291", "idetab": "13961", "nom": "CEMEX GRANULATS SUD OUEST", "codeape": "0812Z", "cp": "33480" }, "geometry": { "type": "Point", "coordinates": [ -0.7222, 45.01424 ] } },
{ "type": "Feature", "properties": { "gml_id": "ETABLISSEMENTS_POLLUEURS.590183", "identifiant": "0005204007", "idetab": "590183", "nom": "DILMEX - ISDI", "codeape": "4312B", "cp": "33460" }, "geometry": { "type": "Point", "coordinates": [ -0.699537, 45.056242 ] } },
{ "type": "Feature", "properties": { "gml_id": "ETABLISSEMENTS_POLLUEURS.596503", "identifiant": "0005200458", "idetab": "596503", "nom": "SOBIB SOCIÉTÉ DES BITUMES DE BLAYE", "codeape": "4211Z", "cp": "33390" }, "geometry": { "type": "Point", "coordinates": [ -0.660953, 45.119951 ] } },
{ "type": "Feature", "properties": { "gml_id": "ETABLISSEMENTS_POLLUEURS.591294", "identifiant": "0002704261", "idetab": "591294", "nom": "SAINTONGE ENROBES", "codeape": "2399Z", "cp": "17100" }, "geometry": { "type": "Point", "coordinates": [ -0.637908, 45.747153 ] } },
{ "type": "Feature", "properties": { "gml_id": "ETABLISSEMENTS_POLLUEURS.591343", "identifiant": "0005201404", "idetab": "591343", "nom": "SOCIETE DE DISTILLERIES VINICOLES DU BLAYAIS", "codeape": "2014Z", "cp": "33710" }, "geometry": { "type": "Point", "coordinates": [ -0.63637, 45.07866 ] } },
{ "type": "Feature", "properties": { "gml_id": "ETABLISSEMENTS_POLLUEURS.9592", "identifiant": "0005201255", "idetab": "9592", "nom": "GDE ST PAUL", "codeape": "3832Z", "cp": "33390" }, "geometry": { "type": "Point", "coordinates": [ -0.603797, 45.148696 ] } },
{ "type": "Feature", "properties": { "gml_id": "ETABLISSEMENTS_POLLUEURS.3991", "identifiant": "0005205148", "idetab": "3991", "nom": "LES DOCKS DES PETROLES D AMBES", "codeape": "5210B", "cp": "33710" }, "geometry": { "type": "Point", "coordinates": [ -0.60344, 45.03914 ] } },
{ "type": "Feature", "properties": { "gml_id": "ETABLISSEMENTS_POLLUEURS.11483", "identifiant": "0005205109", "idetab": "11483", "nom": "KURITA FRANCE S.A.S.", "codeape": "4675Z", "cp": "33810" }, "geometry": { "type": "Point", "coordinates": [ -0.601082, 45.03824 ] } },
{ "type": "Feature", "properties": { "gml_id": "ETABLISSEMENTS_POLLUEURS.11281", "identifiant": "0005208707", "idetab": "11281", "nom": "SUEZ ORGANIQUE", "codeape": "3821Z", "cp": "33112" }, "geometry": { "type": "Point", "coordinates": [ -0.89144, 45.16984 ] } },
{ "type": "Feature", "properties": { "gml_id": "ETABLISSEMENTS_POLLUEURS.588443", "identifiant": "0005213880", "idetab": "588443", "nom": "GRELIER ET FILS", "codeape": "4399C", "cp": "33390" }, "geometry": { "type": "Point", "coordinates": [ -0.63454, 45.14623 ] } },
{ "type": "Feature", "properties": { "gml_id": "ETABLISSEMENTS_POLLUEURS.13716", "identifiant": "0007200413", "idetab": "13716", "nom": "CARRIERES ET MATERIAUX DU GRAND OUEST", "codeape": "0812Z", "cp": "17120" }, "geometry": { "type": "Point", "coordinates": [ -0.81149, 45.59631 ] } },
{ "type": "Feature", "properties": { "gml_id": "ETABLISSEMENTS_POLLUEURS.588137", "identifiant": "0007200603", "idetab": "588137", "nom": "CARRIERES ET MATERIAUX DU GRAND OUEST", "codeape": "0811Z", "cp": "17600" }, "geometry": { "type": "Point", "coordinates": [ -0.99496, 45.77141 ] } },
{ "type": "Feature", "properties": { "gml_id": "ETABLISSEMENTS_POLLUEURS.9239", "identifiant": "0007201100", "idetab": "9239", "nom": "SAINTRONIC", "codeape": "2630Z", "cp": "17101" }, "geometry": { "type": "Point", "coordinates": [ -0.637908, 45.747153 ] } },
{ "type": "Feature", "properties": { "gml_id": "ETABLISSEMENTS_POLLUEURS.10224", "identifiant": "0007201310", "idetab": "10224", "nom": "USINE DE TRAITEMENT DES DÉCHETS MÉNAGERS", "codeape": "8411Z", "cp": "17460" }, "geometry": { "type": "Point", "coordinates": [ -0.674558, 45.685151 ] } },
{ "type": "Feature", "properties": { "gml_id": "ETABLISSEMENTS_POLLUEURS.13720", "identifiant": "0007201771", "idetab": "13720", "nom": "MEAC SAS", "codeape": "2352Z", "cp": "17250" }, "geometry": { "type": "Point", "coordinates": [ -0.762763, 45.811547 ] } },
{ "type": "Feature", "properties": { "gml_id": "ETABLISSEMENTS_POLLUEURS.589891", "identifiant": "0007201935", "idetab": "589891", "nom": "COLAS FRANCE", "codeape": "4211Z", "cp": "17600" }, "geometry": { "type": "Point", "coordinates": [ -0.90273, 45.65198 ] } },
{ "type": "Feature", "properties": { "gml_id": "ETABLISSEMENTS_POLLUEURS.593285", "identifiant": "0007201954", "idetab": "593285", "nom": "CDMR SAINTE-GEMME", "codeape": "0811Z", "cp": "17250" }, "geometry": { "type": "Point", "coordinates": [ -0.86873, 45.80993 ] } },
{ "type": "Feature", "properties": { "gml_id": "ETABLISSEMENTS_POLLUEURS.591621", "identifiant": "0007201990", "idetab": "591621", "nom": "ETATP PICOULET", "codeape": "4312A", "cp": "17260" }, "geometry": { "type": "Point", "coordinates": [ -0.74919, 45.62076 ] } },
{ "type": "Feature", "properties": { "gml_id": "ETABLISSEMENTS_POLLUEURS.589892", "identifiant": "0007202009", "idetab": "589892", "nom": "CARRIERES KLEBER MOREAU", "codeape": "0812Z", "cp": "17250" }, "geometry": { "type": "Point", "coordinates": [ -0.93302, 45.75651 ] } },
{ "type": "Feature", "properties": { "gml_id": "ETABLISSEMENTS_POLLUEURS.11417", "identifiant": "0007203744", "idetab": "11417", "nom": "ECOSITE", "codeape": "8411Z", "cp": "17100" }, "geometry": { "type": "Point", "coordinates": [ -0.644678, 45.721413 ] } },
{ "type": "Feature", "properties": { "gml_id": "ETABLISSEMENTS_POLLUEURS.589191", "identifiant": "0007203968", "idetab": "589191", "nom": "SERVE", "codeape": "2561Z", "cp": "17100" }, "geometry": { "type": "Point", "coordinates": [ -0.594034, 45.772048 ] } },
{ "type": "Feature", "properties": { "gml_id": "ETABLISSEMENTS_POLLUEURS.5383", "identifiant": "0007204009", "idetab": "5383", "nom": "SURFILM", "codeape": "2222Z", "cp": "17600" }, "geometry": { "type": "Point", "coordinates": [ -0.966131, 45.662719 ] } },
{ "type": "Feature", "properties": { "gml_id": "ETABLISSEMENTS_POLLUEURS.592304", "identifiant": "0007204261", "idetab": "592304", "nom": "SAINTONGE ENROBES", "codeape": "2399Z", "cp": "17100" }, "geometry": { "type": "Point", "coordinates": [ -0.65412, 45.71472 ] } },
{ "type": "Feature", "properties": { "gml_id": "ETABLISSEMENTS_POLLUEURS.10239", "identifiant": "0007204403", "idetab": "10239", "nom": "MARTIN SEB CASSE POIDS LOURDS", "codeape": "4532Z", "cp": "17250" }, "geometry": { "type": "Point", "coordinates": [ -0.77985, 45.77485 ] } },
{ "type": "Feature", "properties": { "gml_id": "ETABLISSEMENTS_POLLUEURS.588152", "identifiant": "0007204650", "idetab": "588152", "nom": "CDC  HAUTE SAINTONGE LORIGNAC", "codeape": "8411Z", "cp": "17240" }, "geometry": { "type": "Point", "coordinates": [ -0.695113, 45.464924 ] } },
{ "type": "Feature", "properties": { "gml_id": "ETABLISSEMENTS_POLLUEURS.11077", "identifiant": "0007205090", "idetab": "11077", "nom": "SARL CASSE AUTO CHEVALIER", "codeape": "4677Z", "cp": "17110" }, "geometry": { "type": "Point", "coordinates": [ -0.993249, 45.608932 ] } },
{ "type": "Feature", "properties": { "gml_id": "ETABLISSEMENTS_POLLUEURS.5391", "identifiant": "0007206006", "idetab": "5391", "nom": "SNCF VOYAGEURS", "codeape": "4910Z", "cp": "17100" }, "geometry": { "type": "Point", "coordinates": [ -0.61358, 45.75295 ] } },
{ "type": "Feature", "properties": { "gml_id": "ETABLISSEMENTS_POLLUEURS.11323", "identifiant": "0007206222", "idetab": "11323", "nom": "CHARENTE VALORISATION (SARL)", "codeape": "3821Z", "cp": "17600" }, "geometry": { "type": "Point", "coordinates": [ -0.855437, 45.631487 ] } },
{ "type": "Feature", "properties": { "gml_id": "ETABLISSEMENTS_POLLUEURS.10242", "identifiant": "0007206942", "idetab": "10242", "nom": "SOULIGNONNE AUTO CASSE", "codeape": "4532Z", "cp": "17250" }, "geometry": { "type": "Point", "coordinates": [ -0.785031, 45.77737 ] } },
{ "type": "Feature", "properties": { "gml_id": "ETABLISSEMENTS_POLLUEURS.588178", "identifiant": "0007211745", "idetab": "588178", "nom": "G.P.", "codeape": "4312A", "cp": "17600" }, "geometry": { "type": "Point", "coordinates": [ -0.89719, 45.69562 ] } },
{ "type": "Feature", "properties": { "gml_id": "ETABLISSEMENTS_POLLUEURS.597768", "identifiant": "0007212016", "idetab": "597768", "nom": "CHIMIREC DELVERT", "codeape": "3812Z", "cp": "17240" }, "geometry": { "type": "Point", "coordinates": [ -0.72282, 45.4635 ] } },
{ "type": "Feature", "properties": { "gml_id": "ETABLISSEMENTS_POLLUEURS.595186", "identifiant": "0009069901", "idetab": "595186", "nom": "ELECTRICITE DE FRANCE", "codeape": "3511Z", "cp": "33820" }, "geometry": { "type": "Point", "coordinates": [ -0.69131, 45.25697 ] } },
{ "type": "Feature", "properties": { "gml_id": "ETABLISSEMENTS_POLLUEURS.590737", "identifiant": "0051700557", "idetab": "590737", "nom": "PATRICK LEFEBVRE", "codeape": "0147Z", "cp": "17600" }, "geometry": { "type": "Point", "coordinates": [ -0.787544, 45.671289 ] } },
{ "type": "Feature", "properties": { "gml_id": "ETABLISSEMENTS_POLLUEURS.591256", "identifiant": "0069901001", "idetab": "591256", "nom": "EDF - CNPE DU BLAYAIS", "codeape": "3511Z", "cp": "33820" }, "geometry": { "type": "Point", "coordinates": [ -0.688592, 45.255307 ] } },
{ "type": "Feature", "properties": { "gml_id": "ETABLISSEMENTS_POLLUEURS.5619", "identifiant": "17415143", "idetab": "5619", "nom": "SAS BERTEAU", "codeape": "158V", "cp": "17100" }, "geometry": { "type": "Point", "coordinates": [ -0.633129, 45.755504 ] } },
{ "type": "Feature", "properties": { "gml_id": "ETABLISSEMENTS_POLLUEURS.5620", "identifiant": "17445057", "idetab": "5620", "nom": "PATRICK LEFEBVRE", "codeape": "0147Z", "cp": "17600" }, "geometry": { "type": "Point", "coordinates": [ -0.782794, 45.679647 ] } },
{ "type": "Feature", "properties": { "gml_id": "ETABLISSEMENTS_POLLUEURS.588329", "identifiant": "75633002", "idetab": "588329", "nom": "SCEA LA FOUGERAIE", "codeape": "0146Z", "cp": "33340" }, "geometry": { "type": "Point", "coordinates": [ -0.86189, 45.296894 ] } },
{ "type": "Feature", "properties": { "gml_id": "ETABLISSEMENTS_POLLUEURS.13717", "identifiant": "0007200584", "idetab": "13717", "nom": "CARRIERES ET MATERIAUX DU GRAND OUEST", "codeape": "0812Z", "cp": "17250" }, "geometry": { "type": "Point", "coordinates": [ -0.76456, 45.81539 ] } },
{ "type": "Feature", "properties": { "gml_id": "ETABLISSEMENTS_POLLUEURS.588153", "identifiant": "0007204728", "idetab": "588153", "nom": "CDC CHARENTE-ARNOULT COEUR DE SAINTONGE", "codeape": "8411Z", "cp": "17250" }, "geometry": { "type": "Point", "coordinates": [ -0.724144, 45.817834 ] } },
{ "type": "Feature", "properties": { "gml_id": "ETABLISSEMENTS_POLLUEURS.588154", "identifiant": "0007206038", "idetab": "588154", "nom": "CARRIERES MOUSSET", "codeape": "0812Z", "cp": "17250" }, "geometry": { "type": "Point", "coordinates": [ -0.7723, 45.85435 ] } },
{ "type": "Feature", "properties": { "gml_id": "ETABLISSEMENTS_POLLUEURS.594248", "identifiant": "0007200510", "idetab": "594248", "nom": "CALCAIRES ET DIORITES DU MOULIN DU ROC", "codeape": "0812Z", "cp": "17620" }, "geometry": { "type": "Point", "coordinates": [ -0.92747, 45.87202 ] } },
{ "type": "Feature", "properties": { "gml_id": "ETABLISSEMENTS_POLLUEURS.590606", "identifiant": "0007201958", "idetab": "590606", "nom": "EUROVIA POITOU CHARENTES LIMOUSIN", "codeape": "4211Z", "cp": "17250" }, "geometry": { "type": "Point", "coordinates": [ -0.874, 45.87512 ] } },
{ "type": "Feature", "properties": { "gml_id": "ETABLISSEMENTS_POLLUEURS.11418", "identifiant": "0007204489", "idetab": "11418", "nom": "ESAT LES ATELIERS DE LA VIGERIE", "codeape": "3821Z", "cp": "17350" }, "geometry": { "type": "Point", "coordinates": [ -0.680514, 45.879625 ] } },
{ "type": "Feature", "properties": { "gml_id": "ETABLISSEMENTS_POLLUEURS.10230", "identifiant": "0007202079", "idetab": "10230", "nom": "DECONS ATLANTIQUE", "codeape": "3832Z", "cp": "17620" }, "geometry": { "type": "Point", "coordinates": [ -0.96001, 45.88279 ] } },
{ "type": "Feature", "properties": { "gml_id": "ETABLISSEMENTS_POLLUEURS.588141", "identifiant": "0007201426", "idetab": "588141", "nom": "CARRIERES ET MATERIAUX DU GRAND OUEST", "codeape": "0812Z", "cp": "17620" }, "geometry": { "type": "Point", "coordinates": [ -0.92409, 45.8965 ] } },
{ "type": "Feature", "properties": { "gml_id": "ETABLISSEMENTS_POLLUEURS.9256", "identifiant": "0007206966", "idetab": "9256", "nom": "UNITÉ DE COMPOSTAGE DE VÉGÉTAUX", "codeape": "3821Z", "cp": "17620" }, "geometry": { "type": "Point", "coordinates": [ -0.951032, 45.900262 ] } },
{ "type": "Feature", "properties": { "gml_id": "ETABLISSEMENTS_POLLUEURS.5388", "identifiant": "0007205801", "idetab": "5388", "nom": "CENTRE MULTIFILIAIRE DE VALORISATION DES DÉCHETS", "codeape": "3821Z", "cp": "17620" }, "geometry": { "type": "Point", "coordinates": [ -0.951032, 45.900262 ] } },
{ "type": "Feature", "properties": { "gml_id": "ETABLISSEMENTS_POLLUEURS.9245", "identifiant": "0007202524", "idetab": "9245", "nom": "SARL SACASS AUTO", "codeape": "3831Z", "cp": "17620" }, "geometry": { "type": "Point", "coordinates": [ -0.951032, 45.900262 ] } },
{ "type": "Feature", "properties": { "gml_id": "ETABLISSEMENTS_POLLUEURS.13715", "identifiant": "0007200392", "idetab": "13715", "nom": "CARRIERES MOUSSET", "codeape": "0812Z", "cp": "17620" }, "geometry": { "type": "Point", "coordinates": [ -0.98034, 45.90897 ] } },
{ "type": "Feature", "properties": { "gml_id": "ETABLISSEMENTS_POLLUEURS.595111", "identifiant": "0003102381", "idetab": "595111", "nom": "SYND MIXTE INTERCOMMUNAUTAIRE LITTORAL", "codeape": "8413Z", "cp": "17620" }, "geometry": { "type": "Point", "coordinates": [ -0.9808, 45.91052 ] } },
{ "type": "Feature", "properties": { "gml_id": "ETABLISSEMENTS_POLLUEURS.13726", "identifiant": "0007203087", "idetab": "13726", "nom": "ENROBES ROCHEFORTAIS", "codeape": "2399Z", "cp": "17780" }, "geometry": { "type": "Point", "coordinates": [ -0.99685, 45.91716 ] } },
{ "type": "Feature", "properties": { "gml_id": "ETABLISSEMENTS_POLLUEURS.589202", "identifiant": "0007211752", "idetab": "589202", "nom": "MAIRIE DE SAINT HIPPOLYTE", "codeape": "8411Z", "cp": "17430" }, "geometry": { "type": "Point", "coordinates": [ -0.886123, 45.917421 ] } },
{ "type": "Feature", "properties": { "gml_id": "ETABLISSEMENTS_POLLUEURS.589184", "identifiant": "0007200610", "idetab": "589184", "nom": "CARRIERES KLEBER MOREAU", "codeape": "0811Z", "cp": "17780" }, "geometry": { "type": "Point", "coordinates": [ -0.99774, 45.91996 ] } },
{ "type": "Feature", "properties": { "gml_id": "ETABLISSEMENTS_POLLUEURS.8157", "identifiant": "0007204034", "idetab": "8157", "nom": "AIRBUS ATLANTIC", "codeape": "3030Z", "cp": "17300" }, "geometry": { "type": "Point", "coordinates": [ -0.95408, 45.93059 ] } },
{ "type": "Feature", "properties": { "gml_id": "ETABLISSEMENTS_POLLUEURS.591627", "identifiant": "0007207175", "idetab": "591627", "nom": "EAU 17", "codeape": "3600Z", "cp": "17430" }, "geometry": { "type": "Point", "coordinates": [ -0.92926, 45.93062 ] } },
{ "type": "Feature", "properties": { "gml_id": "ETABLISSEMENTS_POLLUEURS.8143", "identifiant": "0007202078", "idetab": "8143", "nom": "JAMOT", "codeape": "4677Z", "cp": "17430" }, "geometry": { "type": "Point", "coordinates": [ -0.84253, 45.93521 ] } },
{ "type": "Feature", "properties": { "gml_id": "ETABLISSEMENTS_POLLUEURS.5340", "identifiant": "0007201376", "idetab": "5340", "nom": "MECAPROTEC CHARENTE MARITIME", "codeape": "2561Z", "cp": "17300" }, "geometry": { "type": "Point", "coordinates": [ -0.97212, 45.93678 ] } },
{ "type": "Feature", "properties": { "gml_id": "ETABLISSEMENTS_POLLUEURS.3249", "identifiant": "0009000013", "idetab": "3249", "nom": "BASE AÉRIENNE 721 (ROCHEFORT)", "codeape": "8422Z", "cp": "17300" }, "geometry": { "type": "Point", "coordinates": [ -0.96633, 45.9389 ] } },
{ "type": "Feature", "properties": { "gml_id": "ETABLISSEMENTS_POLLUEURS.7074", "identifiant": "0007206188", "idetab": "7074", "nom": "AUTOMOTIVE PLASTICS ROCHEFORT", "codeape": "2229A", "cp": "17301" }, "geometry": { "type": "Point", "coordinates": [ -0.965393, 45.941065 ] } },
{ "type": "Feature", "properties": { "gml_id": "ETABLISSEMENTS_POLLUEURS.7042", "identifiant": "0007201311", "idetab": "7042", "nom": "SIMAIR", "codeape": "3030Z", "cp": "17300" }, "geometry": { "type": "Point", "coordinates": [ -0.965393, 45.941065 ] } },
{ "type": "Feature", "properties": { "gml_id": "ETABLISSEMENTS_POLLUEURS.12444", "identifiant": "0007201208", "idetab": "12444", "nom": "TIMAC AGRO", "codeape": "2015Z", "cp": "17430" }, "geometry": { "type": "Point", "coordinates": [ -0.93559, 45.95056 ] } },
{ "type": "Feature", "properties": { "gml_id": "ETABLISSEMENTS_POLLUEURS.9243", "identifiant": "0007201486", "idetab": "9243", "nom": "AFM RECYCLAGE", "codeape": "3832Z", "cp": "17300" }, "geometry": { "type": "Point", "coordinates": [ -0.95501, 45.95164 ] } },
{ "type": "Feature", "properties": { "gml_id": "ETABLISSEMENTS_POLLUEURS.590618", "identifiant": "0007210971", "idetab": "590618", "nom": "MECAPROTEC CHARENTE MARITIME", "codeape": "2561Z", "cp": "17300" }, "geometry": { "type": "Point", "coordinates": [ -0.94827, 45.95317 ] } },
{ "type": "Feature", "properties": { "gml_id": "ETABLISSEMENTS_POLLUEURS.10238", "identifiant": "0007204172", "idetab": "10238", "nom": "MALICHAUD ATLANTIQUE", "codeape": "3030Z", "cp": "17300" }, "geometry": { "type": "Point", "coordinates": [ -0.95577, 45.9588 ] } },
{ "type": "Feature", "properties": { "gml_id": "ETABLISSEMENTS_POLLUEURS.8156", "identifiant": "0007204029", "idetab": "8156", "nom": "NDC FOUNDRY (EXCFFC 2)", "codeape": "2451Z", "cp": "17300" }, "geometry": { "type": "Point", "coordinates": [ -0.955686, 45.958855 ] } },
{ "type": "Feature", "properties": { "gml_id": "ETABLISSEMENTS_POLLUEURS.591626", "identifiant": "0007204037", "idetab": "591626", "nom": "SUEZ RV SUD OUEST", "codeape": "3811Z", "cp": "17300" }, "geometry": { "type": "Point", "coordinates": [ -0.94934, 45.95889 ] } },
{ "type": "Feature", "properties": { "gml_id": "ETABLISSEMENTS_POLLUEURS.589194", "identifiant": "0007206019", "idetab": "589194", "nom": "INITIATIVES DECORATION", "codeape": "2030Z", "cp": "17300" }, "geometry": { "type": "Point", "coordinates": [ -0.961474, 45.958986 ] } },
{ "type": "Feature", "properties": { "gml_id": "ETABLISSEMENTS_POLLUEURS.10237", "identifiant": "0007204011", "idetab": "10237", "nom": "SARL OPAL", "codeape": "4532Z", "cp": "17430" }, "geometry": { "type": "Point", "coordinates": [ -0.80446, 45.96766 ] } },
{ "type": "Feature", "properties": { "gml_id": "ETABLISSEMENTS_POLLUEURS.12458", "identifiant": "0007207684", "idetab": "12458", "nom": "RACHETE FOURNI NEGOCE", "codeape": "4677Z", "cp": "17870" }, "geometry": { "type": "Point", "coordinates": [ -0.92661, 45.99125 ] } },
{ "type": "Feature", "properties": { "gml_id": "ETABLISSEMENTS_POLLUEURS.8765", "identifiant": "0005201163", "idetab": "8765", "nom": "SYNDICAT MIXTE INTERCOMMUNAL DE COLLECTE ET DE VALORISATION DES DECHETS MENAGERS DU LIBOURNAIS HAUTE GIRONDE", "codeape": "3811Z", "cp": "33910" }, "geometry": { "type": "Point", "coordinates": [ -0.15956, 45.00027 ] } },
{ "type": "Feature", "properties": { "gml_id": "ETABLISSEMENTS_POLLUEURS.3941", "identifiant": "0005200264", "idetab": "3941", "nom": "SOCIETE PETROLIERE DU BEC D'AMBES", "codeape": "5210B", "cp": "33810" }, "geometry": { "type": "Point", "coordinates": [ -0.51291, 45.0025 ] } },
{ "type": "Feature", "properties": { "gml_id": "ETABLISSEMENTS_POLLUEURS.3940", "identifiant": "0005200259", "idetab": "3940", "nom": "YARA FRANCE", "codeape": "2015Z", "cp": "33810" }, "geometry": { "type": "Point", "coordinates": [ -0.51291, 45.0025 ] } },
{ "type": "Feature", "properties": { "gml_id": "ETABLISSEMENTS_POLLUEURS.587769", "identifiant": "0005205199", "idetab": "587769", "nom": "ETABLISSEMENTS L.N MAURICE", "codeape": "0812Z", "cp": "33810" }, "geometry": { "type": "Point", "coordinates": [ -0.53797, 45.00294 ] } },
{ "type": "Feature", "properties": { "gml_id": "ETABLISSEMENTS_POLLUEURS.3939", "identifiant": "0005200257", "idetab": "3939", "nom": "NOURYON PULP AND PERFORMANCE CHEMICALS SAS", "codeape": "2013B", "cp": "33810" }, "geometry": { "type": "Point", "coordinates": [ -0.53414, 45.01063 ] } },
{ "type": "Feature", "properties": { "gml_id": "ETABLISSEMENTS_POLLUEURS.205", "identifiant": "0005200262", "idetab": "205", "nom": "ELECTRICITE DE FRANCE", "codeape": "3513Z", "cp": "33810" }, "geometry": { "type": "Point", "coordinates": [ -0.53534, 45.01135 ] } },
{ "type": "Feature", "properties": { "gml_id": "ETABLISSEMENTS_POLLUEURS.6124", "identifiant": "0005201277", "idetab": "6124", "nom": "AMCOR FLEXIBLE CAPSULES FRANCE", "codeape": "2592Z", "cp": "33660" }, "geometry": { "type": "Point", "coordinates": [ -0.00235, 45.01435 ] } },
{ "type": "Feature", "properties": { "gml_id": "ETABLISSEMENTS_POLLUEURS.7674", "identifiant": "0005201276", "idetab": "7674", "nom": "SMURFIT KAPPA SAS", "codeape": "1721A", "cp": "33660" }, "geometry": { "type": "Point", "coordinates": [ -0.02357, 45.014867 ] } },
{ "type": "Feature", "properties": { "gml_id": "ETABLISSEMENTS_POLLUEURS.206", "identifiant": "0005200266", "idetab": "206", "nom": "ORION ENGENEERED CARBONS SAS", "codeape": "2013B", "cp": "33810" }, "geometry": { "type": "Point", "coordinates": [ -0.532377, 45.015988 ] } },
{ "type": "Feature", "properties": { "gml_id": "ETABLISSEMENTS_POLLUEURS.6084", "identifiant": "0005200239", "idetab": "6084", "nom": "QUIBEL S.A", "codeape": "2592Z", "cp": "33230" }, "geometry": { "type": "Point", "coordinates": [ -0.126664, 45.01644 ] } },
{ "type": "Feature", "properties": { "gml_id": "ETABLISSEMENTS_POLLUEURS.12733", "identifiant": "0005209273", "idetab": "12733", "nom": "VERMILION REP SAS", "codeape": "5210B", "cp": "33810" }, "geometry": { "type": "Point", "coordinates": [ -0.54513, 45.01666 ] } },
{ "type": "Feature", "properties": { "gml_id": "ETABLISSEMENTS_POLLUEURS.6085", "identifiant": "0005200256", "idetab": "6085", "nom": "ENTREPOT PETROLIER DE LA GIRONDE", "codeape": "5210B", "cp": "33810" }, "geometry": { "type": "Point", "coordinates": [ -0.54513, 45.01666 ] } },
{ "type": "Feature", "properties": { "gml_id": "ETABLISSEMENTS_POLLUEURS.12719", "identifiant": "0005207089", "idetab": "12719", "nom": "COUTRAS CASSE AUTO", "codeape": "4532Z", "cp": "33230" }, "geometry": { "type": "Point", "coordinates": [ -0.07949, 45.03033 ] } },
{ "type": "Feature", "properties": { "gml_id": "ETABLISSEMENTS_POLLUEURS.6103", "identifiant": "0005200721", "idetab": "6103", "nom": "UNION COOPERATIVES VINICOLES AQUITAINE", "codeape": "1101Z", "cp": "33230" }, "geometry": { "type": "Point", "coordinates": [ -0.12873, 45.04961 ] } },
{ "type": "Feature", "properties": { "gml_id": "ETABLISSEMENTS_POLLUEURS.11335", "identifiant": "0005207886", "idetab": "11335", "nom": "PAPREC AGRO", "codeape": "3832Z", "cp": "33230" }, "geometry": { "type": "Point", "coordinates": [ -0.00509, 45.0993 ] } },
{ "type": "Feature", "properties": { "gml_id": "ETABLISSEMENTS_POLLUEURS.3952", "identifiant": "0005200859", "idetab": "3952", "nom": "SOVAL", "codeape": "3821Z", "cp": "33620" }, "geometry": { "type": "Point", "coordinates": [ -0.28852, 45.12843 ] } },
{ "type": "Feature", "properties": { "gml_id": "ETABLISSEMENTS_POLLUEURS.594334", "identifiant": "0005205427", "idetab": "594334", "nom": "NEXSTONE", "codeape": "0812Z", "cp": "33620" }, "geometry": { "type": "Point", "coordinates": [ -0.32674, 45.13878 ] } },
{ "type": "Feature", "properties": { "gml_id": "ETABLISSEMENTS_POLLUEURS.592521", "identifiant": "0003101970", "idetab": "592521", "nom": "IMERYS CLERAC", "codeape": "0812Z", "cp": "17360" }, "geometry": { "type": "Point", "coordinates": [ -0.12456, 45.14107 ] } },
{ "type": "Feature", "properties": { "gml_id": "ETABLISSEMENTS_POLLUEURS.592511", "identifiant": "0007201891", "idetab": "592511", "nom": "IMERYS REFRACTORY MINERALS CLERAC", "codeape": "0812Z", "cp": "17210" }, "geometry": { "type": "Point", "coordinates": [ -0.28922, 45.213521 ] } },
{ "type": "Feature", "properties": { "gml_id": "ETABLISSEMENTS_POLLUEURS.592525", "identifiant": "0005200936", "idetab": "592525", "nom": "SOCIETE DE DISTILLERIES VINICOLES DU BLAYAIS", "codeape": "1101Z", "cp": "33860" }, "geometry": { "type": "Point", "coordinates": [ -0.49058, 45.26756 ] } },
{ "type": "Feature", "properties": { "gml_id": "ETABLISSEMENTS_POLLUEURS.587775", "identifiant": "0005208121", "idetab": "587775", "nom": "LES VIGNERONS DE TUTIAC", "codeape": "1102B", "cp": "33820" }, "geometry": { "type": "Point", "coordinates": [ -0.5576, 45.28175 ] } },
{ "type": "Feature", "properties": { "gml_id": "ETABLISSEMENTS_POLLUEURS.3236", "identifiant": "0007203926", "idetab": "3236", "nom": "HEIDELBERG MATERIALS FRANCE CIMENTS", "codeape": "2351Z", "cp": "17210" }, "geometry": { "type": "Point", "coordinates": [ -0.36424, 45.22599 ] } },
{ "type": "Feature", "properties": { "gml_id": "ETABLISSEMENTS_POLLUEURS.588151", "identifiant": "0007204416", "idetab": "588151", "nom": "ISDI MONTENDRE CDC HAUTE SAINTONGE", "codeape": "8411Z", "cp": "17130" }, "geometry": { "type": "Point", "coordinates": [ -0.399064, 45.25953 ] } },
{ "type": "Feature", "properties": { "gml_id": "ETABLISSEMENTS_POLLUEURS.592517", "identifiant": "0007205729", "idetab": "592517", "nom": "IMERYS CLERAC", "codeape": "0812Z", "cp": "17210" }, "geometry": { "type": "Point", "coordinates": [ -0.28319, 45.20833 ] } },
{ "type": "Feature", "properties": { "gml_id": "ETABLISSEMENTS_POLLUEURS.590615", "identifiant": "0007207783", "idetab": "590615", "nom": "BEDEMAT", "codeape": "3821Z", "cp": "17210" }, "geometry": { "type": "Point", "coordinates": [ -0.32448, 45.17969 ] } },
{ "type": "Feature", "properties": { "gml_id": "ETABLISSEMENTS_POLLUEURS.8125", "identifiant": "0007201375", "idetab": "8125", "nom": "METALIT", "codeape": "2512Z", "cp": "17150" }, "geometry": { "type": "Point", "coordinates": [ -0.571419, 45.37159 ] } },
{ "type": "Feature", "properties": { "gml_id": "ETABLISSEMENTS_POLLUEURS.590235", "identifiant": "0003103625", "idetab": "590235", "nom": "SARL RIDEAU JEAN PIERRE", "codeape": "4312A", "cp": "17500" }, "geometry": { "type": "Point", "coordinates": [ -0.454333, 45.39572 ] } },
{ "type": "Feature", "properties": { "gml_id": "ETABLISSEMENTS_POLLUEURS.590602", "identifiant": "0007200596", "idetab": "590602", "nom": "ETATP PICOULET", "codeape": "4312A", "cp": "17500" }, "geometry": { "type": "Point", "coordinates": [ -0.46375, 45.40882 ] } },
{ "type": "Feature", "properties": { "gml_id": "ETABLISSEMENTS_POLLUEURS.592107", "identifiant": "0003100325", "idetab": "592107", "nom": "RIDEAU JEAN-PIERRE", "codeape": "4312A", "cp": "17500" }, "geometry": { "type": "Point", "coordinates": [ -0.46506, 45.41216 ] } },
{ "type": "Feature", "properties": { "gml_id": "ETABLISSEMENTS_POLLUEURS.590605", "identifiant": "0007201678", "idetab": "590605", "nom": "CARRIERES ET MATERIAUX DU GRAND OUEST", "codeape": "0812Z", "cp": "17500" }, "geometry": { "type": "Point", "coordinates": [ -0.50494, 45.45486 ] } },
{ "type": "Feature", "properties": { "gml_id": "ETABLISSEMENTS_POLLUEURS.597344", "identifiant": "0007201458", "idetab": "597344", "nom": "ANTARGAZ", "codeape": "4671Z", "cp": "16130" }, "geometry": { "type": "Point", "coordinates": [ -0.36465, 45.6566 ] } },
{ "type": "Feature", "properties": { "gml_id": "ETABLISSEMENTS_POLLUEURS.11920", "identifiant": "0007201802", "idetab": "11920", "nom": "E. REMY MARTIN & CO", "codeape": "1101Z", "cp": "16100" }, "geometry": { "type": "Point", "coordinates": [ -0.359379, 45.669468 ] } },
{ "type": "Feature", "properties": { "gml_id": "ETABLISSEMENTS_POLLUEURS.13282", "identifiant": "0007201588", "idetab": "13282", "nom": "SOCIETE JAS HENNESSY & C°", "codeape": "4634Z", "cp": "16100" }, "geometry": { "type": "Point", "coordinates": [ -0.31475, 45.67596 ] } },
{ "type": "Feature", "properties": { "gml_id": "ETABLISSEMENTS_POLLUEURS.3224", "identifiant": "0007201655", "idetab": "3224", "nom": "VERALLIA FRANCE", "codeape": "2313Z", "cp": "16100" }, "geometry": { "type": "Point", "coordinates": [ -0.31449, 45.67644 ] } },
{ "type": "Feature", "properties": { "gml_id": "ETABLISSEMENTS_POLLUEURS.597395", "identifiant": "0007201488", "idetab": "597395", "nom": "EVERGLASS", "codeape": "3832Z", "cp": "16100" }, "geometry": { "type": "Point", "coordinates": [ -0.30349, 45.67798 ] } },
{ "type": "Feature", "properties": { "gml_id": "ETABLISSEMENTS_POLLUEURS.11916", "identifiant": "0007201380", "idetab": "11916", "nom": "ORGANISATION ECONOMIQUE DU COGNAC", "codeape": "5210B", "cp": "16100" }, "geometry": { "type": "Point", "coordinates": [ -0.34097, 45.68302 ] } },
{ "type": "Feature", "properties": { "gml_id": "ETABLISSEMENTS_POLLUEURS.11917", "identifiant": "0007201381", "idetab": "11917", "nom": "MARTELL & CO", "codeape": "1101Z", "cp": "16100" }, "geometry": { "type": "Point", "coordinates": [ -0.36067, 45.69425 ] } },
{ "type": "Feature", "properties": { "gml_id": "ETABLISSEMENTS_POLLUEURS.11919", "identifiant": "0007201591", "idetab": "11919", "nom": "SOCIETE JAS HENNESSY & C°", "codeape": "1101Z", "cp": "16100" }, "geometry": { "type": "Point", "coordinates": [ -0.33271, 45.6985 ] } },
{ "type": "Feature", "properties": { "gml_id": "ETABLISSEMENTS_POLLUEURS.11921", "identifiant": "0007201807", "idetab": "11921", "nom": "SOCIETE JAS HENNESSY & C°", "codeape": "1101Z", "cp": "16100" }, "geometry": { "type": "Point", "coordinates": [ -0.31866, 45.71604 ] } },
{ "type": "Feature", "properties": { "gml_id": "ETABLISSEMENTS_POLLUEURS.11918", "identifiant": "0007201557", "idetab": "11918", "nom": "MARTELL & CO", "codeape": "1101Z", "cp": "16370" }, "geometry": { "type": "Point", "coordinates": [ -0.3542, 45.72076 ] } },
{ "type": "Feature", "properties": { "gml_id": "ETABLISSEMENTS_POLLUEURS.5345", "identifiant": "0007201450", "idetab": "5345", "nom": "PLACOPLATRE", "codeape": "2351Z", "cp": "16370" }, "geometry": { "type": "Point", "coordinates": [ -0.31457, 45.72806 ] } },
{ "type": "Feature", "properties": { "gml_id": "ETABLISSEMENTS_POLLUEURS.9241", "identifiant": "0007201194", "idetab": "9241", "nom": "CALCAIRES ET DIORITES DU MOULIN DU ROC", "codeape": "0811Z", "cp": "16370" }, "geometry": { "type": "Point", "coordinates": [ -0.31122, 45.75847 ] } },
{ "type": "Feature", "properties": { "gml_id": "ETABLISSEMENTS_POLLUEURS.11050", "identifiant": "0007201904", "idetab": "11050", "nom": "SOCIETE AUPY FRERES", "codeape": "4532Z", "cp": "16100" }, "geometry": { "type": "Point", "coordinates": [ -0.30002, 45.67997 ] } },
{ "type": "Feature", "properties": { "gml_id": "ETABLISSEMENTS_POLLUEURS.597908", "identifiant": "0007201907", "idetab": "597908", "nom": "VEOLIA PROPRETE POITOU-CHARENTES", "codeape": "3811Z", "cp": "16100" }, "geometry": { "type": "Point", "coordinates": [ -0.3065, 45.67773 ] } },
{ "type": "Feature", "properties": { "gml_id": "ETABLISSEMENTS_POLLUEURS.5360", "identifiant": "0007201931", "idetab": "5360", "nom": "BERNADET", "codeape": "2313Z", "cp": "16100" }, "geometry": { "type": "Point", "coordinates": [ -0.314075, 45.671293 ] } },
{ "type": "Feature", "properties": { "gml_id": "ETABLISSEMENTS_POLLUEURS.596608", "identifiant": "0007201941", "idetab": "596608", "nom": "DS SMITH PACKAGING SUD OUEST", "codeape": "1721A", "cp": "16121" }, "geometry": { "type": "Point", "coordinates": [ -0.34142, 45.69496 ] } },
{ "type": "Feature", "properties": { "gml_id": "ETABLISSEMENTS_POLLUEURS.7058", "identifiant": "0007202069", "idetab": "7058", "nom": "SOCIETE JAS HENNESSY & C°", "codeape": "1101Z", "cp": "16100" }, "geometry": { "type": "Point", "coordinates": [ -0.3313, 45.69628 ] } },
{ "type": "Feature", "properties": { "gml_id": "ETABLISSEMENTS_POLLUEURS.5363", "identifiant": "0007202099", "idetab": "5363", "nom": "REVICO", "codeape": "3821Z", "cp": "16100" }, "geometry": { "type": "Point", "coordinates": [ -0.37432, 45.68265 ] } },
{ "type": "Feature", "properties": { "gml_id": "ETABLISSEMENTS_POLLUEURS.11922", "identifiant": "0007202100", "idetab": "11922", "nom": "ORECO", "codeape": "5210B", "cp": "16100" }, "geometry": { "type": "Point", "coordinates": [ -0.314075, 45.671293 ] } },
{ "type": "Feature", "properties": { "gml_id": "ETABLISSEMENTS_POLLUEURS.599366", "identifiant": "0007202499", "idetab": "599366", "nom": "DISTILLERIE DE LA TOUR", "codeape": "1101Z", "cp": "17800" }, "geometry": { "type": "Point", "coordinates": [ -0.54591, 45.55793 ] } },
{ "type": "Feature", "properties": { "gml_id": "ETABLISSEMENTS_POLLUEURS.5377", "identifiant": "0007203525", "idetab": "5377", "nom": "SYNDICAT VALORISATION DÉCHETS MÉNAGERS DE LA CHARENTE CALITOM", "codeape": "8413Z", "cp": "16200" }, "geometry": { "type": "Point", "coordinates": [ -0.273087, 45.758216 ] } },
{ "type": "Feature", "properties": { "gml_id": "ETABLISSEMENTS_POLLUEURS.8699", "identifiant": "0007203884", "idetab": "8699", "nom": "RENAUD & FILS SARL", "codeape": "0113Z", "cp": "17800" }, "geometry": { "type": "Point", "coordinates": [ -0.53976, 45.56502 ] } },
{ "type": "Feature", "properties": { "gml_id": "ETABLISSEMENTS_POLLUEURS.7069", "identifiant": "0007204022", "idetab": "7069", "nom": "SOCIÉTÉ NOUVELLE COLIBRI PÂTISSERIES", "codeape": "1072Z", "cp": "17800" }, "geometry": { "type": "Point", "coordinates": [ -0.546701, 45.580203 ] } },
{ "type": "Feature", "properties": { "gml_id": "ETABLISSEMENTS_POLLUEURS.11924", "identifiant": "0007204429", "idetab": "11924", "nom": "MARTELL & CO", "codeape": "1101Z", "cp": "16100" }, "geometry": { "type": "Point", "coordinates": [ -0.3298, 45.69267 ] } },
{ "type": "Feature", "properties": { "gml_id": "ETABLISSEMENTS_POLLUEURS.11925", "identifiant": "0007204479", "idetab": "11925", "nom": "ORGANISATION ECONOMIQUE DU COGNAC", "codeape": "5210B", "cp": "16100" }, "geometry": { "type": "Point", "coordinates": [ -0.35177, 45.65944 ] } },
{ "type": "Feature", "properties": { "gml_id": "ETABLISSEMENTS_POLLUEURS.11926", "identifiant": "0007204566", "idetab": "11926", "nom": "MAISON BOINAUD", "codeape": "1101Z", "cp": "16130" }, "geometry": { "type": "Point", "coordinates": [ -0.31047, 45.6146 ] } },
{ "type": "Feature", "properties": { "gml_id": "ETABLISSEMENTS_POLLUEURS.11927", "identifiant": "0007204569", "idetab": "11927", "nom": "DISTILLERIE TESSENDIER ET FILS", "codeape": "4634Z", "cp": "16100" }, "geometry": { "type": "Point", "coordinates": [ -0.31118, 45.70039 ] } },
{ "type": "Feature", "properties": { "gml_id": "ETABLISSEMENTS_POLLUEURS.8162", "identifiant": "0007205082", "idetab": "8162", "nom": "LYSIPACK", "codeape": "1712Z", "cp": "16100" }, "geometry": { "type": "Point", "coordinates": [ -0.35268, 45.66157 ] } },
{ "type": "Feature", "properties": { "gml_id": "ETABLISSEMENTS_POLLUEURS.12455", "identifiant": "0007205101", "idetab": "12455", "nom": "ORECO", "codeape": "5210B", "cp": "16100" }, "geometry": { "type": "Point", "coordinates": [ -0.326584, 45.694995 ] } },
{ "type": "Feature", "properties": { "gml_id": "ETABLISSEMENTS_POLLUEURS.13287", "identifiant": "0007205423", "idetab": "13287", "nom": "ORGANISATION ECONOMIQUE DU COGNAC", "codeape": "5210B", "cp": "16100" }, "geometry": { "type": "Point", "coordinates": [ -0.35127, 45.69846 ] } },
{ "type": "Feature", "properties": { "gml_id": "ETABLISSEMENTS_POLLUEURS.13728", "identifiant": "0007205571", "idetab": "13728", "nom": "DISTILLERIE DE LA GROIE", "codeape": "1101Z", "cp": "16100" }, "geometry": { "type": "Point", "coordinates": [ -0.35611, 45.69897 ] } },
{ "type": "Feature", "properties": { "gml_id": "ETABLISSEMENTS_POLLUEURS.13729", "identifiant": "0007207305", "idetab": "13729", "nom": "SOCIETE INDUSTRIELLE DE RECUPERATION DES METAUX", "codeape": "3832Z", "cp": "17800" }, "geometry": { "type": "Point", "coordinates": [ -0.53165, 45.58165 ] } },
{ "type": "Feature", "properties": { "gml_id": "ETABLISSEMENTS_POLLUEURS.598567", "identifiant": "0007211235", "idetab": "598567", "nom": "SOCIETE JAS HENNESSY & C°", "codeape": "1101Z", "cp": "16130" }, "geometry": { "type": "Point", "coordinates": [ -0.31291, 45.5998 ] } },
{ "type": "Feature", "properties": { "gml_id": "ETABLISSEMENTS_POLLUEURS.588179", "identifiant": "0007211746", "idetab": "588179", "nom": "COMMUNAUTE DES COMMUNES DE LA HAUTE SAINTONGE", "codeape": "3811Z", "cp": "17500" }, "geometry": { "type": "Point", "coordinates": [ -0.51048, 45.42843 ] } },
{ "type": "Feature", "properties": { "gml_id": "ETABLISSEMENTS_POLLUEURS.588180", "identifiant": "0007211747", "idetab": "588180", "nom": "ISDI ARTHENAC CDC HAUTE SAINTONGE", "codeape": "8411Z", "cp": "17520" }, "geometry": { "type": "Point", "coordinates": [ -0.331456, 45.493305 ] } },
{ "type": "Feature", "properties": { "gml_id": "ETABLISSEMENTS_POLLUEURS.7122", "identifiant": "0009000029", "idetab": "7122", "nom": "BA 709 COGNAC", "codeape": "3812Z", "cp": "16100" }, "geometry": { "type": "Point", "coordinates": [ -0.32374, 45.65571 ] } },
{ "type": "Feature", "properties": { "gml_id": "ETABLISSEMENTS_POLLUEURS.7156", "identifiant": "0009000073", "idetab": "7156", "nom": "DEA COGNAC", "codeape": "8422Z", "cp": "16100" }, "geometry": { "type": "Point", "coordinates": [ -0.33719, 45.69488 ] } },
{ "type": "Feature", "properties": { "gml_id": "ETABLISSEMENTS_POLLUEURS.590736", "identifiant": "0051600691", "idetab": "590736", "nom": "AUCHAN", "codeape": "4711F", "cp": "16100" }, "geometry": { "type": "Point", "coordinates": [ -0.314075, 45.671293 ] } },
{ "type": "Feature", "properties": { "gml_id": "ETABLISSEMENTS_POLLUEURS.13423", "identifiant": "16089010", "idetab": "13423", "nom": "AUCHAN", "codeape": "4711F", "cp": "16100" }, "geometry": { "type": "Point", "coordinates": [ -0.314507, 45.680284 ] } },
{ "type": "Feature", "properties": { "gml_id": "ETABLISSEMENTS_POLLUEURS.590612", "identifiant": "0007204243", "idetab": "590612", "nom": "SARL DEMONT'AUTO", "codeape": "4677Z", "cp": "17380" }, "geometry": { "type": "Point", "coordinates": [ -0.60675, 45.96653 ] } },
{ "type": "Feature", "properties": { "gml_id": "ETABLISSEMENTS_POLLUEURS.12445", "identifiant": "0007201264", "idetab": "12445", "nom": "BUTAGAZ", "codeape": "4671Z", "cp": "17100" }, "geometry": { "type": "Point", "coordinates": [ -0.55988, 45.81486 ] } },
{ "type": "Feature", "properties": { "gml_id": "ETABLISSEMENTS_POLLUEURS.596799", "identifiant": "0003101957", "idetab": "596799", "nom": "SEC TP", "codeape": "4211Z", "cp": "17400" }, "geometry": { "type": "Point", "coordinates": [ -0.50558, 45.91254 ] } },
{ "type": "Feature", "properties": { "gml_id": "ETABLISSEMENTS_POLLUEURS.8596", "identifiant": "0007203096", "idetab": "8596", "nom": "SAUR", "codeape": "3600Z", "cp": "17400" }, "geometry": { "type": "Point", "coordinates": [ -0.46361, 45.90535 ] } },
{ "type": "Feature", "properties": { "gml_id": "ETABLISSEMENTS_POLLUEURS.598689", "identifiant": "0003104116", "idetab": "598689", "nom": "RFN RECYCLAGE", "codeape": "3832Z", "cp": "17400" }, "geometry": { "type": "Point", "coordinates": [ -0.46213, 45.90151 ] } },
{ "type": "Feature", "properties": { "gml_id": "ETABLISSEMENTS_POLLUEURS.588149", "identifiant": "0007203583", "idetab": "588149", "nom": "AGROMA", "codeape": "2822Z", "cp": "17160" }, "geometry": { "type": "Point", "coordinates": [ -0.352553, 45.875009 ] } },
{ "type": "Feature", "properties": { "gml_id": "ETABLISSEMENTS_POLLUEURS.5390", "identifiant": "0007205805", "idetab": "5390", "nom": "PAPREC ENERGIES ATLANTIQUE", "codeape": "3821Z", "cp": "17470" }, "geometry": { "type": "Point", "coordinates": [ -0.41308, 45.98091 ] } },
{ "type": "Feature", "properties": { "gml_id": "ETABLISSEMENTS_POLLUEURS.9253", "identifiant": "0007206002", "idetab": "9253", "nom": "SARP SUD-OUEST", "codeape": "3700Z", "cp": "17400" }, "geometry": { "type": "Point", "coordinates": [ -0.5448, 45.95888 ] } },
{ "type": "Feature", "properties": { "gml_id": "ETABLISSEMENTS_POLLUEURS.588183", "identifiant": "0007211751", "idetab": "588183", "nom": "ISDI LE DOUHET", "codeape": "3811Z", "cp": "17100" }, "geometry": { "type": "Point", "coordinates": [ -0.569196, 45.816178 ] } },
{ "type": "Feature", "properties": { "gml_id": "ETABLISSEMENTS_POLLUEURS.588407", "identifiant": "0005208277", "idetab": "588407", "nom": "LAFARGE GRANULATS", "codeape": "0812Z", "cp": "33230" }, "geometry": { "type": "Point", "coordinates": [ -0.04393, 45.03665 ] } },
{ "type": "Feature", "properties": { "gml_id": "ETABLISSEMENTS_POLLUEURS.591355", "identifiant": "0005208458", "idetab": "591355", "nom": "AFM RECYCLAGE", "codeape": "3832Z", "cp": "33230" }, "geometry": { "type": "Point", "coordinates": [ -0.08792, 45.03385 ] } },
{ "type": "Feature", "properties": { "gml_id": "ETABLISSEMENTS_POLLUEURS.5368", "identifiant": "0007202774", "idetab": "5368", "nom": "SOCIETE CHARENTAISE DE DECOR", "codeape": "2313Z", "cp": "16130" }, "geometry": { "type": "Point", "coordinates": [ -0.27073, 45.66644 ] } },
{ "type": "Feature", "properties": { "gml_id": "ETABLISSEMENTS_POLLUEURS.598773", "identifiant": "0007205384", "idetab": "598773", "nom": "H. MOUNIER", "codeape": "4634Z", "cp": "16130" }, "geometry": { "type": "Point", "coordinates": [ -0.2634, 45.67515 ] } },
{ "type": "Feature", "properties": { "gml_id": "ETABLISSEMENTS_POLLUEURS.598069", "identifiant": "0007204448", "idetab": "598069", "nom": "SOCIETE JAS HENNESSY & C°", "codeape": "1101Z", "cp": "16130" }, "geometry": { "type": "Point", "coordinates": [ -0.25415, 45.58951 ] } },
{ "type": "Feature", "properties": { "gml_id": "ETABLISSEMENTS_POLLUEURS.11928", "identifiant": "0007205126", "idetab": "11928", "nom": "CAMUS LA GRANDE MARQUE SA", "codeape": "1101Z", "cp": "16130" }, "geometry": { "type": "Point", "coordinates": [ -0.21141, 45.63633 ] } },
{ "type": "Feature", "properties": { "gml_id": "ETABLISSEMENTS_POLLUEURS.11931", "identifiant": "0007205679", "idetab": "11931", "nom": "LOUIS ROYER", "codeape": "1101Z", "cp": "16200" }, "geometry": { "type": "Point", "coordinates": [ -0.18246, 45.68166 ] } },
{ "type": "Feature", "properties": { "gml_id": "ETABLISSEMENTS_POLLUEURS.11923", "identifiant": "0007202971", "idetab": "11923", "nom": "SNC LIANTS CHARENTAIS ET CIE", "codeape": "2399Z", "cp": "16200" }, "geometry": { "type": "Point", "coordinates": [ -0.17488, 45.68184 ] } },
{ "type": "Feature", "properties": { "gml_id": "ETABLISSEMENTS_POLLUEURS.11933", "identifiant": "0007205682", "idetab": "11933", "nom": "COURVOISIER S.A.S", "codeape": "1101Z", "cp": "16200" }, "geometry": { "type": "Point", "coordinates": [ -0.17103, 45.68163 ] } },
{ "type": "Feature", "properties": { "gml_id": "ETABLISSEMENTS_POLLUEURS.3225", "identifiant": "0007201670", "idetab": "3225", "nom": "AMCOR FLEXIBLES FRANCE", "codeape": "1712Z", "cp": "16300" }, "geometry": { "type": "Point", "coordinates": [ -0.15307, 45.459 ] } },
{ "type": "Feature", "properties": { "gml_id": "ETABLISSEMENTS_POLLUEURS.11932", "identifiant": "0007205681", "idetab": "11932", "nom": "COURVOISIER S.A.S", "codeape": "1101Z", "cp": "16200" }, "geometry": { "type": "Point", "coordinates": [ -0.13634, 45.69654 ] } },
{ "type": "Feature", "properties": { "gml_id": "ETABLISSEMENTS_POLLUEURS.594538", "identifiant": "0007200044", "idetab": "594538", "nom": "CALCAIRES ET DIORITES DU MOULIN DU ROC", "codeape": "0812Z", "cp": "16120" }, "geometry": { "type": "Point", "coordinates": [ -0.08142, 45.60113 ] } },
{ "type": "Feature", "properties": { "gml_id": "ETABLISSEMENTS_POLLUEURS.8151", "identifiant": "0007202943", "idetab": "8151", "nom": "BERTRAND POLICO", "codeape": "2711Z", "cp": "16120" }, "geometry": { "type": "Point", "coordinates": [ -0.05082, 45.5916 ] } },
{ "type": "Feature", "properties": { "gml_id": "ETABLISSEMENTS_POLLUEURS.593308", "identifiant": "0007201480", "idetab": "593308", "nom": "CDMR BIRAC", "codeape": "0812Z", "cp": "16120" }, "geometry": { "type": "Point", "coordinates": [ -0.03872, 45.57305 ] } },
{ "type": "Feature", "properties": { "gml_id": "ETABLISSEMENTS_POLLUEURS.11934", "identifiant": "0007205733", "idetab": "11934", "nom": "SOCIETE JAS HENNESSY & C°", "codeape": "7731Z", "cp": "16200" }, "geometry": { "type": "Point", "coordinates": [ -0.16666, 45.68626 ] } },
{ "type": "Feature", "properties": { "gml_id": "ETABLISSEMENTS_POLLUEURS.594350", "identifiant": "0007205820", "idetab": "594350", "nom": "BACARDI-MARTINI PRODUCTION", "codeape": "1101Z", "cp": "16130" }, "geometry": { "type": "Point", "coordinates": [ -0.25931, 45.67296 ] } },
{ "type": "Feature", "properties": { "gml_id": "ETABLISSEMENTS_POLLUEURS.5393", "identifiant": "0007206533", "idetab": "5393", "nom": "LES ATELIERS DU GOUT", "codeape": "1085Z", "cp": "16300" }, "geometry": { "type": "Point", "coordinates": [ -0.152839, 45.470832 ] } },
{ "type": "Feature", "properties": { "gml_id": "ETABLISSEMENTS_POLLUEURS.11936", "identifiant": "0007206712", "idetab": "11936", "nom": "UNION COOP VITICULTEURS CHARENTAIS", "codeape": "1101Z", "cp": "16130" }, "geometry": { "type": "Point", "coordinates": [ -0.26251, 45.67336 ] } },
{ "type": "Feature", "properties": { "gml_id": "ETABLISSEMENTS_POLLUEURS.11082", "identifiant": "0007207639", "idetab": "11082", "nom": "CASSE AUTO CHARENTAISE", "codeape": "4532Z", "cp": "16300" }, "geometry": { "type": "Point", "coordinates": [ -0.040102, 45.42502 ] } },
{ "type": "Feature", "properties": { "gml_id": "ETABLISSEMENTS_POLLUEURS.592084", "identifiant": "0007209190", "idetab": "592084", "nom": "SODEPA", "codeape": "0121Z", "cp": "16130" }, "geometry": { "type": "Point", "coordinates": [ -0.16348, 45.61047 ] } },
{ "type": "Feature", "properties": { "gml_id": "ETABLISSEMENTS_POLLUEURS.598047", "identifiant": "0051600044", "idetab": "598047", "nom": "LES ATELIERS DU GOUT", "codeape": "1085Z", "cp": "16300" }, "geometry": { "type": "Point", "coordinates": [ -0.15055, 45.46767 ] } },
{ "type": "Feature", "properties": { "gml_id": "ETABLISSEMENTS_POLLUEURS.590734", "identifiant": "0051600551", "idetab": "590734", "nom": "ELVAPORCS", "codeape": "0146Z", "cp": "16300" }, "geometry": { "type": "Point", "coordinates": [ -0.13156, 45.50099 ] } },
{ "type": "Feature", "properties": { "gml_id": "ETABLISSEMENTS_POLLUEURS.598647", "identifiant": "0100000476", "idetab": "598647", "nom": "SARL DISTILLERIE DE CHEZ SABOURIN", "codeape": "1101Z", "cp": "17520" }, "geometry": { "type": "Point", "coordinates": [ -0.20276, 45.49172 ] } },
{ "type": "Feature", "properties": { "gml_id": "ETABLISSEMENTS_POLLUEURS.5604", "identifiant": "16338027", "idetab": "5604", "nom": "S.A.S ELVAPORCS", "codeape": "0146Z", "cp": "16300" }, "geometry": { "type": "Point", "coordinates": [ -0.132379, 45.519616 ] } },
{ "type": "Feature", "properties": { "gml_id": "ETABLISSEMENTS_POLLUEURS.3212", "identifiant": "0007201294", "idetab": "3212", "nom": "SOTRIVAL", "codeape": "3821Z", "cp": "17270" }, "geometry": { "type": "Point", "coordinates": [ -0.22913, 45.20001 ] } },
{ "type": "Feature", "properties": { "gml_id": "ETABLISSEMENTS_POLLUEURS.3226", "identifiant": "0007201820", "idetab": "3226", "nom": "IMERYS CLERAC", "codeape": "0812Z", "cp": "17270" }, "geometry": { "type": "Point", "coordinates": [ -0.22298, 45.19057 ] } },
{ "type": "Feature", "properties": { "gml_id": "ETABLISSEMENTS_POLLUEURS.588181", "identifiant": "0007211748", "idetab": "588181", "nom": "ISDI CLÉRAC", "codeape": "8411Z", "cp": "17270" }, "geometry": { "type": "Point", "coordinates": [ -0.197604, 45.179776 ] } },
{ "type": "Feature", "properties": { "gml_id": "ETABLISSEMENTS_POLLUEURS.589193", "identifiant": "0007205956", "idetab": "589193", "nom": "IMERYS CLERAC", "codeape": "0812Z", "cp": "17210" }, "geometry": { "type": "Point", "coordinates": [ -0.19219, 45.29567 ] } },
{ "type": "Feature", "properties": { "gml_id": "ETABLISSEMENTS_POLLUEURS.592405", "identifiant": "0007208761", "idetab": "592405", "nom": "IMERYS REFRACTORY MINERALS CLERAC", "codeape": "0812Z", "cp": "17360" }, "geometry": { "type": "Point", "coordinates": [ -0.186651, 45.128084 ] } },
{ "type": "Feature", "properties": { "gml_id": "ETABLISSEMENTS_POLLUEURS.3209", "identifiant": "0007201173", "idetab": "3209", "nom": "IMERYS REFRACTORY MINERALS CLERAC", "codeape": "0812Z", "cp": "16480" }, "geometry": { "type": "Point", "coordinates": [ -0.153756, 45.360109 ] } },
{ "type": "Feature", "properties": { "gml_id": "ETABLISSEMENTS_POLLUEURS.7056", "identifiant": "0007201985", "idetab": "7056", "nom": "SUEZ ALTERNATIVE FUELS & ENERGIES", "codeape": "3822Z", "cp": "16480" }, "geometry": { "type": "Point", "coordinates": [ -0.15365, 45.35955 ] } },
{ "type": "Feature", "properties": { "gml_id": "ETABLISSEMENTS_POLLUEURS.592514", "identifiant": "0007211285", "idetab": "592514", "nom": "IMERYS REFRACTORY MINERALS CLERAC", "codeape": "0812Z", "cp": "16480" }, "geometry": { "type": "Point", "coordinates": [ -0.112506, 45.323082 ] } },
{ "type": "Feature", "properties": { "gml_id": "ETABLISSEMENTS_POLLUEURS.590609", "identifiant": "0007202732", "idetab": "590609", "nom": "CDMR PASSIRAC", "codeape": "0812Z", "cp": "16480" }, "geometry": { "type": "Point", "coordinates": [ -0.09439, 45.31549 ] } },
{ "type": "Feature", "properties": { "gml_id": "ETABLISSEMENTS_POLLUEURS.8597", "identifiant": "0007203532", "idetab": "8597", "nom": "VALOPARC (ISDND)", "codeape": "3811Z", "cp": "16190" }, "geometry": { "type": "Point", "coordinates": [ -0.02892, 45.39751 ] } },
{ "type": "Feature", "properties": { "gml_id": "ETABLISSEMENTS_POLLUEURS.5381", "identifiant": "0007203699", "idetab": "5381", "nom": "SVDM DE LA CHARENTE - CET DE POULLIGNAC", "codeape": "3811Z", "cp": "16190" }, "geometry": { "type": "Point", "coordinates": [ -0.018225, 45.399321 ] } },
{ "type": "Feature", "properties": { "gml_id": "ETABLISSEMENTS_POLLUEURS.598785", "identifiant": "0100000864", "idetab": "598785", "nom": "IMERYS CLERAC", "codeape": "0812Z", "cp": "17270" }, "geometry": { "type": "Point", "coordinates": [ -0.1937, 45.18294 ] } },
{ "type": "Feature", "properties": { "gml_id": "ETABLISSEMENTS_POLLUEURS.11935", "identifiant": "0007205819", "idetab": "11935", "nom": "MARTELL & CO", "codeape": "1101Z", "cp": "16170" }, "geometry": { "type": "Point", "coordinates": [ -0.05385, 45.79871 ] } },
{ "type": "Feature", "properties": { "gml_id": "ETABLISSEMENTS_POLLUEURS.594831", "identifiant": "0007201489", "idetab": "594831", "nom": "HEIDELBERG MATERIALS FRANCE GRANULATS", "codeape": "0812Z", "cp": "16140" }, "geometry": { "type": "Point", "coordinates": [ -0.01944, 45.96325 ] } }
]
}
